~Version Information
VERS.                     2.0: CWLS log ASCII Standard Version 2.00
WRAP.                      NO: One line per depth step

~Well Information Block
#MNEM.UNIT                 Value                       Information
#------------              -----                       -----------
STRT.M                    4334.700                    :START
STOP.M                    4561.700                    :STOP
STEP.M                       0.100                    :STEP
NULL.                     -999.25                     :NULL VALUE
COMP.         Statoil Petroleum AS                    :Company
WELL.         15/9-F-11 T2                            :Well
FLD .         VOLVE                                   :Field
LOC .                                                 :Location
PROV.                                                 :Province
CNTY.                                                 :County
STATE.                                                 :State
CTRY.         Norway                                  :Country
DATE.                                                 :Log Date
SRVC.                                                 :Service Company
UWI .                                                 :Unique Well Identifier
API .                                                 :API Number
PD  .         MSL                                     :Permanent Datum
EDF .M            54.900                              :Elevations D.F.
EGL .M           -91.000                              :Elevations G.L.
ELZ .M            54.900                              :Elev. Log Zero
LMF .         DF                                      :Log Measured From

~Curve Information
#MNEM   .UNIT             API CODE Curve Description
#------------             -------- -----------------
DEPTH   .M            00 001 00 00:   0  Depth
BVW     .v/v          00 000 00 00:   1  BVW:CPI:rC:NONE:v1
CARB_FLAG.unitless    00 000 00 00:   2  CARB_FLAG:CPI:rC:NONE:v1
COAL_FLAG.unitless    00 000 00 00:   3  COAL_FLAG:CPI:rC:NONE:v1
KLOGH   .mD           00 000 00 00:   4  KLOGH:CPI:rC:NONE:v1
PHIF    .v/v          00 000 00 00:   5  PHIF:CPI:rC:NONE:v1
SAND_FLAG.unitless    00 000 00 00:   6  SAND_FLAG:CPI:rC:NONE:v1
SW      .v/v          00 000 00 00:   7  SW:CPI:rC:NONE:v1
VSH     .v/v          00 000 00 00:   8  VSH:CPI:rC:NONE:v1

~Parameter Information
#MNEM.UNIT       Value           Description
#------------    -----           -----------
RUN .         1                 :Run number

~Other Information
PETROPHYSICAL INTERPRETATION: OUTPUT

# --- LOG MNEMONICS AND UNITS ---
#Depth     BVW        CARB_FLAG  COAL_FLAG  KLOGH      PHIF       SAND_FLAG  SW         VSH       
#M         v/v        unitless   unitless   mD         v/v        unitless   v/v        v/v       

~A
# ...
  4464.300      0.180      0.000      0.000      6.417      0.180      1.000      1.000      0.293
  4464.400      0.171      0.000      0.000      8.494      0.186      1.000      0.921      0.284
  4464.500      0.156      0.000      0.000      9.958      0.189      1.000      0.823      0.280
  4464.600      0.146      0.000      0.000     10.623      0.190      1.000      0.771      0.277
  4464.700      0.148      0.000      0.000     11.358      0.187      1.000      0.790      0.271
  4464.800      0.174      0.000      0.000     14.213      0.184      1.000      0.944      0.258
  4464.900      0.182      0.000      0.000     19.692      0.182      1.000      1.000      0.240
  4465.000      0.178      0.000      0.000     24.668      0.178      1.000      1.000      0.226
  4465.100      0.172      0.000      0.000     23.647      0.172      1.000      1.000      0.222
  4465.200      0.165      0.000      0.000     21.665      0.165      1.000      1.000      0.221
  4465.300      0.165      0.000      0.000     18.159      0.165      1.000      1.000      0.229
  4465.400      0.173      0.000      0.000     19.384      0.173      1.000      1.000      0.233
  4465.500      0.186      0.000      0.000     21.604      0.186      1.000      1.000      0.239
  4465.600      0.196      0.000      0.000     26.396      0.196      1.000      1.000      0.239
  4465.700      0.201      0.000      0.000     24.748      0.201      1.000      1.000      0.246
  4465.800      0.203      0.000      0.000     27.552      0.203      1.000      1.000      0.243
  4465.900      0.203      0.000      0.000     35.554      0.203      1.000      1.000      0.230
  4466.000      0.202      0.000      0.000     45.796      0.202      1.000      1.000      0.217
  4466.100      0.199      0.000      0.000     71.707      0.199      1.000      1.000      0.193
  4466.200      0.195      0.000      0.000    124.121      0.195      1.000      1.000      0.163
  4466.300      0.190      0.000      0.000    226.670      0.190      1.000      1.000      0.130
  4466.400      0.187      0.000      0.000    277.887      0.187      1.000      1.000      0.117
  4466.500      0.186      0.000      0.000    287.026      0.186      1.000      1.000      0.114
  4466.600      0.186      0.000      0.000    303.140      0.186      1.000      1.000      0.112
  4466.700      0.183      0.000      0.000    294.529      0.187      1.000      0.978      0.114
  4466.800      0.182      0.000      0.000    282.837      0.189      1.000      0.960      0.118
  4466.900      0.183      0.000      0.000    335.178      0.193      1.000      0.946      0.114
  4467.000      0.188      0.000      0.000    383.294      0.198      1.000      0.949      0.112
  4467.100      0.192      0.000      0.000    330.782      0.202      1.000      0.950      0.122
  4467.200      0.195      0.000      0.000    270.857      0.204      1.000      0.955      0.133
  4467.300      0.195      0.000      0.000    266.914      0.202      1.000      0.963      0.133
  4467.400      0.194      0.000      0.000    248.796      0.200      1.000      0.967      0.134
  4467.500      0.193      0.000      0.000    249.145      0.198      1.000      0.973      0.132
  4467.600      0.192      0.000      0.000    275.999      0.197      1.000      0.978      0.126
  4467.700      0.191      0.000      0.000    262.324      0.195      1.000      0.983      0.127
  4467.800      0.191      0.000      0.000    226.514      0.192      1.000      0.994      0.132
  4467.900      0.190      0.000      0.000    197.713      0.190      1.000      1.000      0.136
  4468.000      0.188      0.000      0.000    192.801      0.188      1.000      1.000      0.136
  4468.100      0.188      0.000      0.000    198.975      0.188      1.000      1.000      0.134
  4468.200      0.188      0.000      0.000    213.042      0.188      1.000      1.000      0.131
  4468.300      0.191      0.000      0.000    233.200      0.191      1.000      1.000      0.129
  4468.400      0.194      0.000      0.000    235.088      0.194      1.000      1.000      0.131
  4468.500      0.197      0.000      0.000    282.889      0.197      1.000      1.000      0.125
  4468.600      0.198      0.000      0.000    260.737      0.198      1.000      1.000      0.130
  4468.700      0.198      0.000      0.000    249.759      0.198      1.000      1.000      0.132
  4468.800      0.196      0.000      0.000    249.948      0.197      1.000      0.998      0.130
  4468.900      0.194      0.000      0.000    242.124      0.195      1.000      0.995      0.131
  4469.000      0.194      0.000      0.000    207.772      0.194      1.000      1.000      0.137
  4469.100      0.191      0.000      0.000    198.225      0.193      1.000      0.990      0.138
  4469.200      0.178      0.000      0.000    187.241      0.192      1.000      0.927      0.140
  4469.300      0.172      0.000      0.000    176.104      0.193      1.000      0.896      0.144
  4469.400      0.179      0.000      0.000    186.948      0.194      1.000      0.921      0.142
  4469.500      0.191      0.000      0.000    174.277      0.195      1.000      0.981      0.146
  4469.600      0.195      0.000      0.000    188.315      0.195      1.000      1.000      0.143
  4469.700      0.195      0.000      0.000    214.671      0.195      1.000      1.000      0.136
  4469.800      0.196      0.000      0.000    189.595      0.196      1.000      1.000      0.143
  4469.900      0.197      0.000      0.000    192.567      0.197      1.000      1.000      0.144
  4470.000      0.198      0.000      0.000    184.620      0.198      1.000      1.000      0.147
  4470.100      0.198      0.000      0.000    210.085      0.198      1.000      1.000      0.140
  4470.200      0.197      0.000      0.000    252.521      0.197      1.000      1.000      0.130
  4470.300      0.197      0.000      0.000    275.145      0.197      1.000      1.000      0.126
  4470.400      0.198      0.000      0.000    267.680      0.198      1.000      1.000      0.129
  4470.500      0.199      0.000      0.000    223.408      0.199      1.000      1.000      0.138
  4470.600      0.196      0.000      0.000    188.882      0.199      1.000      0.988      0.146
  4470.700      0.185      0.000      0.000    137.654      0.198      1.000      0.933      0.161
  4470.800      0.177      0.000      0.000    103.643      0.196      1.000      0.901      0.173
  4470.900      0.177      0.000      0.000     73.484      0.192      1.000      0.919      0.186
  4471.000      0.176      0.000      0.000     55.423      0.185      1.000      0.954      0.193
  4471.100      0.176      0.000      0.000     35.230      0.176      1.000      0.997      0.207
  4471.200      0.171      0.000      0.000     28.403      0.171      1.000      1.000      0.212
  4471.300      0.171      0.000      0.000     26.657      0.171      1.000      1.000      0.216
  4471.400      0.177      0.000      0.000     42.813      0.177      1.000      1.000      0.198
  4471.500      0.186      0.000      0.000     54.939      0.186      1.000      1.000      0.194
  4471.600      0.193      0.000      0.000     58.489      0.193      1.000      1.000      0.198
  4471.700      0.199      0.000      0.000     69.517      0.199      1.000      1.000      0.194
  4471.800      0.203      0.000      0.000     83.200      0.203      1.000      1.000      0.189
  4471.900      0.207      0.000      0.000    105.079      0.207      1.000      1.000      0.182
  4472.000      0.211      0.000      0.000    115.101      0.211      1.000      1.000      0.181
  4472.100      0.213      0.000      0.000    118.247      0.213      1.000      1.000      0.181
  4472.200      0.212      0.000      0.000    115.155      0.212      1.000      1.000      0.182
  4472.300      0.199      0.000      0.000    114.534      0.209      1.000      0.953      0.179
