~Version Information
VERS.                     2.0: CWLS log ASCII Standard Version 2.00
WRAP.                      NO: One line per depth step

~Well Information Block
#MNEM.UNIT                 Value                       Information
#------------              -----                       -----------
STRT.M                   3205.0000                    :START
STOP.M                   4093.8000                    :STOP
STEP.M                      0.1000                    :STEP
NULL.                     -999.25                     :NULL VALUE
COMP.         Statoil Petroleum                       :Company
WELL.         15/9-F-1 C                              :Well
FLD .         VOLVE                                   :Field
LOC .         Maersk Inspirer                         :Location
PROV.                                                 :Province
CNTY.                                                 :County
STATE.                                                 :State
CTRY.                                                 :Country
DATE.                                                 :Log Date
SRVC.                                                 :Service Company
UWI .                                                 :Unique Well Identifier
API .                                                 :API Number
LATI.         058 26' 29.907" N    DMS                :Latitude
LONG.         001 53' 14.708" E    DMS                :Longtitude
PD  .         MSL                                     :Permanent Datum
EDF .M                54.9000                         :Elevations D.F.
EGL .M               -91.0000                         :Elevations G.L.
ELZ .M                54.9000                         :Elev. Log Zero
LMF .         DF                                      :Log Measured From

~Curve Information
#MNEM   .UNIT             API CODE Curve Description
#------------             -------- -----------------
DEPTH   .M            00 001 00 00:   0  Depth
BADDATA_FLAG.unitless 00 000 00 00:   1  Bad Data Flag
BVW     .v/v          00 000 00 00:   2  Bulk Volume Water
COAL_FLAG.unitless    00 000 00 00:   3  Coal Flag
KLOGH   .mD           00 000 00 00:   4  Permeability
PHIF    .v/v          00 000 00 00:   5  Final Porosity
SAND_FLAG.unitless    00 000 00 00:   6  Sand Flag
SW      .v/v          00 000 00 00:   7  Water Saturation
VCARB   .v/v          00 000 00 00:   8  VCARB
VSH     .v/v          00 000 00 00:   9  Volume of Shale

~Parameter Information
#MNEM.UNIT       Value           Description
#------------    -----           -----------
RUN .         1                 :Run number

~Other Information
PETROPHYSICAL INTERPRETATION: OUTPUT

# --- LOG MNEMONICS AND UNITS ---
#Depth          BADDATA_FLAG    BVW             COAL_FLAG       KLOGH           PHIF            SAND_FLAG       SW              VCARB           VSH            
#M              unitless        v/v             unitless        mD              v/v             unitless        v/v             v/v             v/v            

~A
# ...
      3675.0000          0.0000          0.0873          0.0000          1.3191          0.1941          1.0000          0.4499          0.0000          0.3814
      3675.1000          0.0000          0.0872          0.0000          1.4541          0.1957          1.0000          0.4453          0.0000          0.3781
      3675.2000          0.0000          0.0881          0.0000          2.0195          0.1968          1.0000          0.4474          0.0000          0.3633
      3675.3000          0.0000          0.0890          0.0000          2.4891          0.1982          1.0000          0.4492          0.0000          0.3544
      3675.4000          0.0000          0.0898          0.0000          3.4633          0.1998          1.0000          0.4497          0.0000          0.3398
      3675.5000          0.0000          0.0921          0.0000          3.5068          0.2008          1.0000          0.4588          0.0000          0.3401
      3675.6000          0.0000          0.0894          0.0000          2.3584          0.1995          1.0000          0.4479          0.0000          0.3582
      3675.7000          0.0000          0.0839          0.0000          1.7832          0.1978          1.0000          0.4241          0.0000          0.3702
      3675.8000          0.0000          0.0829          0.0000          2.1733          0.1959          1.0000          0.4233          0.0000          0.3589
      3675.9000          0.0000          0.0803          0.0000          1.7142          0.1945          1.0000          0.4128          0.0000          0.3691
      3676.0000          0.0000          0.0768          0.0000          1.7612          0.1934          1.0000          0.3971          0.0000          0.3668
      3676.1000          0.0000          0.0739          0.0000          2.4486          0.1921          1.0000          0.3846          0.0000          0.3498
      3676.2000          0.0000          0.0727          0.0000          1.9521          0.1910          1.0000          0.3804          0.0000          0.3598
      3676.3000          0.0000          0.0720          0.0000          1.2011          0.1908          1.0000          0.3775          0.0000          0.3830
      3676.4000          0.0000          0.0691          0.0000          1.3420          0.1912          1.0000          0.3614          0.0000          0.3780
      3676.5000          0.0000          0.0684          0.0000          1.4848          0.1914          1.0000          0.3572          0.0000          0.3733
      3676.6000          0.0000          0.0700          0.0000          1.1545          0.1906          1.0000          0.3672          0.0000          0.3847
      3676.7000          0.0000          0.0714          0.0000          0.9626          0.1885          1.0000          0.3786          0.0000          0.3916
      3676.8000          0.0000          0.0718          0.0000          1.0060          0.1853          1.0000          0.3873          0.0000          0.3867
      3676.9000          0.0000          0.0713          0.0000          1.2344          0.1816          1.0000          0.3924          0.0000          0.3735
      3677.0000          0.0000          0.0703          0.0000          1.3364          0.1782          1.0000          0.3946          0.0000          0.3666
      3677.1000          0.0000          0.0722          0.0000          1.1744          0.1755          1.0000          0.4113          0.0000          0.3704
      3677.2000          0.0000          0.0728          0.0000          1.3908          0.1740          1.0000          0.4183          0.0000          0.3609
      3677.3000          0.0000          0.0743          0.0000          1.0594          0.1726          1.0000          0.4307          0.0000          0.3728
      3677.4000          0.0000          0.0776          0.0000          1.0981          0.1754          1.0000          0.4421          0.0000          0.3737
      3677.5000          0.0000          0.0839          0.0000          1.3314          0.1785          1.0000          0.4701          0.0000          0.3671
      3677.6000          0.0000          0.0913          0.0000          1.6800          0.1813          1.0000          0.5035          0.0000          0.3584
      3677.7000          0.0000          0.0890          0.0000          2.5990          0.1825          1.0000          0.4878          0.0000          0.3384
      3677.8000          0.0000          0.0859          0.0000          2.1226          0.1812          1.0000          0.4739          0.0000          0.3470
      3677.9000          0.0000          0.0835          0.0000          2.1072          0.1782          1.0000          0.4684          0.0000          0.3446
      3678.0000          0.0000          0.0861          0.0000          2.2232          0.1741          1.0000          0.4948          0.0000          0.3384
      3678.1000          0.0000          0.0808          0.0000          2.2814          0.1702          1.0000          0.4747          0.0000          0.3338
      3678.2000          0.0000          0.0744          0.0000          1.9712          0.1326          1.0000          0.5614          0.0000          0.3073
      3678.3000          0.0000          0.0713          0.0000          2.1374          0.1290          1.0000          0.5524          0.0000          0.3003
      3678.4000          0.0000          0.0738          0.0000          1.4722          0.1311          1.0000          0.5634          0.0000          0.3201
      3678.5000          0.0000          0.0851          0.0000          2.7364          0.1717          1.0000          0.4953          0.0000          0.3263
      3678.6000          0.0000          0.0882          0.0000          2.7891          0.1751          1.0000          0.5038          0.0000          0.3284
      3678.7000          0.0000          0.0853          0.0000          3.2296          0.1788          1.0000          0.4770          0.0000          0.3246
      3678.8000          0.0000          0.0838          0.0000          4.9327          0.1812          1.0000          0.4623          0.0000          0.3063
      3678.9000          0.0000          0.0833          0.0000          4.7989          0.1830          1.0000          0.4551          0.0000          0.3092
      3679.0000          0.0000          0.0830          0.0000          3.8319          0.1847          1.0000          0.4492          0.0000          0.3216
      3679.1000          0.0000          0.0830          0.0000          2.8497          0.1873          1.0000          0.4430          0.0000          0.3382
      3679.2000          0.0000          0.0835          0.0000          3.3310          0.1908          1.0000          0.4375          0.0000          0.3337
      3679.3000          0.0000          0.0839          0.0000          6.2988          0.1949          1.0000          0.4306          0.0000          0.3067
      3679.4000          0.0000          0.0851          0.0000          8.6579          0.1998          1.0000          0.4259          0.0000          0.2956
      3679.5000          0.0000          0.0842          0.0000         10.9867          0.2021          1.0000          0.4166          0.0000          0.2862
      3679.6000          0.0000          0.0828          0.0000         13.7157          0.2045          1.0000          0.4051          0.0000          0.2776
      3679.7000          0.0000          0.0827          0.0000         12.1014          0.2062          1.0000          0.4009          0.0000          0.2852
      3679.8000          0.0000          0.0833          0.0000         18.1390          0.2107          1.0000          0.3952          0.0000          0.2697
      3679.9000          0.0000          0.0826          0.0000         12.8310          0.2172          1.0000          0.3804          0.0000          0.2922
