~Version Information
VERS.                     2.0: CWLS log ASCII Standard Version 2.00
WRAP.                      NO: One line per depth step

~Well Information Block
#MNEM.UNIT                 Value                       Information
#------------              -----                       -----------
STRT.M                     188.500                    :START
STOP.M                     346.700                    :STOP
STEP.M                       0.100                    :STEP
NULL.                     -999.25                     :NULL VALUE
COMP.         STATOIL PETRPOLEUM AS                   :Company
WELL.         15/9-F-11                               :Well
FLD .         VOLVE                                   :Field
LOC .         Maersk Inspirer                         :Location
PROV.                                                 :Province
CNTY.                                                 :County
STATE.                                                 :State
CTRY.         Norway                                  :Country
DATE.                                                 :Log Date
SRVC.                                                 :Service Company
UWI .                                                 :Unique Well Identifier
API .                                                 :API Number
LATI.         058 26' 29.960" N    DMS                :Latitude
LONG.         001 53' 14.870" E    DMS                :Longtitude
PD  .         MSL                                     :Permanent Datum
EDF .M            54.900                              :Elevations D.F.
EGL .M           -91.000                              :Elevations G.L.
WD  .M           -91.000                              :Water Depth
ELZ .M            54.900                              :Elev. Log Zero

~Curve Information
#MNEM   .UNIT             API CODE Curve Description
#------------             -------- -----------------
DEPTH   .M            00 001 00 00:   0  Depth
BS      .inches       00 000 00 00:   1  BS:COMPOSITE:rC:NONE:v1
GR      .API          30 150 01 01:   2  GR:COMPOSITE:rC:NONE:v1
RACEHM  .ohm.m        95 220 00 01:   3  RACEHM:COMPOSITE:rC:NONE:v1
RACELM  .ohm.m        00 524 01 00:   4  RACELM:COMPOSITE:rC:NONE:v1
RD      .ohm.m        00 000 00 00:   5  RD:COMPOSITE:rC:NONE:v1
RM      .ohm.m        00 000 00 00:   6  RM:COMPOSITE:rC:NONE:v1
ROP     .m/hr         00 000 00 00:   7  ROP:COMPOSITE:rC:NONE:v1
RPCEHM  .ohm.m        00 000 00 00:   8  RPCEHM:COMPOSITE:rC:NONE:v1
RPCELM  .ohm.m        00 000 00 00:   9  RPCELM:COMPOSITE:rC:NONE:v1
RT      .ohm.m        00 000 00 00:  10  RT:COMPOSITE:rC:NONE:v1

~Parameter Information
#MNEM.UNIT       Value           Description
#------------    -----           -----------
RUN .         1                 :Run number

~Other Information
PETROPHYSICAL INTERPRETATION: INPUT

# --- LOG MNEMONICS AND UNITS ---
#Depth     BS         GR         RACEHM     RACELM     RD         RM         ROP        RPCEHM     RPCELM     RT        
#M         inches     API        ohm.m      ohm.m      ohm.m      ohm.m      m/hr       ohm.m      ohm.m      ohm.m     

~A
# ...
   255.500     26.000     15.600      0.556      0.784      0.630      0.567     27.264      0.567      0.630      0.567
   255.600     26.000     16.500      0.614      0.796      0.680      0.587     26.669      0.587      0.680      0.587
   255.700     26.000     17.400      0.665      0.840      0.680      0.656     26.442      0.656      0.680      0.656
   255.800     26.000     17.900      0.644      0.866      0.777      0.696     26.216      0.696      0.777      0.696
   255.900     26.000     18.800      0.746      0.895      0.838      0.861     25.989      0.861      0.838      0.861
   256.000     26.000     19.400      0.712      0.930      0.850      0.856     24.815      0.856      0.850      0.856
   256.100     26.000     19.400      0.727      0.906      0.954      1.354     23.641      1.354      0.954      1.354
   256.200     26.000     17.600      0.796      0.951      0.922      1.000     22.467      1.000      0.922      1.000
   256.300     26.000     15.800      0.751      1.013      0.917      1.021     20.913      1.021      0.917      1.021
   256.400     26.000     15.500      0.683      1.010      0.914      1.069     19.359      1.069      0.914      1.069
   256.500     26.000     15.900      0.798      1.016      0.921      0.934     17.806      0.934      0.921      0.934
   256.600     26.000     14.800      0.778      1.033      0.869      0.864     16.003      0.864      0.869      0.864
   256.700     26.000     14.500      0.718      1.033      0.802      0.701     14.200      0.701      0.803      0.701
   256.800     26.000     15.200      0.748      1.032      0.774      0.646     12.396      0.646      0.774      0.646
   256.900     26.000     15.800      0.726      1.039      0.730      0.605     11.008      0.605      0.730      0.605
   257.000     26.000     15.500      0.743      1.028      0.734      0.590      9.619      0.590      0.734      0.590
   257.100     26.000     14.800      0.740      1.038      0.736      0.615      8.230      0.615      0.737      0.615
   257.200     26.000     15.500      0.775      1.064      0.724      0.628      7.789      0.628      0.724      0.628
   257.300     26.000     15.900      0.786      1.094      0.780      0.677      7.348      0.677      0.780      0.677
   257.400     26.000     15.600      0.786      1.068      0.878      0.800      6.907      0.800      0.878      0.800
   257.500     26.000     15.300      0.866      1.094      0.838      0.838      6.427      0.838      0.838      0.838
   257.600     26.000     15.500      0.823      1.123      0.813      0.663      5.948      0.663      0.813      0.663
   257.700     26.000     15.100      0.819      1.101      0.864      0.884      5.468      0.884      0.864      0.884
   257.800     26.000     14.600      0.781      1.097      0.849      0.832      4.973      0.832      0.850      0.832
   257.900     26.000     15.100      0.809      1.098      0.839      0.869      4.479      0.869      0.839      0.869
   258.000     26.000     15.600      0.820      1.128      0.886      0.990      3.984      0.990      0.886      0.990
   258.100     26.000     17.600      0.800      1.127      0.940      0.871      3.947      0.871      0.940      0.871
   258.200     26.000     19.800      0.877      1.116      1.031      1.194      3.911      1.194      1.031      1.194
   258.300     26.000     20.700      0.887      1.155      0.999      0.992      3.875      0.992      0.999      0.992
   258.400     26.000     20.900      0.882      1.148      1.193      1.541      3.911      1.541      1.193      1.541
   258.500     26.000     20.700      1.172      1.252      1.207      1.506      3.948      1.506      1.207      1.506
   258.600     26.000     21.200      0.962      1.214      1.225      1.741      3.984      1.741      1.225      1.741
   258.700     26.000     20.300      1.071      1.241      1.219      1.241      3.952      1.241      1.219      1.241
   258.800     26.000     20.000      1.059      1.247      1.196      1.432      3.921      1.432      1.196      1.432
   258.900     26.000     19.800      1.073      1.206      1.182      1.275      3.890      1.275      1.182      1.275
   259.000     26.000     20.100      0.974      1.193      1.209      1.456      3.879      1.456      1.209      1.456
   259.100     26.000     19.700      0.920      1.229      1.194      1.303      3.868      1.303      1.194      1.303
   259.200     26.000     17.800      1.033      1.228      1.180      1.248      3.858      1.248      1.180      1.248
   259.300     26.000     17.400      0.914      1.211      1.137      1.277      3.883      1.277      1.137      1.277
   259.400     26.000     16.100      0.945      1.190      1.108      1.328      3.907      1.328      1.108      1.328
   259.500     26.000     15.400      0.907      1.165      1.120      1.210      3.932      1.210      1.120      1.210
   259.600     26.000     15.800      0.859      1.152      1.070      1.334      3.877      1.334      1.070      1.334
   259.700     26.000     15.800      0.964      1.215      1.064      1.001      3.821      1.001      1.064      1.001
   259.800     26.000     16.900      0.843      1.148      1.014      1.091      3.765      1.091      1.014      1.091
   259.900     26.000     16.300      0.917      1.208      1.051      0.807      3.710      0.807      1.051      0.807
   260.000     26.000     15.800      0.912      1.201      1.025      0.966      3.654      0.966      1.025      0.966
   260.100     26.000     16.700      0.910      1.195      1.043      1.069      3.598      1.069      1.043      1.069
   260.200     26.000     16.500      0.837      1.186      1.004      1.461      3.605      1.461      1.004      1.461
   260.300     26.000     17.300      0.698      1.246      1.067      1.223      3.613      1.223      1.067      1.223
   260.400     26.000     18.100      0.860      1.196      1.145      0.744      3.620      0.744      1.145      0.744
   260.500     26.000     18.800      0.870      1.200      0.949      1.264      3.863      1.264      0.949      1.264
   260.600     26.000     18.800      0.806      1.204      0.896      1.549      4.107      1.549      0.896      1.549
   260.700     26.000     18.000      0.864      1.157      0.901      1.135      4.351      1.135      0.901      1.135
   260.800     26.000     17.300      0.885      1.147      1.052      0.774      4.796      0.774      1.052      0.774
   260.900     26.000     17.400      0.907      1.165      1.021      0.883      5.242      0.883      1.021      0.883
   261.000     26.000     17.800      0.823      1.208      0.889      1.123      5.687      1.123      0.889      1.123
   261.100     26.000     17.300      0.835      1.208      0.951      1.040      6.428      1.040      0.951      1.040
   261.200     26.000     17.700      0.915      1.144      1.054      0.859      7.168      0.859      1.054      0.859
   261.300     26.000     18.600      0.850      1.164      1.058      0.858      7.908      0.858      1.058      0.858
   261.400     26.000     18.200      0.908      1.164      0.993      0.903      8.624      0.903      0.993      0.903
   261.500     26.000     18.200      0.912      1.263      0.984      1.152      9.340      1.152      0.984      1.152
   261.600     26.000     18.200      0.900      1.234      1.000      0.958     10.056      0.958      1.000      0.958
   261.700     26.000     17.600      0.941      1.286      1.047      1.039     10.595      1.039      1.046      1.039
   261.800     26.000     17.200      0.876      1.238      1.083      1.192     11.134      1.192      1.083      1.192
   261.900     26.000     17.300      0.997      1.340      1.124      1.137     11.673      1.137      1.124      1.137
   262.000     26.000     17.000      1.018      1.347      1.143      1.088     11.676      1.088      1.143      1.088
   262.100     26.000     17.900      1.057      1.318      1.148      1.066     11.679      1.066      1.148      1.066
