~Version Information
VERS.                     2.0: CWLS log ASCII Standard Version 2.00
WRAP.                      NO: One line per depth step

~Well Information Block
#MNEM.UNIT                 Value                       Information
#------------              -----                       -----------
STRT.M                   3204.0000                    :START
STOP.M                   3464.9000                    :STOP
STEP.M                      0.1000                    :STEP
NULL.                     -999.25                     :NULL VALUE
COMP.         Statoil Petroleum                       :Company
WELL.         15/9-F-1 B                              :Well
FLD .         VOLVE                                   :Field
LOC .         Maersk Inspirer                         :Location
PROV.                                                 :Province
CNTY.                                                 :County
STATE.                                                 :State
CTRY.                                                 :Country
DATE.                                                 :Log Date
SRVC.                                                 :Service Company
UWI .                                                 :Unique Well Identifier
API .                                                 :API Number
LATI.         058 26' 29.907" N    DMS                :Latitude
LONG.         001 53' 14.708" E    DMS                :Longtitude
PD  .         MSL                                     :Permanent Datum
ELZ .M                 0.0000                         :Elev. Log Zero

~Curve Information
#MNEM   .UNIT             API CODE Curve Description
#------------             -------- -----------------
DEPTH   .M            00 001 00 00:   0  Depth
BVW     .V/V          00 000 00 00:   1  Bulk Volume Water
CARB_FLAG.V/V         00 000 00 00:   2  Carbonate Flag
COAL_FLAG.UNITLESS    00 000 00 00:   3  Coal flag
KLOGH   .mD           00 000 00 00:   4  Calculated Horizontal PERMEABILITY from logs
PHIF    .V/V          00 000 00 00:   5  Final Porosity
SAND_FLAG.UNITLESS    00 000 00 00:   6  Sand Flag
SW      .V/V          00 000 00 00:   7  Water Saturation
VCARB   .V/V          00 000 00 00:   8  VCARB
VSH     .V/V          00 000 00 00:   9  Volume of Shale

~Parameter Information
#MNEM.UNIT       Value           Description
#------------    -----           -----------
HLD .         Terms and Conditions.:Header Legal Disclaimer
RUN .         1                 :Run number

~Other Information
PETROPHYSICAL INTERPRETATION: OUTPUT

# --- LOG MNEMONICS AND UNITS ---
#Depth          BVW             CARB_FLAG       COAL_FLAG       KLOGH           PHIF            SAND_FLAG       SW              VCARB           VSH            
#M              V/V             V/V             UNITLESS        mD              V/V             UNITLESS        V/V             V/V             V/V            

~A
# ...
      3324.0000          0.0516          0.0000          0.0000          0.0077          0.0516          0.0000          1.0000          0.0947          0.3830
      3324.1000          0.0446          0.0000          0.0000          0.0047          0.0446          0.0000          1.0000          0.1211          0.3781
      3324.2000          0.0380          0.0000          0.0000          0.0031          0.0380          0.0000          1.0000          0.1623          0.3602
      3324.3000          0.0330          0.0000          0.0000          0.0024          0.0330          0.0000          1.0000          0.2016          0.3418
      3324.4000          0.0311          0.0000          0.0000          0.0022          0.0311          0.0000          1.0000          0.2231          0.3300
      3324.5000          0.0335          0.0000          0.0000          0.0026          0.0335          0.0000          1.0000          0.2123          0.3319
      3324.6000          0.0399          0.0000          0.0000          0.0042          0.0399          0.0000          1.0000          0.1959          0.3272
      3324.7000          0.0474          0.0000          0.0000          0.0077          0.0474          0.0000          1.0000          0.1853          0.3149
      3324.8000          0.0525          0.0000          0.0000          0.0129          0.0525          0.0000          1.0000          0.2063          0.2844
      3324.9000          0.0547          0.0000          0.0000          0.0156          0.0547          0.0000          1.0000          0.2062          0.2783
      3325.0000          0.0558          0.0000          0.0000          0.0159          0.0558          0.0000          1.0000          0.1831          0.2931
      3325.1000          0.0572          0.0000          0.0000          0.0162          0.0572          0.0000          1.0000          0.1572          0.3103
      3325.2000          0.0585          0.0000          0.0000          0.0142          0.0585          0.0000          1.0000          0.0979          0.3595
      3325.3000          0.0583          0.0000          0.0000          0.0095          0.0583          0.0000          1.0000          0.0215          0.4436
      3325.4000          0.0564          0.0000          0.0000          0.0064          0.0564          0.0000          1.0000          0.0000          0.5008
      3325.5000          0.0539          0.0000          0.0000          0.0045          0.0539          0.0000          1.0000          0.0000          0.5335
      3325.6000          0.0516          0.0000          0.0000          0.0039          0.0516          0.0000          1.0000          0.0000          0.5276
      3325.7000          0.0497          0.0000          0.0000          0.0048          0.0497          0.0000          1.0000          0.0353          0.4537
      3325.8000          0.0481          0.0000          0.0000          0.0068          0.0481          0.0000          1.0000          0.1369          0.3538
      3325.9000          0.0477          0.0000          0.0000          0.0091          0.0477          0.0000          1.0000          0.2255          0.2831
      3326.0000          0.0489          0.0000          0.0000          0.0121          0.0489          0.0000          1.0000          0.2803          0.2408
      3326.1000          0.0502          0.0000          0.0000          0.0128          0.0502          0.0000          1.0000          0.2604          0.2509
      3326.2000          0.0490          0.0000          0.0000          0.0103          0.0490          0.0000          1.0000          0.2294          0.2767
      3326.3000          0.0434          0.0000          0.0000          0.0057          0.0434          0.0000          1.0000          0.1977          0.3163
      3326.4000          0.0342          0.0000          0.0000          0.0025          0.0342          0.0000          1.0000          0.1857          0.3512
      3326.5000          0.0251          0.0000          0.0000          0.0014          0.0251          0.0000          1.0000          0.2437          0.3307
      3326.6000          0.0211          0.0000          0.0000          0.0011          0.0211          0.0000          1.0000          0.2800          0.3152
      3326.7000          0.0289          0.0000          0.0000          0.0021          0.0289          0.0000          1.0000          0.2697          0.3018
      3326.8000          0.0520          0.0000          0.0000          0.0115          0.0520          0.0000          1.0000          0.1862          0.3013
      3326.9000          0.0912          0.0000          0.0000          0.2169          0.0912          0.0000          1.0000          0.0664          0.2910
      3327.0000          0.1347          0.0000          0.0000          5.8696          0.1347          1.0000          1.0000          0.0000          0.2707
      3327.1000          0.1654          0.0000          0.0000         66.8955          0.1672          1.0000          0.9895          0.0000          0.2625
      3327.2000          0.1703          0.0000          0.0000        216.5007          0.1826          1.0000          0.9326          0.0000          0.2543
      3327.3000          0.1700          0.0000          0.0000        333.5944          0.1866          1.0000          0.9110          0.0000          0.2244
      3327.4000          0.1709          0.0000          0.0000        353.2547          0.1861          1.0000          0.9185          0.0000          0.2038
      3327.5000          0.1668          0.0000          0.0000        287.1973          0.1835          1.0000          0.9086          0.0000          0.2076
      3327.6000          0.1553          0.0000          0.0000        170.3848          0.1771          1.0000          0.8768          0.0000          0.2186
      3327.7000          0.1644          0.0000          0.0000         71.5522          0.1668          1.0000          0.9857          0.0000          0.2415
      3327.8000          0.1569          0.0000          0.0000         35.0689          0.1569          1.0000          1.0000          0.0000          0.2382
      3327.9000          0.1546          0.0000          0.0000         30.5419          0.1546          1.0000          1.0000          0.0000          0.2307
      3328.0000          0.1632          0.0000          0.0000         62.8981          0.1632          1.0000          1.0000          0.0000          0.2119
      3328.1000          0.1794          0.0000          0.0000        196.0776          0.1794          1.0000          1.0000          0.0000          0.2246
      3328.2000          0.1920          0.0000          0.0000        590.2224          0.1954          1.0000          0.9826          0.0000          0.2404
      3328.3000          0.1782          0.0000          0.0000       1174.2299          0.2049          1.0000          0.8698          0.0000          0.2438
      3328.4000          0.1669          0.0000          0.0000       1162.8232          0.2057          1.0000          0.8115          0.0000          0.2578
      3328.5000          0.1603          0.0000          0.0000        690.9691          0.2001          1.0000          0.8012          0.0000          0.2821
      3328.6000          0.1520          0.0000          0.0000        314.3985          0.1905          1.0000          0.7978          0.0000          0.2995
      3328.7000          0.1530          0.0000          0.0000        125.9816          0.1787          1.0000          0.8561          0.0000          0.3088
      3328.8000          0.1538          0.0000          0.0000         56.2743          0.1660          1.0000          0.9263          0.0000          0.2808
      3328.9000          0.1555          0.0000          0.0000         31.0232          0.1559          1.0000          0.9971          0.0000          0.2492
