~Version Information
VERS.                     2.0: CWLS log ASCII Standard Version 2.00
WRAP.                      NO: One line per depth step

~Well Information Block
#MNEM.UNIT                 Value                       Information
#------------              -----                       -----------
STRT.M                   3358.0000                    :START
STOP.M                   3681.9000                    :STOP
STEP.M                      0.1000                    :STEP
NULL.                     -999.25                     :NULL VALUE
COMP.         Statoil Petroleum AS                    :Company
WELL.         15/9-F-1 A                              :Well
FLD .         VOLVE                                   :Field
LOC .         Maersk Inspirer                         :Location
PROV.                                                 :Province
CNTY.         Unused                                  :County
STATE.                                                 :State
CTRY.                                                 :Country
DATE.                                                 :Log Date
SRVC.                                                 :Service Company
UWI .                                                 :Unique Well Identifier
API .                                                 :API Number
LATI.         058 26' 29.907" N    DMS                :Latitude
LONG.         001 53' 14.708" E    DMS                :Longtitude
PD  .         MSL                                     :Permanent Datum
ELZ .M                 0.0000                         :Elev. Log Zero

~Curve Information
#MNEM   .UNIT             API CODE Curve Description
#------------             -------- -----------------
DEPTH   .M            00 001 00 00:   0  Depth
BVW     .V/V          00 000 00 00:   1  Bound Volume Water
COAL_FLAG.unitless    00 000 00 00:   2  Coal Flag
KLOGH   .mD           00 000 00 00:   3  Calculated Horizontal PERMEABILITY from logs
PHIF    .V/V          00 000 00 00:   4  Final porosity
SAND_FLAG.unitless    00 000 00 00:   5  Sand Flag
SW      .V/V          00 000 00 00:   6  Water Saturation (Archie)
VCARB   .V/V          00 000 00 00:   7  IFC(CARB_FLAG>0.5,1-VSH, VCARB)
VSH     .V/V          00 000 00 00:   8  Volume of Shale

~Parameter Information
#MNEM.UNIT       Value           Description
#------------    -----           -----------
HLD .         Terms and Conditions.:Header Legal Disclaimer
RUN .         1                 :Run number

~Other Information
PETROPHYSICAL INTERPRETATION: OUTPUT

# --- LOG MNEMONICS AND UNITS ---
#Depth          BVW             COAL_FLAG       KLOGH           PHIF            SAND_FLAG       SW              VCARB           VSH            
#M              V/V             unitless        mD              V/V             unitless        V/V             V/V             V/V            

~A
# ...
      3626.8000          0.0200          0.0000          0.0010          0.0200          0.0000          1.0000          0.0000          0.8495
      3626.9000          0.0200          0.0000          0.0010          0.0200          0.0000          1.0000          0.0000          0.8308
      3627.0000          0.0200          0.0000          0.0010          0.0200          0.0000          1.0000          0.0000          0.8125
      3627.1000          0.0200          0.0000          0.0010          0.0200          0.0000          1.0000          0.0000          0.7981
      3627.2000          0.0200          0.0000          0.0010          0.0200          0.0000          1.0000          0.0000          0.7872
      3627.3000          0.0200          0.0000          0.0010          0.0200          0.0000          1.0000          0.0000          0.7619
      3627.4000          0.0200          0.0000          0.0010          0.0200          0.0000          1.0000          0.0000          0.7095
      3627.5000          0.0200          0.0000          0.0010          0.0200          0.0000          1.0000          0.0000          0.6629
      3627.6000          0.0200          0.0000          0.0010          0.0200          0.0000          1.0000          0.0091          0.5847
      3627.7000          0.0200          0.0000          0.0010          0.0200          0.0000          1.0000          0.0516          0.5245
      3627.8000          0.0200          0.0000          0.0010          0.0200          0.0000          1.0000          0.0608          0.5132
      3627.9000          0.0200          0.0000          0.0010          0.0200          0.0000          1.0000          0.0199          0.5677
      3628.0000          0.0200          0.0000          0.0010          0.0200          0.0000          1.0000          0.0000          0.6671
      3628.1000          0.0200          0.0000          0.0010          0.0200          0.0000          1.0000          0.0000          0.7256
      3628.2000          0.0200          0.0000          0.0010          0.0200          0.0000          1.0000          0.0000          0.7682
      3628.3000          0.0200          0.0000          0.0010          0.0200          0.0000          1.0000          0.0000          0.7882
      3628.4000          0.0200          0.0000          0.0010          0.0200          0.0000          1.0000          0.0000          0.8143
      3628.5000          0.0200          0.0000          0.0010          0.0200          0.0000          1.0000          0.0000          0.7988
      3628.6000          0.0200          0.0000          0.0010          0.0200          0.0000          1.0000          0.0000          0.8031
      3628.7000          0.0200          0.0000          0.0010          0.0200          0.0000          1.0000          0.0000          0.8178
      3628.8000          0.0204          0.0000          0.0010          0.0204          0.0000          1.0000          0.0000          0.8165
      3628.9000          0.0221          0.0000          0.0010          0.0221          0.0000          1.0000          0.0000          0.8365
      3629.0000          0.0225          0.0000          0.0010          0.0225          0.0000          1.0000          0.0000          0.8498
      3629.1000          0.0214          0.0000          0.0010          0.0214          0.0000          1.0000          0.0000          0.8572
      3629.2000          0.0200          0.0000          0.0010          0.0200          0.0000          1.0000          0.0000          0.8396
      3629.3000          0.0200          0.0000          0.0010          0.0200          0.0000          1.0000          0.0000          0.8055
      3629.4000          0.0200          0.0000          0.0010          0.0200          0.0000          1.0000          0.0000          0.7988
      3629.5000          0.0200          0.0000          0.0010          0.0200          0.0000          1.0000          0.0000          0.7967
      3629.6000          0.0205          0.0000          0.0010          0.0205          0.0000          1.0000          0.0000          0.8083
      3629.7000          0.0215          0.0000          0.0010          0.0215          0.0000          1.0000          0.0000          0.8041
      3629.8000          0.0206          0.0000          0.0010          0.0206          0.0000          1.0000          0.0000          0.7857
      3629.9000          0.0200          0.0000          0.0010          0.0200          0.0000          1.0000          0.0000          0.7795
      3630.0000          0.0200          0.0000          0.0010          0.0200          0.0000          1.0000          0.0000          0.7741
      3630.1000          0.0200          0.0000          0.0010          0.0200          0.0000          1.0000          0.0000          0.7603
      3630.2000          0.0200          0.0000          0.0010          0.0200          0.0000          1.0000          0.0000          0.7680
      3630.3000          0.0200          0.0000          0.0010          0.0200          0.0000          1.0000          0.0000          0.7644
      3630.4000          0.0200          0.0000          0.0010          0.0200          0.0000          1.0000          0.0000          0.7651
      3630.5000          0.0200          0.0000          0.0010          0.0200          0.0000          1.0000          0.0000          0.7693
      3630.6000          0.0200          0.0000          0.0010          0.0200          0.0000          1.0000          0.0000          0.7582
      3630.7000          0.0200          0.0000          0.0010          0.0200          0.0000          1.0000          0.0000          0.7649
      3630.8000          0.0200          0.0000          0.0010          0.0200          0.0000          1.0000          0.0000          0.7908
      3630.9000          0.0200          0.0000          0.0010          0.0200          0.0000          1.0000          0.0000          0.8203
      3631.0000          0.0200          0.0000          0.0010          0.0200          0.0000          1.0000          0.0000          0.8167
      3631.1000          0.0200          0.0000          0.0010          0.0200          0.0000          1.0000          0.0000          0.8236
      3631.2000          0.0200          0.0000          0.0010          0.0200          0.0000          1.0000          0.0000          0.8296
      3631.3000          0.0200          0.0000          0.0010          0.0200          0.0000          1.0000          0.0000          0.8200
      3631.4000          0.0200          0.0000          0.0010          0.0200          0.0000          1.0000          0.0000          0.8067
      3631.5000          0.0200          0.0000          0.0010          0.0200          0.0000          1.0000          0.0000          0.7983
      3631.6000          0.0200          0.0000          0.0010          0.0200          0.0000          1.0000          0.0000          0.8093
      3631.7000          0.0200          0.0000          0.0010          0.0200          0.0000          1.0000          0.0000          0.8009
      3631.8000          0.0200          0.0000          0.0010          0.0200          0.0000          1.0000          0.0000          0.7972
      3631.9000          0.0200          0.0000          0.0010          0.0200          0.0000          1.0000          0.0000          0.7892
      3632.0000          0.0201          0.0000          0.0010          0.0201          0.0000          1.0000          0.0000          0.7618
      3632.1000          0.0200          0.0000          0.0010          0.0200          0.0000          1.0000          0.0000          0.7631
      3632.2000          0.0200          0.0000          0.0010          0.0200          0.0000          1.0000          0.0000          0.7683
      3632.3000          0.0200          0.0000          0.0010          0.0200          0.0000          1.0000          0.0000          0.7728
