~Version Information
VERS.                     2.0: CWLS log ASCII Standard Version 2.00
WRAP.                      NO: One line per depth step

~Well Information Block
#MNEM.UNIT                 Value                       Information
#------------              -----                       -----------
STRT.M                   3358.0000                    :START
STOP.M                   3681.9000                    :STOP
STEP.M                      0.1000                    :STEP
NULL.                     -999.25                     :NULL VALUE
COMP.         Statoil Petroleum AS                    :Company
WELL.         15/9-F-1 A                              :Well
FLD .         VOLVE                                   :Field
LOC .         Maersk Inspirer                         :Location
PROV.                                                 :Province
CNTY.         Unused                                  :County
STATE.                                                 :State
CTRY.                                                 :Country
DATE.                                                 :Log Date
SRVC.                                                 :Service Company
UWI .                                                 :Unique Well Identifier
API .                                                 :API Number
LATI.         058 26' 29.907" N    DMS                :Latitude
LONG.         001 53' 14.708" E    DMS                :Longtitude
PD  .         MSL                                     :Permanent Datum
ELZ .M                 0.0000                         :Elev. Log Zero

~Curve Information
#MNEM   .UNIT             API CODE Curve Description
#------------             -------- -----------------
DEPTH   .M            00 001 00 00:   0  Depth
BVW     .V/V          00 000 00 00:   1  Bound Volume Water
COAL_FLAG.unitless    00 000 00 00:   2  Coal Flag
KLOGH   .mD           00 000 00 00:   3  Calculated Horizontal PERMEABILITY from logs
PHIF    .V/V          00 000 00 00:   4  Final porosity
SAND_FLAG.unitless    00 000 00 00:   5  Sand Flag
SW      .V/V          00 000 00 00:   6  Water Saturation (Archie)
VCARB   .V/V          00 000 00 00:   7  IFC(CARB_FLAG>0.5,1-VSH, VCARB)
VSH     .V/V          00 000 00 00:   8  Volume of Shale

~Parameter Information
#MNEM.UNIT       Value           Description
#------------    -----           -----------
HLD .         Terms and Conditions.:Header Legal Disclaimer
RUN .         1                 :Run number

~Other Information
PETROPHYSICAL INTERPRETATION: OUTPUT

# --- LOG MNEMONICS AND UNITS ---
#Depth          BVW             COAL_FLAG       KLOGH           PHIF            SAND_FLAG       SW              VCARB           VSH            
#M              V/V             unitless        mD              V/V             unitless        V/V             V/V             V/V            

~A
# ...
      3654.8000          0.0218          0.0000          0.0010          0.0218          0.0000          1.0000          0.0000          0.7344
      3654.9000          0.0218          0.0000          0.0010          0.0218          0.0000          1.0000          0.0000          0.7377
      3655.0000          0.0218          0.0000          0.0010          0.0218          0.0000          1.0000          0.0000          0.7397
      3655.1000          0.0224          0.0000          0.0010          0.0224          0.0000          1.0000          0.0000          0.7364
      3655.2000          0.0241          0.0000          0.0010          0.0241          0.0000          1.0000          0.0000          0.7341
      3655.3000          0.0266          0.0000          0.0010          0.0266          0.0000          1.0000          0.0000          0.7266
      3655.4000          0.0284          0.0000          0.0010          0.0284          0.0000          1.0000          0.0000          0.7007
      3655.5000          0.0286          0.0000          0.0010          0.0286          0.0000          1.0000          0.0000          0.6817
      3655.6000          0.0269          0.0000          0.0010          0.0269          0.0000          1.0000          0.0000          0.7105
      3655.7000          0.0237          0.0000          0.0010          0.0237          0.0000          1.0000          0.0000          0.7335
      3655.8000          0.0200          0.0000          0.0010          0.0200          0.0000          1.0000          0.0000          0.7515
      3655.9000          0.0200          0.0000          0.0010          0.0200          0.0000          1.0000          0.0000          0.7760
      3656.0000          0.0200          0.0000          0.0010          0.0200          0.0000          1.0000          0.0000          0.7707
      3656.1000          0.0200          0.0000          0.0010          0.0200          0.0000          1.0000          0.0000          0.7661
      3656.2000          0.0200          0.0000          0.0010          0.0200          0.0000          1.0000          0.0000          0.7582
      3656.3000          0.0200          0.0000          0.0010          0.0200          0.0000          1.0000          0.0000          0.7492
      3656.4000          0.0210          0.0000          0.0010          0.0210          0.0000          1.0000          0.0000          0.7562
      3656.5000          0.0213          0.0000          0.0010          0.0213          0.0000          1.0000          0.0000          0.7467
      3656.6000          0.0210          0.0000          0.0010          0.0210          0.0000          1.0000          0.0000          0.7400
      3656.7000          0.0214          0.0000          0.0010          0.0214          0.0000          1.0000          0.0000          0.7421
      3656.8000          0.0226          0.0000          0.0010          0.0226          0.0000          1.0000          0.0000          0.7331
      3656.9000          0.0238          0.0000          0.0010          0.0238          0.0000          1.0000          0.0000          0.7369
      3657.0000          0.0238          0.0000          0.0010          0.0238          0.0000          1.0000          0.0000          0.7367
      3657.1000          0.0231          0.0000          0.0010          0.0231          0.0000          1.0000          0.0000          0.7262
      3657.2000          0.0225          0.0000          0.0010          0.0225          0.0000          1.0000          0.0000          0.7037
      3657.3000          0.0223          0.0000          0.0010          0.0223          0.0000          1.0000          0.0000          0.6859
      3657.4000          0.0220          0.0000          0.0010          0.0220          0.0000          1.0000          0.0000          0.6977
      3657.5000         -999.25          0.0000         -999.25         -999.25          0.0000         -999.25         -999.25          0.7008
      3657.6000         -999.25          0.0000         -999.25         -999.25          0.0000         -999.25         -999.25          0.6969
      3657.7000         -999.25          0.0000         -999.25         -999.25          0.0000         -999.25         -999.25          0.6945
      3657.8000         -999.25          0.0000         -999.25         -999.25          0.0000         -999.25         -999.25          0.6939
      3657.9000         -999.25          0.0000         -999.25         -999.25          0.0000         -999.25         -999.25          0.6845
      3658.0000         -999.25          0.0000         -999.25         -999.25         -999.25         -999.25         -999.25          0.6510
      3658.1000         -999.25          0.0000         -999.25         -999.25         -999.25         -999.25         -999.25          0.6371
      3658.2000         -999.25          0.0000         -999.25         -999.25         -999.25         -999.25         -999.25          0.6326
      3658.3000         -999.25          0.0000         -999.25         -999.25         -999.25         -999.25         -999.25          0.6350
      3658.4000         -999.25          0.0000         -999.25         -999.25         -999.25         -999.25         -999.25          0.6604
      3658.5000         -999.25          0.0000         -999.25         -999.25         -999.25         -999.25         -999.25          0.7009
      3658.6000         -999.25          0.0000         -999.25         -999.25         -999.25         -999.25         -999.25          0.7235
      3658.7000         -999.25          0.0000         -999.25         -999.25         -999.25         -999.25         -999.25          0.7227
      3658.8000         -999.25          0.0000         -999.25         -999.25         -999.25         -999.25         -999.25          0.7235
      3658.9000         -999.25          0.0000         -999.25         -999.25         -999.25         -999.25         -999.25          0.7332
      3659.0000         -999.25          0.0000         -999.25         -999.25         -999.25         -999.25         -999.25          0.7643
      3659.1000         -999.25          0.0000         -999.25         -999.25         -999.25         -999.25         -999.25          0.7824
      3659.2000         -999.25          0.0000         -999.25         -999.25         -999.25         -999.25         -999.25          0.8068
      3659.3000         -999.25          0.0000         -999.25         -999.25         -999.25         -999.25         -999.25          0.8053
      3659.4000         -999.25          0.0000         -999.25         -999.25         -999.25         -999.25         -999.25          0.7889
      3659.5000         -999.25          0.0000         -999.25         -999.25         -999.25         -999.25         -999.25          0.7726
      3659.6000         -999.25          0.0000         -999.25         -999.25         -999.25         -999.25         -999.25          0.7555
      3659.7000         -999.25          0.0000         -999.25         -999.25         -999.25         -999.25         -999.25          0.7381
      3659.8000         -999.25          0.0000         -999.25         -999.25         -999.25         -999.25         -999.25          0.7225
      3659.9000         -999.25          0.0000         -999.25         -999.25         -999.25         -999.25         -999.25          0.7364
      3660.0000         -999.25          0.0000         -999.25         -999.25         -999.25         -999.25         -999.25          0.7514
      3660.1000         -999.25          0.0000         -999.25         -999.25         -999.25         -999.25         -999.25          0.7804
      3660.2000         -999.25          0.0000         -999.25         -999.25         -999.25         -999.25         -999.25          0.8136
      3660.3000         -999.25          0.0000         -999.25         -999.25         -999.25         -999.25         -999.25          0.8044
