~Version Information
VERS.                     2.0: CWLS log ASCII Standard Version 2.00
WRAP.                      NO: One line per depth step

~Well Information Block
#MNEM.UNIT                 Value                       Information
#------------              -----                       -----------
STRT.M                    3351.600                    :START
STOP.M                    4759.200                    :STOP
STEP.M                       0.100                    :STEP
NULL.                     -999.25                     :NULL VALUE
COMP.         Statoil Petroleum AS                    :Company
WELL.         15/9-F-11 B                             :Well
FLD .         VOLVE                                   :Field
LOC .         Maersk Inspirer                         :Location
PROV.                                                 :Province
CNTY.                                                 :County
STATE.                                                 :State
CTRY.                                                 :Country
DATE.                                                 :Log Date
SRVC.                                                 :Service Company
UWI .                                                 :Unique Well Identifier
API .                                                 :API Number
LATI.         058 26' 29.960" N    DMS                :Latitude
LONG.         001 53' 14.870" E    DMS                :Longtitude
PD  .         MSL                                     :Permanent Datum
EDF .M            54.900                              :Elevations D.F.
EGL .M           -91.000                              :Elevations G.L.
ELZ .M            54.900                              :Elev. Log Zero
LMF .         DF                                      :Log Measured From

~Curve Information
#MNEM   .UNIT             API CODE Curve Description
#------------             -------- -----------------
DEPTH   .M            00 001 00 00:   0  Depth
BVW     .v/v          00 000 00 00:   1  BVW:CPI:rC:NONE:v1
CARB_FLAG.unitless    00 000 00 00:   2  CARB_FLAG:CPI:rC:NONE:v1
COAL_FLAG.unitless    00 000 00 00:   3  COAL_FLAG:CPI:rC:NONE:v1
KLOGH   .mD           00 000 00 00:   4  KLOGH:CPI:rC:NONE:v1
PHIF    .v/v          00 000 00 00:   5  PHIF:CPI:rC:NONE:v1
SAND_FLAG.UNKNOWN     00 000 00 00:   6  SAND_FLAG:CPI:rC:NONE:v1
SW      .v/v          00 000 00 00:   7  SW:CPI:rC:NONE:v1
VSH     .v/v          00 000 00 00:   8  VSH:CPI:rC:NONE:v1

~Parameter Information
#MNEM.UNIT       Value           Description
#------------    -----           -----------
RUN .         1                 :Run number

~Other Information
PETROPHYSICAL_INTERPRETATION: OUTPUT

# --- LOG MNEMONICS AND UNITS ---
#Depth     BVW        CARB_FLAG  COAL_FLAG  KLOGH      PHIF       SAND_FLAG  SW         VSH       
#M         v/v        unitless   unitless   mD         v/v        UNKNOWN    v/v        v/v       

~A
# ...
  3627.000      0.018      1.000      0.000      0.097      0.064      0.000      0.276      0.392
  3627.100      0.017      1.000      0.000      0.099      0.063      0.000      0.266      0.390
  3627.200      0.017      1.000      0.000      0.083      0.063      0.000      0.269      0.398
  3627.300      0.014      1.000      0.000      0.097      0.064      0.000      0.221      0.392
  3627.400      0.013      1.000      0.000      0.128      0.066      0.000      0.204      0.380
  3627.500      0.018      1.000      0.000      0.114      0.068      0.000      0.259      0.387
  3627.600      0.019      1.000      0.000      0.129      0.070      0.000      0.269      0.384
  3627.700      0.022      1.000      0.000      0.138      0.074      0.000      0.301      0.384
  3627.800      0.019      1.000      0.000      0.144      0.079      0.000      0.237      0.386
  3627.900      0.020      1.000      0.000      0.197      0.083      0.000      0.241      0.374
  3628.000      0.016      1.000      0.000      0.212      0.083      0.000      0.198      0.371
  3628.100      0.015      1.000      0.000      0.283      0.080      0.000      0.191      0.354
  3628.200      0.017      1.000      0.000      0.275      0.077      0.000      0.217      0.353
  3628.300      0.020      1.000      0.000      0.201      0.079      0.000      0.257      0.370
  3628.400      0.022      1.000      0.000      0.358      0.085      0.000      0.254      0.347
  3628.500      0.024      1.000      0.000      0.403      0.094      0.000      0.256      0.349
  3628.600      0.026      0.000      0.000      0.448      0.102      1.000      0.253      0.352
  3628.700      0.025      0.000      0.000      0.571      0.109      1.000      0.229      0.346
  3628.800      0.025      0.000      0.000      0.474      0.113      1.000      0.221      0.359
  3628.900      0.027      0.000      0.000      1.092      0.151      1.000      0.178      0.349
  3629.000      0.028      0.000      0.000      0.827      0.151      1.000      0.185      0.332
  3629.100      0.027      0.000      0.000      0.835      0.151      1.000      0.181      0.329
  3629.200      0.026      0.000      0.000      0.496      0.151      1.000      0.174      0.354
  3629.300      0.029      0.000      0.000      0.628      0.151      1.000      0.195      0.374
  3629.400      0.029      0.000      0.000      0.735      0.151      1.000      0.195      0.367
  3629.500      0.029      0.000      0.000      1.117      0.148      1.000      0.199      0.348
  3629.600      0.029      0.000      0.000      1.343      0.149      1.000      0.192      0.341
  3629.700      0.029      0.000      0.000      1.293      0.150      1.000      0.190      0.343
  3629.800      0.026      0.000      0.000      0.487      0.114      1.000      0.231      0.358
  3629.900      0.027      0.000      0.000      0.526      0.111      1.000      0.245      0.352
  3630.000      0.029      0.000      0.000      0.715      0.109      1.000      0.266      0.336
  3630.100      0.031      0.000      0.000      0.454      0.109      1.000      0.288      0.357
  3630.200      0.031      0.000      0.000      0.545      0.109      1.000      0.285      0.348
  3630.300      0.030      0.000      0.000      0.607      0.108      1.000      0.281      0.343
  3630.400      0.032      0.000      0.000      0.370      0.107      1.000      0.302      0.365
  3630.500      0.034      0.000      0.000      0.394      0.104      1.000      0.329      0.359
  3630.600      0.038      0.000      0.000      0.404      0.100      0.000      0.383      0.355
  3630.700      0.039      0.000      0.000      0.382      0.097      0.000      0.405      0.355
  3630.800      0.042      0.000      0.000      0.329      0.097      0.000      0.429      0.362
  3630.900      0.045      0.000      0.000      0.264      0.100      1.000      0.444      0.376
  3631.000      0.047      0.000      0.000      0.333      0.105      1.000      0.447      0.369
  3631.100      0.051      0.000      0.000      0.290      0.108      1.000      0.474      0.378
  3631.200      0.055      0.000      0.000      0.231      0.107      1.000      0.515      0.388
  3631.300      0.057      0.000      0.000      0.245      0.103      1.000      0.549      0.382
  3631.400      0.060      0.000      0.000      0.194      0.099      0.000      0.609      0.389
  3631.500      0.059      0.000      0.000      0.076      0.095      0.000      0.624      0.431
  3631.600      0.057      0.000      0.000      0.074      0.091      0.000      0.619      0.429
  3631.700      0.058      0.000      0.000      0.116      0.091      0.000      0.635      0.407
  3631.800      0.063      0.000      0.000      0.254      0.092      0.000      0.681      0.370
  3631.900      0.073      0.000      0.000      0.182      0.093      0.000      0.781      0.387
  3632.000      0.074      0.000      0.000      0.116      0.091      0.000      0.814      0.407
  3632.100      0.065      0.000      0.000      0.181      0.083      0.000      0.784      0.379
  3632.200      0.064      0.000      0.000      0.137      0.074      0.000      0.858      0.384
  3632.300      0.062      0.000      0.000      0.084      0.069      0.000      0.908      0.403
  3632.400      0.054      0.000      0.000      0.065      0.069      0.000      0.790      0.415
  3632.500      0.057      0.000      0.000      0.056      0.073      0.000      0.774      0.427
  3632.600      0.068      0.000      0.000      0.128      0.079      0.000      0.856      0.392
  3632.700      0.068      0.000      0.000      0.209      0.085      0.000      0.798      0.374
  3632.800      0.068      0.000      0.000      0.229      0.093      0.000      0.734      0.376
  3632.900      0.068      0.000      0.000      0.342      0.103      1.000      0.659      0.365
  3633.000      0.070      0.000      0.000      0.323      0.114      1.000      0.608      0.379
  3633.100      0.071      0.000      0.000      0.274      0.124      1.000      0.570      0.395
  3633.200      0.070      0.000      0.000      0.293      0.128      1.000      0.547      0.395
  3633.300      0.069      0.000      0.000      0.328      0.124      1.000      0.557      0.386
  3633.400      0.072      0.000      0.000      0.428      0.113      1.000      0.631      0.364
  3633.500      0.076      0.000      0.000      0.359      0.101      1.000      0.748      0.362
  3633.600      0.075      0.000      0.000      0.288      0.092      0.000      0.817      0.364
  3633.700      0.068      0.000      0.000      0.295      0.088      0.000      0.771      0.359
  3633.800      0.057      0.000      0.000      0.372      0.092      0.000      0.621      0.352
  3633.900      0.062      0.000      0.000      0.572      0.102      1.000      0.606      0.340
  3634.000      0.073      0.000      0.000      0.988      0.113      1.000      0.652      0.323
  3634.100      0.084      0.000      0.000      0.978      0.120      1.000      0.699      0.330
  3634.200      0.086      0.000      0.000      0.955      0.124      1.000      0.695      0.334
  3634.300      0.072      0.000      0.000      1.328      0.126      1.000      0.575      0.320
  3634.400      0.073      0.000      0.000      1.446      0.131      1.000      0.556      0.321
  3634.500      0.072      0.000      0.000      1.648      0.139      1.000      0.521      0.322
  3634.600      0.070      0.000      0.000      3.502      0.180      1.000      0.385      0.322
  3634.700      0.066      0.000      0.000      4.429      0.180      1.000      0.365      0.311
  3634.800      0.065      0.000      0.000      3.474      0.180      1.000      0.360      0.322
  3634.900      0.064      0.000      0.000      3.216      0.176      1.000      0.364      0.322
  3635.000      0.061      0.000      0.000      5.375      0.172      1.000      0.357      0.294
