~Version Information
VERS.                     2.0: CWLS log ASCII Standard Version 2.00
WRAP.                      NO: One line per depth step

~Well Information Block
#MNEM.UNIT                 Value                       Information
#------------              -----                       -----------
STRT.M                    3351.600                    :START
STOP.M                    4759.200                    :STOP
STEP.M                       0.100                    :STEP
NULL.                     -999.25                     :NULL VALUE
COMP.         Statoil Petroleum AS                    :Company
WELL.         15/9-F-11 B                             :Well
FLD .         VOLVE                                   :Field
LOC .         Maersk Inspirer                         :Location
PROV.                                                 :Province
CNTY.                                                 :County
STATE.                                                 :State
CTRY.                                                 :Country
DATE.                                                 :Log Date
SRVC.                                                 :Service Company
UWI .                                                 :Unique Well Identifier
API .                                                 :API Number
LATI.         058 26' 29.960" N    DMS                :Latitude
LONG.         001 53' 14.870" E    DMS                :Longtitude
PD  .         MSL                                     :Permanent Datum
EDF .M            54.900                              :Elevations D.F.
EGL .M           -91.000                              :Elevations G.L.
ELZ .M            54.900                              :Elev. Log Zero
LMF .         DF                                      :Log Measured From

~Curve Information
#MNEM   .UNIT             API CODE Curve Description
#------------             -------- -----------------
DEPTH   .M            00 001 00 00:   0  Depth
BVW     .v/v          00 000 00 00:   1  BVW:CPI:rC:NONE:v1
CARB_FLAG.unitless    00 000 00 00:   2  CARB_FLAG:CPI:rC:NONE:v1
COAL_FLAG.unitless    00 000 00 00:   3  COAL_FLAG:CPI:rC:NONE:v1
KLOGH   .mD           00 000 00 00:   4  KLOGH:CPI:rC:NONE:v1
PHIF    .v/v          00 000 00 00:   5  PHIF:CPI:rC:NONE:v1
SAND_FLAG.UNKNOWN     00 000 00 00:   6  SAND_FLAG:CPI:rC:NONE:v1
SW      .v/v          00 000 00 00:   7  SW:CPI:rC:NONE:v1
VSH     .v/v          00 000 00 00:   8  VSH:CPI:rC:NONE:v1

~Parameter Information
#MNEM.UNIT       Value           Description
#------------    -----           -----------
RUN .         1                 :Run number

~Other Information
PETROPHYSICAL_INTERPRETATION: OUTPUT

# --- LOG MNEMONICS AND UNITS ---
#Depth     BVW        CARB_FLAG  COAL_FLAG  KLOGH      PHIF       SAND_FLAG  SW         VSH       
#M         v/v        unitless   unitless   mD         v/v        UNKNOWN    v/v        v/v       

~A
# ...
  4736.700      0.023      1.000      0.000      0.002      0.037      0.000      0.633      0.395
  4736.800      0.023      1.000      0.000      0.002      0.036      0.000      0.635      0.390
  4736.900      0.026      1.000      0.000      0.003      0.036      0.000      0.720      0.348
  4737.000      0.028      1.000      0.000      0.003      0.036      0.000      0.789      0.315
  4737.100      0.030      1.000      0.000      0.004      0.036      0.000      0.855      0.269
  4737.200      0.033      1.000      0.000      0.004      0.036      0.000      0.920      0.257
  4737.300      0.034      1.000      0.000      0.004      0.035      0.000      0.985      0.248
  4737.400      0.034      1.000      0.000      0.004      0.034      0.000      1.000      0.250
  4737.500      0.032      1.000      0.000      0.003      0.032      0.000      1.000      0.273
  4737.600      0.033      1.000      0.000      0.003      0.033      0.000      1.000      0.307
  4737.700      0.033      1.000      0.000      0.002      0.033      0.000      1.000      0.328
  4737.800      0.032      1.000      0.000      0.002      0.032      0.000      1.000      0.366
  4737.900      0.033      1.000      0.000      0.002      0.033      0.000      1.000      0.424
  4738.000      0.036      1.000      0.000      0.002      0.036      0.000      1.000      0.435
  4738.100      0.038      1.000      0.000      0.002      0.038      0.000      1.000      0.498
  4738.200      0.039      1.000      0.000      0.002      0.039      0.000      1.000      0.557
  4738.300      0.045      1.000      0.000      0.001      0.045      0.000      1.000      0.629
  4738.400      0.055      0.000      0.000      0.001      0.055      0.000      1.000      0.671
  4738.500      0.079      0.000      0.000      0.051      0.097      0.000      0.817      0.699
  4738.600      0.074      0.000      0.000      0.080      0.103      0.000      0.719      0.693
  4738.700      0.070      0.000      0.000      0.065      0.097      0.000      0.720      0.649
  4738.800      0.063      0.000      0.000      0.052      0.087      0.000      0.723      0.539
  4738.900      0.061      0.000      0.000      0.045      0.079      0.000      0.766      0.443
  4739.000      0.064      0.000      0.000      0.048      0.075      0.000      0.843      0.366
  4739.100      0.063      0.000      0.000      0.051      0.074      0.000      0.850      0.333
  4739.200      0.061      0.000      0.000      0.062      0.074      0.000      0.823      0.293
  4739.300      0.060      0.000      0.000      0.071      0.077      0.000      0.781      0.307
  4739.400      0.060      0.000      0.000      0.066      0.076      0.000      0.785      0.310
  4739.500      0.060      0.000      0.000      0.061      0.075      0.000      0.808      0.305
  4739.600      0.036      0.000      0.000      0.004      0.036      0.000      1.000      0.297
  4739.700      0.032      0.000      0.000      0.003      0.032      0.000      1.000      0.286
  4739.800      0.033      0.000      0.000      0.003      0.033      0.000      1.000      0.272
  4739.900      0.038      0.000      0.000      0.005      0.038      0.000      1.000      0.248
  4740.000      0.045      0.000      0.000      0.008      0.045      0.000      1.000      0.264
  4740.100      0.048      0.000      0.000      0.009      0.048      0.000      1.000      0.287
  4740.200      0.049      0.000      0.000      0.010      0.049      0.000      1.000      0.284
  4740.300      0.047      0.000      0.000      0.009      0.047      0.000      1.000      0.272
  4740.400      0.046      0.000      0.000      0.009      0.046      0.000      1.000      0.267
  4740.500      0.046      0.000      0.000      0.008      0.046      0.000      1.000      0.273
  4740.600      0.045      0.000      0.000      0.008      0.045      0.000      1.000      0.276
  4740.700      0.044      0.000      0.000      0.007      0.044      0.000      1.000      0.281
  4740.800      0.043      0.000      0.000      0.006      0.043      0.000      1.000      0.312
  4740.900      0.045      0.000      0.000      0.006      0.045      0.000      1.000      0.340
  4741.000      0.052      0.000      0.000      0.009      0.052      0.000      1.000      0.354
  4741.100      0.063      0.000      0.000      0.153      0.090      0.000      0.704      0.350
  4741.200      0.074      0.000      0.000      0.223      0.093      0.000      0.795      0.320
  4741.300      0.086      0.000      0.000      0.326      0.097      0.000      0.892      0.287
  4741.400      0.090      0.000      0.000      0.577      0.101      1.000      0.893      0.239
  4741.500      0.092      0.000      0.000      0.901      0.106      1.000      0.868      0.215
  4741.600      0.095      0.000      0.000      1.209      0.108      1.000      0.879      0.189
  4741.700      0.100      0.000      0.000      1.399      0.108      1.000      0.929      0.152
  4741.800      0.102      0.000      0.000      1.286      0.106      1.000      0.968      0.137
  4741.900      0.101      0.000      0.000      1.053      0.103      1.000      0.984      0.139
  4742.000      0.100      0.000      0.000      0.864      0.100      0.000      1.000      0.127
  4742.100      0.098      0.000      0.000      0.747      0.098      0.000      1.000      0.126
  4742.200      0.098      0.000      0.000      0.703      0.098      0.000      1.000      0.142
  4742.300      0.099      0.000      0.000      0.662      0.099      0.000      1.000      0.171
  4742.400      0.101      0.000      0.000      0.645      0.101      1.000      1.000      0.205
  4742.500      0.099      0.000      0.000      0.741      0.103      1.000      0.958      0.218
  4742.600      0.093      0.000      0.000      0.916      0.107      1.000      0.869      0.227
  4742.700      0.088      0.000      0.000      0.916      0.108      1.000      0.814      0.250
  4742.800      0.081      0.000      0.000      0.843      0.108      1.000      0.751      0.267
  4742.900      0.078      0.000      0.000      0.483      0.102      1.000      0.763      0.297
  4743.000      0.076      0.000      0.000      0.282      0.096      0.000      0.790      0.304
  4743.100      0.074      0.000      0.000      0.230      0.091      0.000      0.820      0.269
  4743.200      0.072      0.000      0.000      0.243      0.089      0.000      0.809      0.230
  4743.300      0.069      0.000      0.000      0.306      0.091      0.000      0.759      0.205
  4743.400      0.066      0.000      0.000      0.465      0.095      0.000      0.701      0.183
  4743.500      0.064      0.000      0.000      0.724      0.100      0.000      0.642      0.170
  4743.600      0.067      0.000      0.000      1.379      0.107      1.000      0.621      0.146
  4743.700      0.074      0.000      0.000      3.605      0.119      1.000      0.624      0.120
  4743.800      0.086      0.000      0.000      8.158      0.128      1.000      0.670      0.093
  4743.900      0.097      0.000      0.000     11.834      0.132      1.000      0.736      0.076
  4744.000      0.107      0.000      0.000     10.169      0.130      1.000      0.822      0.078
  4744.100      0.110      0.000      0.000      8.249      0.127      1.000      0.862      0.080
  4744.200      0.103      0.000      0.000      5.757      0.124      1.000      0.834      0.098
  4744.300      0.094      0.000      0.000      6.093      0.125      1.000      0.747      0.112
  4744.400      0.102      0.000      0.000      6.180      0.127      1.000      0.801      0.139
  4744.500      0.111      0.000      0.000      7.216      0.130      1.000      0.856      0.150
  4744.600      0.114      0.000      0.000      6.819      0.131      1.000      0.874      0.175
  4744.700      0.116      0.000      0.000      6.465      0.132      1.000      0.884      0.203
