~Version Information
VERS.                     2.0: CWLS log ASCII Standard Version 2.00
WRAP.                      NO: One line per depth step

~Well Information Block
#MNEM.UNIT                 Value                       Information
#------------              -----                       -----------
STRT.M                   3465.0000                    :START
STOP.M                   4684.7000                    :STOP
STEP.M                      0.1000                    :STEP
NULL.                     -999.25                     :NULL VALUE
COMP.         STATOIL PETROLEUM AS                    :Company
WELL.         15/9-F-15 D                             :Well
FLD .         VOLVE                                   :Field
LOC .                                                 :Location
PROV.                                                 :Province
CNTY.         MAERSK INSPIRER                         :County
STATE.                                                 :State
CTRY.         NORWAY                                  :Country
DATE.                                                 :Log Date
SRVC.                                                 :Service Company
UWI .                                                 :Unique Well Identifier
API .                                                 :API Number
LATI.         058 26' 29.706" N    DMS                :Latitude
LONG.         001 53' 15.149" E    DMS                :Longtitude
PD  .         MSL                                     :Permanent Datum
EDF .M                54.9000                         :Elevations D.F.
EGL .M               -91.0000                         :Elevations G.L.
ELZ .M                54.9000                         :Elev. Log Zero
LMF .         DF                                      :Log Measured From
MP  .         DF                                      :Drill Measured From

~Curve Information
#MNEM   .UNIT             API CODE Curve Description
#------------             -------- -----------------
DEPTH   .M            00 001 00 00:   0  Depth
BVW     .v/v          00 000 00 00:   1  BVW:CPI:rC:0001:v1
COAL_FLAG.unitless    00 000 00 00:   2  COAL_FLAG:CPI:rC:0001:v1
KLOGH   .mD           00 000 00 00:   3  KLOGH:CPI:rC:0001:v1
PHIF    .v/v          00 000 00 00:   4  PHIF:CPI:rC:0001:v1
SAND_FLAG.unitless    00 000 00 00:   5  SAND_FLAG:CPI:rC:0001:v1
SW      .v/v          00 000 00 00:   6  SW:CPI:rC:0001:v1
VCARB   .v/v          00 000 00 00:   7  VCARB:CPI:rC:0001:v1
VSH     .v/v          00 000 00 00:   8  VSH:CPI:rC:0001:v1

~Parameter Information
#MNEM.UNIT       Value           Description
#------------    -----           -----------
RUN .         .                 :Run Number

~Other Information
PETROPHYSICAL INTERPRETATION: OUTPUT

# --- LOG MNEMONICS AND UNITS ---
#Depth          BVW             COAL_FLAG       KLOGH           PHIF            SAND_FLAG       SW              VCARB           VSH            
#M              v/v             unitless        mD              v/v             unitless        v/v             v/v             v/v            

~A
# ...
      4254.6000          0.0539          0.0000         19.5699          0.2405          1.0000          0.2239          0.0000          0.2925
      4254.7000          0.0551          0.0000         18.4854          0.2397          1.0000          0.2299          0.0000          0.2945
      4254.8000          0.0541          0.0000         23.7811          0.2397          1.0000          0.2258          0.0000          0.2823
      4254.9000          0.0517          0.0000         22.7812          0.2403          1.0000          0.2152          0.0000          0.2850
      4255.0000          0.0478          0.0000         32.5096          0.2432          1.0000          0.1966          0.0000          0.2704
      4255.1000          0.0407          0.0000         54.9038          0.2446          1.0000          0.1664          0.0000          0.2464
      4255.2000          0.0343          0.0000         54.1427          0.2445          1.0000          0.1404          0.0000          0.2469
      4255.3000          0.0432          0.0000         52.0458          0.2425          1.0000          0.1783          0.0000          0.2471
      4255.4000          0.0557          0.0000         36.3532          0.2418          1.0000          0.2303          0.0000          0.2638
      4255.5000          0.0581          0.0000         32.6186          0.2403          1.0000          0.2417          0.0000          0.2677
      4255.6000          0.0549          0.0000         32.6223          0.2381          1.0000          0.2306          0.0000          0.2657
      4255.7000          0.0532          0.0000         26.9412          0.2357          1.0000          0.2260          0.0000          0.2728
      4255.8000          0.0504          0.0000         34.0361          0.2339          1.0000          0.2153          0.0000          0.2599
      4255.9000          0.0399          0.0000         39.1345          0.2353          1.0000          0.1695          0.0000          0.2544
      4256.0000          0.0363          0.0000         43.4490          0.2378          1.0000          0.1527          0.0000          0.2516
      4256.1000          0.0339          0.0000         36.1455          0.2393          1.0000          0.1415          0.0000          0.2618
      4256.2000          0.0486          0.0000         21.5451          0.2384          1.0000          0.2040          0.0000          0.2860
      4256.3000          0.0536          0.0000         20.7625          0.2354          1.0000          0.2276          0.0000          0.2851
      4256.4000          0.0575          0.0000         19.2450          0.2314          1.0000          0.2485          0.0000          0.2852
      4256.5000          0.0558          0.0000         26.7894          0.2277          1.0000          0.2452          0.0000          0.2660
      4256.6000          0.0506          0.0000         19.8132          0.2252          1.0000          0.2245          0.0000          0.2783
      4256.7000          0.0484          0.0000         21.9499          0.2247          1.0000          0.2155          0.0000          0.2729
      4256.8000          0.0484          0.0000         24.0390          0.2257          1.0000          0.2143          0.0000          0.2695
      4256.9000          0.0486          0.0000         21.1690          0.2267          1.0000          0.2145          0.0000          0.2764
      4257.0000          0.0506          0.0000         20.5791          0.2253          1.0000          0.2248          0.0000          0.2766
      4257.1000          0.0523          0.0000         12.7815          0.2186          1.0000          0.2394          0.0000          0.2936
      4257.2000          0.0554          0.0000          9.3825          0.2147          1.0000          0.2579          0.0000          0.3050
      4257.3000          0.0579          0.0000          9.4942          0.2080          1.0000          0.2783          0.0000          0.2985
      4257.4000          0.0583          0.0000          9.8690          0.2019          1.0000          0.2885          0.0000          0.2912
      4257.5000          0.0574          0.0000          6.4508          0.1967          1.0000          0.2920          0.0000          0.3071
      4257.6000          0.0555          0.0000          7.6069          0.1935          1.0000          0.2867          0.0000          0.2963
      4257.7000          0.0549          0.0000          8.0634          0.1900          1.0000          0.2889          0.0000          0.2904
      4257.8000          0.0566          0.0000          5.3926          0.1894          1.0000          0.2988          0.0000          0.3093
      4257.9000          0.0569          0.0000          4.0986          0.1876          1.0000          0.3031          0.0000          0.3209
      4258.0000          0.0619          0.0000          2.9764          0.1861          1.0000          0.3328          0.0000          0.3350
      4258.1000          0.0622          0.0000          4.1144          0.1838          1.0000          0.3385          0.0000          0.3173
      4258.2000          0.0634          0.0000          4.5465          0.1812          1.0000          0.3498          0.0000          0.3102
      4258.3000          0.0651          0.0000          5.5191          0.1786          1.0000          0.3646          0.0000          0.2985
      4258.4000          0.0722          0.0000          6.3419          0.1764          1.0000          0.4090          0.0000          0.2899
      4258.5000          0.0810          0.0000          4.2500          0.1749          1.0000          0.4631          0.0000          0.3079
      4258.6000          0.0887          0.0000          3.9482          0.1734          1.0000          0.5117          0.0000          0.3100
      4258.7000          0.0747          0.0000          2.8674          0.1703          1.0000          0.4384          0.0000          0.3227
      4258.8000          0.0627          0.0000          2.3221          0.1650          1.0000          0.3799          0.0000          0.3283
      4258.9000          0.0665          0.0000          2.3727          0.1593          1.0000          0.4178          0.0000          0.3221
      4259.0000          0.0741          0.0000          1.7785          0.1533          1.0000          0.4830          0.0000          0.3307
      4259.1000          0.0794          0.0000          1.6803          0.1155          1.0000          0.6872          0.0000          0.2999
      4259.2000          0.0890          0.0000          1.0350          0.1125          1.0000          0.7910          0.0000          0.3206
      4259.3000          0.0962          0.0000          1.4972          0.1111          1.0000          0.8658          0.0000          0.3015
      4259.4000          0.0805          0.0000          1.8456          0.1082          1.0000          0.7435          0.0154          0.2889
      4259.5000          0.0535          0.0000          1.9977          0.0995          0.0000          0.5378          0.0540          0.2773
      4259.6000          0.0450          0.0000          1.8097          0.0838          0.0000          0.5373          0.1161          0.2681
      4259.7000          0.0410          0.0000          1.2754          0.0675          0.0000          0.6077          0.1698          0.2705
      4259.8000          0.0428          0.0000          1.1048          0.0577          0.0000          0.7423          0.2077          0.2687
      4259.9000          0.0453          0.0000          0.7598          0.0545          0.0000          0.8317          0.1997          0.2839
      4260.0000          0.0453          0.0000          0.7016          0.0556          0.0000          0.8143          0.1894          0.2887
      4260.1000          0.0453          0.0000          0.6727          0.0597          0.0000          0.7590          0.1680          0.2944
