~Version Information
VERS.                     2.0: CWLS log ASCII Standard Version 2.00
WRAP.                      NO: One line per depth step

~Well Information Block
#MNEM.UNIT                 Value                       Information
#------------              -----                       -----------
STRT.M                   3205.0000                    :START
STOP.M                   4093.8000                    :STOP
STEP.M                      0.1000                    :STEP
NULL.                     -999.25                     :NULL VALUE
COMP.         Statoil Petroleum                       :Company
WELL.         15/9-F-1 C                              :Well
FLD .         VOLVE                                   :Field
LOC .         Maersk Inspirer                         :Location
PROV.                                                 :Province
CNTY.                                                 :County
STATE.                                                 :State
CTRY.                                                 :Country
DATE.                                                 :Log Date
SRVC.                                                 :Service Company
UWI .                                                 :Unique Well Identifier
API .                                                 :API Number
LATI.         058 26' 29.907" N    DMS                :Latitude
LONG.         001 53' 14.708" E    DMS                :Longtitude
PD  .         MSL                                     :Permanent Datum
EDF .M                54.9000                         :Elevations D.F.
EGL .M               -91.0000                         :Elevations G.L.
ELZ .M                54.9000                         :Elev. Log Zero
LMF .         DF                                      :Log Measured From

~Curve Information
#MNEM   .UNIT             API CODE Curve Description
#------------             -------- -----------------
DEPTH   .M            00 001 00 00:   0  Depth
BADDATA_FLAG.unitless 00 000 00 00:   1  Bad Data Flag
BVW     .v/v          00 000 00 00:   2  Bulk Volume Water
COAL_FLAG.unitless    00 000 00 00:   3  Coal Flag
KLOGH   .mD           00 000 00 00:   4  Permeability
PHIF    .v/v          00 000 00 00:   5  Final Porosity
SAND_FLAG.unitless    00 000 00 00:   6  Sand Flag
SW      .v/v          00 000 00 00:   7  Water Saturation
VCARB   .v/v          00 000 00 00:   8  VCARB
VSH     .v/v          00 000 00 00:   9  Volume of Shale

~Parameter Information
#MNEM.UNIT       Value           Description
#------------    -----           -----------
RUN .         1                 :Run number

~Other Information
PETROPHYSICAL INTERPRETATION: OUTPUT

# --- LOG MNEMONICS AND UNITS ---
#Depth          BADDATA_FLAG    BVW             COAL_FLAG       KLOGH           PHIF            SAND_FLAG       SW              VCARB           VSH            
#M              unitless        v/v             unitless        mD              v/v             unitless        v/v             v/v             v/v            

~A
# ...
      3505.0000          0.0000          0.0729          0.0000          2.6849          0.2070          1.0000          0.3520          0.0000          0.3586
      3505.1000          0.0000          0.0748          0.0000          3.6085          0.2130          1.0000          0.3511          0.0000          0.3496
      3505.2000          0.0000          0.0769          0.0000          7.7720          0.2192          1.0000          0.3508          0.0000          0.3181
      3505.3000          0.0000          0.0778          0.0000          9.8100          0.2255          1.0000          0.3452          0.0000          0.3125
      3505.4000          0.0000          0.0773          0.0000         10.7277          0.2313          1.0000          0.3342          0.0000          0.3134
      3505.5000          0.0000          0.0763          0.0000         10.8991          0.2359          1.0000          0.3233          0.0000          0.3166
      3505.6000          0.0000          0.0749          0.0000         16.6897          0.2392          1.0000          0.3130          0.0000          0.2990
      3505.7000          0.0000          0.0745          0.0000         15.0261          0.2414          1.0000          0.3086          0.0000          0.3061
      3505.8000          0.0000          0.0744          0.0000         20.9162          0.2430          1.0000          0.3061          0.0000          0.2915
      3505.9000          0.0000          0.0736          0.0000         19.4913          0.2445          1.0000          0.3011          0.0000          0.2962
      3506.0000          0.0000          0.0731          0.0000         19.0040          0.2456          1.0000          0.2977          0.0000          0.2984
      3506.1000          0.0000          0.0724          0.0000         23.4783          0.2463          1.0000          0.2938          0.0000          0.2889
      3506.2000          0.0000          0.0721          0.0000         29.1714          0.2465          1.0000          0.2925          0.0000          0.2786
      3506.3000          0.0000          0.0720          0.0000         23.9788          0.2462          1.0000          0.2925          0.0000          0.2878
      3506.4000          0.0000          0.0718          0.0000         24.6826          0.2460          1.0000          0.2919          0.0000          0.2862
      3506.5000          0.0000          0.0713          0.0000         31.4121          0.2456          1.0000          0.2903          0.0000          0.2742
      3506.6000          0.0000          0.0710          0.0000         30.0059          0.2448          1.0000          0.2899          0.0000          0.2757
      3506.7000          0.0000          0.0710          0.0000         18.5569          0.2433          1.0000          0.2918          0.0000          0.2975
      3506.8000          0.0000          0.0705          0.0000         22.8721          0.2412          1.0000          0.2922          0.0000          0.2856
      3506.9000          0.0000          0.0703          0.0000         23.0070          0.2394          1.0000          0.2937          0.0000          0.2837
      3507.0000          0.0000          0.0699          0.0000         18.4492          0.2380          1.0000          0.2937          0.0000          0.2931
      3507.1000          0.0000          0.0697          0.0000         16.1551          0.2373          1.0000          0.2939          0.0000          0.2989
      3507.2000          0.0000          0.0696          0.0000         18.6151          0.2371          1.0000          0.2935          0.0000          0.2919
      3507.3000          0.0000          0.0695          0.0000         21.4636          0.2374          1.0000          0.2929          0.0000          0.2853
      3507.4000          0.0000          0.0693          0.0000         29.1335          0.2379          1.0000          0.2913          0.0000          0.2710
      3507.5000          0.0000          0.0691          0.0000         40.8856          0.2382          1.0000          0.2901          0.0000          0.2549
      3507.6000          0.0000          0.0692          0.0000         28.1842          0.2377          1.0000          0.2912          0.0000          0.2724
      3507.7000          0.0000          0.0692          0.0000         22.7712          0.2367          1.0000          0.2923          0.0000          0.2818
      3507.8000          0.0000          0.0690          0.0000         27.5857          0.2356          1.0000          0.2929          0.0000          0.2716
      3507.9000          0.0000          0.0687          0.0000         41.3067          0.2350          1.0000          0.2923          0.0000          0.2516
      3508.0000          0.0000          0.0686          0.0000         37.5405          0.2350          1.0000          0.2918          0.0000          0.2561
      3508.1000          0.0000          0.0687          0.0000         21.0934          0.2348          1.0000          0.2927          0.0000          0.2838
      3508.2000          0.0000          0.0686          0.0000         19.7060          0.2344          1.0000          0.2929          0.0000          0.2867
      3508.3000          0.0000          0.0686          0.0000         16.4060          0.2340          1.0000          0.2932          0.0000          0.2952
      3508.4000          0.0000          0.0684          0.0000         18.8213          0.2339          1.0000          0.2925          0.0000          0.2885
      3508.5000          0.0000          0.0678          0.0000         22.0516          0.2340          1.0000          0.2896          0.0000          0.2809
      3508.6000          0.0000          0.0663          0.0000         22.9529          0.2345          1.0000          0.2828          0.0000          0.2795
      3508.7000          0.0000          0.0659          0.0000         21.9519          0.2352          1.0000          0.2802          0.0000          0.2823
      3508.8000          0.0000          0.0654          0.0000         25.0651          0.2360          1.0000          0.2769          0.0000          0.2766
      3508.9000          0.0000          0.0649          0.0000         23.5101          0.2368          1.0000          0.2739          0.0000          0.2804
      3509.0000          0.0000          0.0640          0.0000         25.1624          0.2371          1.0000          0.2699          0.0000          0.2773
      3509.1000          0.0000          0.0632          0.0000         34.1751          0.2365          1.0000          0.2672          0.0000          0.2621
      3509.2000          0.0000          0.0627          0.0000         25.0468          0.2353          1.0000          0.2666          0.0000          0.2760
      3509.3000          0.0000          0.0618          0.0000         23.0622          0.2340          1.0000          0.2643          0.0000          0.2788
      3509.4000          0.0000          0.0612          0.0000         19.4477          0.2325          1.0000          0.2631          0.0000          0.2857
      3509.5000          0.0000          0.0599          0.0000         20.2229          0.2313          1.0000          0.2590          0.0000          0.2828
      3509.6000          0.0000          0.0588          0.0000         28.0758          0.2302          1.0000          0.2554          0.0000          0.2660
      3509.7000          0.0000          0.0569          0.0000         26.5370          0.2283          1.0000          0.2493          0.0000          0.2670
      3509.8000          0.0000          0.0540          0.0000         35.2683          0.2237          1.0000          0.2413          0.0000          0.2491
      3509.9000          0.0000          0.0523          0.0000         39.9612          0.2157          1.0000          0.2425          0.0000          0.2360
