~Version Information
VERS.                     2.0: CWLS log ASCII Standard Version 2.00
WRAP.                      NO: One line per depth step

~Well Information Block
#MNEM.UNIT                 Value                       Information
#------------              -----                       -----------
STRT.M                   3205.0000                    :START
STOP.M                   4093.8000                    :STOP
STEP.M                      0.1000                    :STEP
NULL.                     -999.25                     :NULL VALUE
COMP.         Statoil Petroleum                       :Company
WELL.         15/9-F-1 C                              :Well
FLD .         VOLVE                                   :Field
LOC .         Maersk Inspirer                         :Location
PROV.                                                 :Province
CNTY.                                                 :County
STATE.                                                 :State
CTRY.                                                 :Country
DATE.                                                 :Log Date
SRVC.                                                 :Service Company
UWI .                                                 :Unique Well Identifier
API .                                                 :API Number
LATI.         058 26' 29.907" N    DMS                :Latitude
LONG.         001 53' 14.708" E    DMS                :Longtitude
PD  .         MSL                                     :Permanent Datum
EDF .M                54.9000                         :Elevations D.F.
EGL .M               -91.0000                         :Elevations G.L.
ELZ .M                54.9000                         :Elev. Log Zero
LMF .         DF                                      :Log Measured From

~Curve Information
#MNEM   .UNIT             API CODE Curve Description
#------------             -------- -----------------
DEPTH   .M            00 001 00 00:   0  Depth
BADDATA_FLAG.unitless 00 000 00 00:   1  Bad Data Flag
BVW     .v/v          00 000 00 00:   2  Bulk Volume Water
COAL_FLAG.unitless    00 000 00 00:   3  Coal Flag
KLOGH   .mD           00 000 00 00:   4  Permeability
PHIF    .v/v          00 000 00 00:   5  Final Porosity
SAND_FLAG.unitless    00 000 00 00:   6  Sand Flag
SW      .v/v          00 000 00 00:   7  Water Saturation
VCARB   .v/v          00 000 00 00:   8  VCARB
VSH     .v/v          00 000 00 00:   9  Volume of Shale

~Parameter Information
#MNEM.UNIT       Value           Description
#------------    -----           -----------
RUN .         1                 :Run number

~Other Information
PETROPHYSICAL INTERPRETATION: OUTPUT

# --- LOG MNEMONICS AND UNITS ---
#Depth          BADDATA_FLAG    BVW             COAL_FLAG       KLOGH           PHIF            SAND_FLAG       SW              VCARB           VSH            
#M              unitless        v/v             unitless        mD              v/v             unitless        v/v             v/v             v/v            

~A
# ...
      3730.0000          0.0000          0.0168          0.0000       3191.7634          0.2144          1.0000          0.0783          0.0000          0.0234
      3730.1000          0.0000          0.0166          0.0000       3051.4719          0.2126          1.0000          0.0783          0.0000          0.0241
      3730.2000          0.0000          0.0166          0.0000       2583.8264          0.2096          1.0000          0.0793          0.0000          0.0294
      3730.3000          0.0000          0.0165          0.0000       2120.4763          0.2043          1.0000          0.0806          0.0000          0.0342
      3730.4000          0.0000          0.0164          0.0000       2005.9873          0.1953          1.0000          0.0837          0.0000          0.0289
      3730.5000          0.0000          0.0161          0.0000       1556.7312          0.1810          1.0000          0.0890          0.0412          0.0285
      3730.6000          0.0000          0.0158          0.0000       1095.0658          0.1618          1.0000          0.0974          0.1202          0.0283
      3730.7000          0.0000          0.0151          0.0000        746.7129          0.1403          1.0000          0.1077          0.2135          0.0277
      3730.8000          0.0000          0.0147          0.0000        529.1212          0.1246          1.0000          0.1177          0.2802          0.0303
      3730.9000          0.0000          0.0147          0.0000        441.0910          0.1184          1.0000          0.1238          0.3032          0.0336
      3731.0000          0.0000          0.0144          0.0000        498.2389          0.1194          1.0000          0.1208          0.3069          0.0286
      3731.1000          0.0000          0.0144          0.0000        587.3748          0.1228          1.0000          0.1171          0.2992          0.0237
      3731.2000          0.0000          0.0146          0.0000        623.2286          0.1268          1.0000          0.1150          0.2793          0.0245
      3731.3000          0.0000          0.0147          0.0000        572.9121          0.1255          1.0000          0.1172          0.2809          0.0273
      3731.4000          0.0000          0.0144          0.0000        430.2159          0.1210          1.0000          0.1194          0.2859          0.0371
      3731.5000          0.0000          0.0141          0.0000        413.6175          0.1155          1.0000          0.1217          0.3157          0.0342
      3731.6000          0.0000          0.0140          0.0000        386.7654          0.1105          1.0000          0.1267          0.3413          0.0329
      3731.7000          0.0000          0.0138          0.0000        381.8966          0.1064          1.0000          0.1302          0.3657          0.0299
      3731.8000          0.0000          0.0137          0.0000        309.2915          0.1038          1.0000          0.1318          0.3640          0.0378
      3731.9000          0.0000          0.0137          0.0000        352.8404          0.1028          1.0000          0.1335          0.3814          0.0305
      3732.0000          0.0000          0.0139          0.0000        404.6686          0.1063          1.0000          0.1306          0.3708          0.0270
      3732.1000          0.0000          0.0140          0.0000        388.8961          0.1146          1.0000          0.1224          0.3160          0.0364
      3732.2000          0.0000          0.0148          0.0000        515.1145          0.1303          1.0000          0.1135          0.2444          0.0367
      3732.3000          0.0000          0.0154          0.0000        732.4079          0.1541          1.0000          0.0999          0.1356          0.0409
      3732.4000          0.0000          0.0160          0.0000       1203.5291          0.1799          1.0000          0.0891          0.0315          0.0399
      3732.5000          0.0000          0.0163          0.0000       1972.3413          0.2006          1.0000          0.0815          0.0000          0.0344
      3732.6000          0.0000          0.0169          0.0000       2954.7087          0.2146          1.0000          0.0787          0.0000          0.0274
      3732.7000          0.0000          0.0167          0.0000       3880.0569          0.2224          1.0000          0.0753          0.0000          0.0211
      3732.8000          0.0000          0.0169          0.0000       3851.9580          0.2253          1.0000          0.0752          0.0000          0.0240
      3732.9000          0.0000          0.0168          0.0000       3123.8330          0.2252          1.0000          0.0747          0.0000          0.0341
      3733.0000          0.0000          0.0168          0.0000       3284.8362          0.2254          1.0000          0.0746          0.0000          0.0318
      3733.1000          0.0000          0.0167          0.0000       3583.9421          0.2257          1.0000          0.0740          0.0000          0.0279
      3733.2000          0.0000          0.0168          0.0000       3482.5850          0.2262          1.0000          0.0744          0.0000          0.0297
      3733.3000          0.0000          0.0167          0.0000       3393.2461          0.2266          1.0000          0.0738          0.0000          0.0314
      3733.4000          0.0000          0.0170          0.0000       3281.0715          0.2272          1.0000          0.0747          0.0000          0.0335
      3733.5000          0.0000          0.0169          0.0000       2948.1399          0.2287          1.0000          0.0739          0.0000          0.0400
      3733.6000          0.0000          0.0168          0.0000       2610.9900          0.2303          1.0000          0.0729          0.0000          0.0473
      3733.7000          0.0000          0.0169          0.0000       2760.1931          0.2313          1.0000          0.0729          0.0000          0.0455
      3733.8000          0.0000          0.0170          0.0000       3430.6650          0.2304          1.0000          0.0737          0.0000          0.0342
      3733.9000          0.0000          0.0167          0.0000       3059.4883          0.2294          1.0000          0.0726          0.0000          0.0388
      3734.0000          0.0000          0.0167          0.0000       3279.2102          0.2284          1.0000          0.0730          0.0000          0.0346
      3734.1000          0.0000          0.0168          0.0000       3467.9485          0.2276          1.0000          0.0740          0.0000          0.0312
      3734.2000          0.0000          0.0166          0.0000       3646.6042          0.2272          1.0000          0.0732          0.0000          0.0284
      3734.3000          0.0000          0.0166          0.0000       3431.3965          0.2279          1.0000          0.0728          0.0000          0.0319
      3734.4000          0.0000          0.0167          0.0000       2994.5818          0.2292          1.0000          0.0729          0.0000          0.0397
      3734.5000          0.0000          0.0166          0.0000       3800.7683          0.2329          1.0000          0.0713          0.0000          0.0315
      3734.6000          0.0000          0.0165          0.0000       4086.1697          0.2357          1.0000          0.0702          0.0000          0.0305
      3734.7000          0.0000          0.0167          0.0000       3295.3967          0.2381          1.0000          0.0701          0.0000          0.0430
      3734.8000          0.0000          0.0165          0.0000       4235.8911          0.2389          1.0000          0.0690          0.0000          0.0316
      3734.9000          0.0000          0.0166          0.0000       4147.3047          0.2395          1.0000          0.0692          0.0000          0.0332
