~Version Information
VERS.                     2.0: CWLS log ASCII Standard Version 2.00
WRAP.                      NO: One line per depth step

~Well Information Block
#MNEM.UNIT                 Value                       Information
#------------              -----                       -----------
STRT.M                    4334.700                    :START
STOP.M                    4561.700                    :STOP
STEP.M                       0.100                    :STEP
NULL.                     -999.25                     :NULL VALUE
COMP.         Statoil Petroleum AS                    :Company
WELL.         15/9-F-11 T2                            :Well
FLD .         VOLVE                                   :Field
LOC .                                                 :Location
PROV.                                                 :Province
CNTY.                                                 :County
STATE.                                                 :State
CTRY.         Norway                                  :Country
DATE.                                                 :Log Date
SRVC.                                                 :Service Company
UWI .                                                 :Unique Well Identifier
API .                                                 :API Number
PD  .         MSL                                     :Permanent Datum
EDF .M            54.900                              :Elevations D.F.
EGL .M           -91.000                              :Elevations G.L.
ELZ .M            54.900                              :Elev. Log Zero
LMF .         DF                                      :Log Measured From

~Curve Information
#MNEM   .UNIT             API CODE Curve Description
#------------             -------- -----------------
DEPTH   .M            00 001 00 00:   0  Depth
BVW     .v/v          00 000 00 00:   1  BVW:CPI:rC:NONE:v1
CARB_FLAG.unitless    00 000 00 00:   2  CARB_FLAG:CPI:rC:NONE:v1
COAL_FLAG.unitless    00 000 00 00:   3  COAL_FLAG:CPI:rC:NONE:v1
KLOGH   .mD           00 000 00 00:   4  KLOGH:CPI:rC:NONE:v1
PHIF    .v/v          00 000 00 00:   5  PHIF:CPI:rC:NONE:v1
SAND_FLAG.unitless    00 000 00 00:   6  SAND_FLAG:CPI:rC:NONE:v1
SW      .v/v          00 000 00 00:   7  SW:CPI:rC:NONE:v1
VSH     .v/v          00 000 00 00:   8  VSH:CPI:rC:NONE:v1

~Parameter Information
#MNEM.UNIT       Value           Description
#------------    -----           -----------
RUN .         1                 :Run number

~Other Information
PETROPHYSICAL INTERPRETATION: OUTPUT

# --- LOG MNEMONICS AND UNITS ---
#Depth     BVW        CARB_FLAG  COAL_FLAG  KLOGH      PHIF       SAND_FLAG  SW         VSH       
#M         v/v        unitless   unitless   mD         v/v        unitless   v/v        v/v       

~A
# ...
  4359.000      0.121      0.000      0.000      0.001      0.124      0.000      0.970      0.839
  4359.100      0.122      0.000      0.000      0.001      0.123      0.000      0.992      0.831
  4359.200      0.120      0.000      0.000      0.001      0.120      0.000      1.000      0.807
  4359.300      0.117      0.000      0.000      0.001      0.117      0.000      1.000      0.812
  4359.400      0.115      0.000      0.000      0.001      0.115      0.000      1.000      0.814
  4359.500      0.112      0.000      0.000      0.001      0.112      0.000      1.000      0.806
  4359.600      0.109      0.000      0.000      0.001      0.109      0.000      1.000      0.809
  4359.700      0.108      0.000      0.000      0.001      0.108      0.000      1.000      0.822
  4359.800      0.109      0.000      0.000      0.001      0.109      0.000      1.000      0.813
  4359.900      0.110      0.000      0.000      0.001      0.110      0.000      1.000      0.821
  4360.000      0.110      0.000      0.000      0.001      0.110      0.000      1.000      0.821
  4360.100      0.110      0.000      0.000      0.001      0.110      0.000      1.000      0.833
  4360.200      0.107      0.000      0.000      0.001      0.107      0.000      1.000      0.819
  4360.300      0.103      0.000      0.000      0.001      0.103      0.000      1.000      0.803
  4360.400      0.095      0.000      0.000      0.001      0.095      0.000      1.000      0.733
  4360.500      0.080      0.000      0.000      0.001      0.080      0.000      1.000      0.668
  4360.600      0.057      0.000      0.000      0.001      0.057      0.000      1.000      0.603
  4360.700      0.024      0.000      0.000      0.001      0.024      0.000      1.000      0.496
  4360.800      0.020      1.000      0.000      0.001      0.020      0.000      1.000      0.392
  4360.900      0.020      1.000      0.000      0.001      0.020      0.000      1.000      0.325
  4361.000      0.020      1.000      0.000      0.001      0.020      0.000      1.000      0.306
  4361.100      0.020      1.000      0.000      0.001      0.020      0.000      1.000      0.324
  4361.200      0.020      1.000      0.000      0.001      0.020      0.000      1.000      0.366
  4361.300      0.020      1.000      0.000      0.001      0.020      0.000      1.000      0.435
  4361.400      0.020      1.000      0.000      0.001      0.020      0.000      1.000      0.523
  4361.500      0.020      0.000      0.000      0.001      0.020      0.000      1.000      0.628
  4361.600      0.038      0.000      0.000      0.001      0.038      0.000      1.000      0.706
  4361.700      0.067      0.000      0.000      0.001      0.067      0.000      1.000      0.758
  4361.800      0.088      0.000      0.000      0.001      0.088      0.000      1.000      0.806
  4361.900      0.100      0.000      0.000      0.001      0.100      0.000      1.000      0.823
  4362.000      0.107      0.000      0.000      0.001      0.107      0.000      1.000      0.813
  4362.100      0.110      0.000      0.000      0.001      0.110      0.000      1.000      0.816
  4362.200      0.113      0.000      0.000      0.001      0.113      0.000      1.000      0.820
  4362.300      0.116      0.000      0.000      0.001      0.116      0.000      1.000      0.813
  4362.400      0.117      0.000      0.000      0.001      0.117      0.000      1.000      0.796
  4362.500      0.118      0.000      0.000      0.001      0.118      0.000      1.000      0.795
  4362.600      0.118      0.000      0.000      0.001      0.118      0.000      1.000      0.781
  4362.700      0.118      0.000      0.000      0.001      0.118      0.000      1.000      0.766
  4362.800      0.118      0.000      0.000      0.001      0.118      0.000      1.000      0.775
  4362.900      0.115      0.000      0.000      0.001      0.115      0.000      1.000      0.793
  4363.000      0.111      0.000      0.000      0.001      0.111      0.000      1.000      0.789
  4363.100      0.109      0.000      0.000      0.001      0.109      0.000      1.000      0.818
  4363.200      0.109      0.000      0.000      0.001      0.109      0.000      1.000      0.800
  4363.300      0.110      0.000      0.000      0.001      0.110      0.000      1.000      0.797
  4363.400      0.110      0.000      0.000      0.001      0.110      0.000      1.000      0.802
  4363.500      0.109      0.000      0.000      0.001      0.109      0.000      1.000      0.799
  4363.600      0.105      0.000      0.000      0.001      0.105      0.000      1.000      0.793
  4363.700      0.099      0.000      0.000      0.001      0.099      0.000      1.000      0.806
  4363.800      0.093      0.000      0.000      0.001      0.093      0.000      1.000      0.830
  4363.900      0.087      0.000      0.000      0.001      0.087      0.000      1.000      0.821
  4364.000      0.082      0.000      0.000      0.001      0.082      0.000      1.000      0.833
  4364.100      0.081      0.000      0.000      0.001      0.081      0.000      1.000      0.820
  4364.200      0.083      0.000      0.000      0.001      0.083      0.000      1.000      0.826
  4364.300      0.086      0.000      0.000      0.001      0.086      0.000      1.000      0.783
  4364.400      0.089      0.000      0.000      0.001      0.089      0.000      1.000      0.788
  4364.500      0.092      0.000      0.000      0.001      0.092      0.000      1.000      0.809
  4364.600      0.097      0.000      0.000      0.001      0.097      0.000      1.000      0.808
  4364.700      0.102      0.000      0.000      0.001      0.102      0.000      1.000      0.814
  4364.800      0.107      0.000      0.000      0.001      0.107      0.000      1.000      0.833
  4364.900      0.111      0.000      0.000      0.001      0.111      0.000      1.000      0.864
  4365.000      0.113      0.000      0.000      0.001      0.113      0.000      1.000      0.838
  4365.100      0.115      0.000      0.000      0.001      0.115      0.000      1.000      0.813
  4365.200      0.115      0.000      0.000      0.001      0.115      0.000      1.000      0.804
  4365.300      0.114      0.000      0.000      0.001      0.114      0.000      1.000      0.825
  4365.400      0.112      0.000      0.000      0.001      0.112      0.000      1.000      0.831
  4365.500      0.110      0.000      0.000      0.001      0.110      0.000      1.000      0.821
  4365.600      0.110      0.000      0.000      0.001      0.110      0.000      0.999      0.814
  4365.700      0.109      0.000      0.000      0.001      0.110      0.000      0.989      0.824
  4365.800      0.110      0.000      0.000      0.001      0.111      0.000      0.989      0.819
  4365.900      0.112      0.000      0.000      0.001      0.112      0.000      1.000      0.787
  4366.000      0.112      0.000      0.000      0.001      0.112      0.000      1.000      0.805
  4366.100      0.113      0.000      0.000      0.001      0.113      0.000      1.000      0.813
  4366.200      0.113      0.000      0.000      0.001      0.113      0.000      1.000      0.822
  4366.300      0.110      0.000      0.000      0.001      0.110      0.000      1.000      0.812
  4366.400      0.106      0.000      0.000      0.001      0.106      0.000      1.000      0.802
  4366.500      0.101      0.000      0.000      0.001      0.101      0.000      1.000      0.810
  4366.600      0.095      0.000      0.000      0.001      0.095      0.000      1.000      0.810
  4366.700      0.092      0.000      0.000      0.001      0.092      0.000      1.000      0.826
  4366.800      0.090      0.000      0.000      0.001      0.090      0.000      1.000      0.822
  4366.900      0.090      0.000      0.000      0.001      0.090      0.000      1.000      0.817
  4367.000      0.089      0.000      0.000      0.001      0.089      0.000      1.000      0.833
