~Version Information
VERS.                     2.0: CWLS log ASCII Standard Version 2.00
WRAP.                      NO: One line per depth step

~Well Information Block
#MNEM.UNIT                 Value                       Information
#------------              -----                       -----------
STRT.M                   3204.0000                    :START
STOP.M                   3464.9000                    :STOP
STEP.M                      0.1000                    :STEP
NULL.                     -999.25                     :NULL VALUE
COMP.         Statoil Petroleum                       :Company
WELL.         15/9-F-1 B                              :Well
FLD .         VOLVE                                   :Field
LOC .         Maersk Inspirer                         :Location
PROV.                                                 :Province
CNTY.                                                 :County
STATE.                                                 :State
CTRY.                                                 :Country
DATE.                                                 :Log Date
SRVC.                                                 :Service Company
UWI .                                                 :Unique Well Identifier
API .                                                 :API Number
LATI.         058 26' 29.907" N    DMS                :Latitude
LONG.         001 53' 14.708" E    DMS                :Longtitude
PD  .         MSL                                     :Permanent Datum
ELZ .M                 0.0000                         :Elev. Log Zero

~Curve Information
#MNEM   .UNIT             API CODE Curve Description
#------------             -------- -----------------
DEPTH   .M            00 001 00 00:   0  Depth
BVW     .V/V          00 000 00 00:   1  Bulk Volume Water
CARB_FLAG.V/V         00 000 00 00:   2  Carbonate Flag
COAL_FLAG.UNITLESS    00 000 00 00:   3  Coal flag
KLOGH   .mD           00 000 00 00:   4  Calculated Horizontal PERMEABILITY from logs
PHIF    .V/V          00 000 00 00:   5  Final Porosity
SAND_FLAG.UNITLESS    00 000 00 00:   6  Sand Flag
SW      .V/V          00 000 00 00:   7  Water Saturation
VCARB   .V/V          00 000 00 00:   8  VCARB
VSH     .V/V          00 000 00 00:   9  Volume of Shale

~Parameter Information
#MNEM.UNIT       Value           Description
#------------    -----           -----------
HLD .         Terms and Conditions.:Header Legal Disclaimer
RUN .         1                 :Run number

~Other Information
PETROPHYSICAL INTERPRETATION: OUTPUT

# --- LOG MNEMONICS AND UNITS ---
#Depth          BVW             CARB_FLAG       COAL_FLAG       KLOGH           PHIF            SAND_FLAG       SW              VCARB           VSH            
#M              V/V             V/V             UNITLESS        mD              V/V             UNITLESS        V/V             V/V             V/V            

~A
# ...
      3284.0000          0.1195          0.0000          0.0000        219.3581          0.2176          1.0000          0.5493          0.0000          0.1555
      3284.1000          0.1273          0.0000          0.0000        217.4585          0.2275          1.0000          0.5595          0.0000          0.1648
      3284.2000          0.1209          0.0000          0.0000        197.7116          0.2331          1.0000          0.5188          0.0000          0.1743
      3284.3000          0.1159          0.0000          0.0000        169.6335          0.2316          1.0000          0.5004          0.0000          0.1803
      3284.4000          0.1111          0.0000          0.0000        112.4138          0.2275          1.0000          0.4885          0.0000          0.1966
      3284.5000          0.1093          0.0000          0.0000         94.1051          0.2252          1.0000          0.4855          0.0000          0.2031
      3284.6000          0.1092          0.0000          0.0000         93.5423          0.2254          1.0000          0.4844          0.0000          0.2036
      3284.7000          0.1113          0.0000          0.0000         58.2442          0.2264          1.0000          0.4915          0.0000          0.2273
      3284.8000          0.1143          0.0000          0.0000         31.5519          0.2274          1.0000          0.5026          0.0000          0.2578
      3284.9000          0.1199          0.0000          0.0000         16.0104          0.2284          1.0000          0.5252          0.0000          0.2914
      3285.0000          0.1247          0.0000          0.0000          5.7475          0.2277          1.0000          0.5476          0.0000          0.3402
      3285.1000          0.1270          0.0000          0.0000          2.8568          0.2230          1.0000          0.5695          0.0000          0.3698
      3285.2000          0.1272          0.0000          0.0000          2.8191          0.2140          1.0000          0.5947          0.0000          0.3624
      3285.3000          0.1270          0.0000          0.0000          4.2492          0.2026          1.0000          0.6267          0.0000          0.3325
      3285.4000          0.1253          0.0000          0.0000          9.6951          0.1928          1.0000          0.6496          0.0000          0.2840
      3285.5000          0.1221          0.0000          0.0000         18.0325          0.1874          1.0000          0.6515          0.0000          0.2492
      3285.6000          0.1120          0.0000          0.0000         25.4668          0.1841          1.0000          0.6083          0.0000          0.2296
      3285.7000          0.1189          0.0000          0.0000         25.8757          0.1799          1.0000          0.6610          0.0000          0.2252
      3285.8000          0.1289          0.0000          0.0000         20.4270          0.1765          1.0000          0.7304          0.0000          0.2335
      3285.9000          0.1296          0.0000          0.0000         22.8666          0.1760          1.0000          0.7364          0.0000          0.2277
      3286.0000          0.1274          0.0000          0.0000         24.7355          0.1781          1.0000          0.7152          0.0000          0.2257
      3286.1000          0.1251          0.0000          0.0000         33.3488          0.1801          1.0000          0.6946          0.0000          0.2131
      3286.2000          0.1201          0.0000          0.0000         46.5863          0.1804          1.0000          0.6658          0.0000          0.1972
      3286.3000          0.1144          0.0000          0.0000         65.7461          0.1808          1.0000          0.6326          0.0000          0.1810
      3286.4000          0.1114          0.0000          0.0000         59.2600          0.1844          1.0000          0.6040          0.0000          0.1891
      3286.5000          0.1143          0.0000          0.0000         56.8894          0.1941          1.0000          0.5890          0.0000          0.1997
      3286.6000          0.1183          0.0000          0.0000         60.6281          0.2049          1.0000          0.5774          0.0000          0.2063
      3286.7000          0.1223          0.0000          0.0000         63.4917          0.2184          1.0000          0.5601          0.0000          0.2161
      3286.8000          0.1237          0.0000          0.0000         49.8872          0.2251          1.0000          0.5494          0.0000          0.2337
      3286.9000          0.1232          0.0000          0.0000         44.1822          0.2266          1.0000          0.5439          0.0000          0.2408
      3287.0000          0.1232          0.0000          0.0000         40.3610          0.2231          1.0000          0.5522          0.0000          0.2421
      3287.1000          0.1252          0.0000          0.0000         44.1419          0.2191          1.0000          0.5715          0.0000          0.2342
      3287.2000          0.1268          0.0000          0.0000         34.0650          0.2171          1.0000          0.5842          0.0000          0.2450
      3287.3000          0.1274          0.0000          0.0000         24.6710          0.2167          1.0000          0.5879          0.0000          0.2601
      3287.4000          0.1255          0.0000          0.0000         28.9743          0.2170          1.0000          0.5784          0.0000          0.2527
      3287.5000          0.1234          0.0000          0.0000         32.0274          0.2180          1.0000          0.5661          0.0000          0.2488
      3287.6000          0.1260          0.0000          0.0000         24.7868          0.2198          1.0000          0.5730          0.0000          0.2627
      3287.7000          0.1267          0.0000          0.0000         23.0800          0.2218          1.0000          0.5715          0.0000          0.2679
      3287.8000          0.1265          0.0000          0.0000         21.3381          0.2234          1.0000          0.5665          0.0000          0.2731
      3287.9000          0.1287          0.0000          0.0000         20.9147          0.2256          1.0000          0.5706          0.0000          0.2760
      3288.0000          0.1322          0.0000          0.0000         22.5021          0.2244          1.0000          0.5890          0.0000          0.2715
      3288.1000          0.1227          0.0000          0.0000         21.8617          0.2165          1.0000          0.5669          0.0000          0.2658
      3288.2000          0.1092          0.0000          0.0000         23.3152          0.2018          1.0000          0.5410          0.0000          0.2496
      3288.3000          0.0855          0.0000          0.0000         51.0577          0.1827          1.0000          0.4680          0.0000          0.1948
      3288.4000          0.0699          0.0000          0.0000        184.8341          0.1676          1.0000          0.4173          0.0000          0.1193
      3288.5000          0.0517          0.0000          0.0000        412.3047          0.1628          1.0000          0.3173          0.0542          0.0764
      3288.6000          0.0445          0.0000          0.0000        665.3298          0.1685          1.0000          0.2639          0.0540          0.0584
      3288.7000          0.0417          0.0000          0.0000        936.1605          0.1784          1.0000          0.2339          0.0246          0.0507
      3288.8000          0.0391          0.0000          0.0000       1062.0482          0.1854          1.0000          0.2109          0.0000          0.0508
      3288.9000          0.0360          0.0000          0.0000       1089.6835          0.1864          1.0000          0.1932          0.0000          0.0504
