~Version Information
VERS.                     2.0: CWLS log ASCII Standard Version 2.00
WRAP.                      NO: One line per depth step

~Well Information Block
#MNEM.UNIT                 Value                       Information
#------------              -----                       -----------
STRT.M                   3205.0000                    :START
STOP.M                   4093.8000                    :STOP
STEP.M                      0.1000                    :STEP
NULL.                     -999.25                     :NULL VALUE
COMP.         Statoil Petroleum                       :Company
WELL.         15/9-F-1 C                              :Well
FLD .         VOLVE                                   :Field
LOC .         Maersk Inspirer                         :Location
PROV.                                                 :Province
CNTY.                                                 :County
STATE.                                                 :State
CTRY.                                                 :Country
DATE.                                                 :Log Date
SRVC.                                                 :Service Company
UWI .                                                 :Unique Well Identifier
API .                                                 :API Number
LATI.         058 26' 29.907" N    DMS                :Latitude
LONG.         001 53' 14.708" E    DMS                :Longtitude
PD  .         MSL                                     :Permanent Datum
EDF .M                54.9000                         :Elevations D.F.
EGL .M               -91.0000                         :Elevations G.L.
ELZ .M                54.9000                         :Elev. Log Zero
LMF .         DF                                      :Log Measured From

~Curve Information
#MNEM   .UNIT             API CODE Curve Description
#------------             -------- -----------------
DEPTH   .M            00 001 00 00:   0  Depth
BADDATA_FLAG.unitless 00 000 00 00:   1  Bad Data Flag
BVW     .v/v          00 000 00 00:   2  Bulk Volume Water
COAL_FLAG.unitless    00 000 00 00:   3  Coal Flag
KLOGH   .mD           00 000 00 00:   4  Permeability
PHIF    .v/v          00 000 00 00:   5  Final Porosity
SAND_FLAG.unitless    00 000 00 00:   6  Sand Flag
SW      .v/v          00 000 00 00:   7  Water Saturation
VCARB   .v/v          00 000 00 00:   8  VCARB
VSH     .v/v          00 000 00 00:   9  Volume of Shale

~Parameter Information
#MNEM.UNIT       Value           Description
#------------    -----           -----------
RUN .         1                 :Run number

~Other Information
PETROPHYSICAL INTERPRETATION: OUTPUT

# --- LOG MNEMONICS AND UNITS ---
#Depth          BADDATA_FLAG    BVW             COAL_FLAG       KLOGH           PHIF            SAND_FLAG       SW              VCARB           VSH            
#M              unitless        v/v             unitless        mD              v/v             unitless        v/v             v/v             v/v            

~A
# ...
      3955.0000          0.0000          0.0451          0.0000         77.8080          0.1540          1.0000          0.2928          0.0044          0.1490
      3955.1000          0.0000          0.0445          0.0000         87.7323          0.1494          1.0000          0.2979          0.0317          0.1391
      3955.2000          0.0000          0.0437          0.0000        132.1041          0.1479          1.0000          0.2951          0.0611          0.1181
      3955.3000          0.0000          0.0430          0.0000        200.4059          0.1493          1.0000          0.2882          0.0787          0.0992
      3955.4000          0.0000          0.0427          0.0000        262.7233          0.1534          1.0000          0.2784          0.0747          0.0897
      3955.5000          0.0000          0.0433          0.0000        210.0625          0.1594          1.0000          0.2717          0.0325          0.1059
      3955.6000          0.0000          0.0434          0.0000        189.4384          0.1663          1.0000          0.2612          0.0000          0.1170
      3955.7000          0.0000          0.0435          0.0000        218.8248          0.1728          1.0000          0.2516          0.0000          0.1158
      3955.8000          0.0000          0.0433          0.0000        271.3477          0.1787          1.0000          0.2424          0.0000          0.1107
      3955.9000          0.0000          0.0428          0.0000        292.3530          0.1843          1.0000          0.2325          0.0000          0.1120
      3956.0000          0.0000          0.0427          0.0000        351.5765          0.1894          1.0000          0.2254          0.0000          0.1077
      3956.1000          0.0000          0.0415          0.0000        303.8312          0.1932          1.0000          0.2147          0.0000          0.1181
      3956.2000          0.0000          0.0401          0.0000        328.7377          0.1948          1.0000          0.2059          0.0000          0.1157
      3956.3000          0.0000          0.0390          0.0000        471.6825          0.1943          1.0000          0.2010          0.0000          0.0978
      3956.4000          0.0000          0.0380          0.0000        460.9933          0.1934          1.0000          0.1965          0.0000          0.0981
      3956.5000          0.0000          0.0370          0.0000        521.6182          0.1931          1.0000          0.1914          0.0000          0.0920
      3956.6000          0.0000          0.0358          0.0000        438.9016          0.1935          1.0000          0.1850          0.0000          0.1006
      3956.7000          0.0000          0.0348          0.0000        376.6593          0.1938          1.0000          0.1795          0.0000          0.1083
      3956.8000          0.0000          0.0344          0.0000        367.6868          0.1937          1.0000          0.1776          0.0000          0.1093
      3956.9000          0.0000          0.0344          0.0000        243.7861          0.1927          1.0000          0.1784          0.0000          0.1283
      3957.0000          0.0000          0.0339          0.0000        253.8782          0.1903          1.0000          0.1780          0.0000          0.1242
      3957.1000          0.0000          0.0331          0.0000        352.5742          0.1869          1.0000          0.1773          0.0000          0.1053
      3957.2000          0.0000          0.0323          0.0000        380.6236          0.1835          1.0000          0.1758          0.0000          0.0986
      3957.3000          0.0000          0.0325          0.0000        321.1042          0.1812          1.0000          0.1796          0.0000          0.1047
      3957.4000          0.0000          0.0334          0.0000        407.6100          0.1801          1.0000          0.1852          0.0000          0.0923
      3957.5000          0.0000          0.0337          0.0000        531.6786          0.1803          1.0000          0.1869          0.0000          0.0797
      3957.6000          0.0000          0.0348          0.0000        497.8479          0.1815          1.0000          0.1919          0.0000          0.0839
      3957.7000          0.0000          0.0352          0.0000        561.7717          0.1829          1.0000          0.1927          0.0000          0.0793
      3957.8000          0.0000          0.0352          0.0000        395.0861          0.1848          1.0000          0.1904          0.0000          0.0980
      3957.9000          0.0000          0.0352          0.0000        287.5364          0.1850          1.0000          0.1902          0.0000          0.1135
      3958.0000          0.0000          0.0338          0.0000        359.5692          0.1848          1.0000          0.1829          0.0000          0.1025
      3958.1000          0.0000          0.0331          0.0000        362.0956          0.1846          1.0000          0.1793          0.0000          0.1020
      3958.2000          0.0000          0.0337          0.0000        300.3203          0.1848          1.0000          0.1822          0.0000          0.1112
      3958.3000          0.0000          0.0349          0.0000        246.4956          0.1852          1.0000          0.1883          0.0000          0.1211
      3958.4000          0.0000          0.0364          0.0000        250.9567          0.1873          1.0000          0.1942          0.0000          0.1221
      3958.5000          0.0000          0.0373          0.0000        369.6938          0.1891          1.0000          0.1973          0.0000          0.1050
      3958.6000          0.0000          0.0382          0.0000        327.1023          0.1894          1.0000          0.2017          0.0000          0.1111
      3958.7000          0.0000          0.0418          0.0000        333.9975          0.1863          1.0000          0.2242          0.0000          0.1074
      3958.8000          0.0000          0.0420          0.0000        341.2460          0.1833          1.0000          0.2291          0.0000          0.1037
      3958.9000          0.0000          0.0427          0.0000        295.8144          0.1780          1.0000          0.2399          0.0000          0.1059
      3959.0000          0.0000          0.0424          0.0000        242.8463          0.1723          1.0000          0.2461          0.0000          0.1104
      3959.1000          0.0000          0.0354          0.0000        240.0399          0.1677          1.0000          0.2113          0.0011          0.1068
      3959.2000          0.0000          0.0305          0.0000        224.5602          0.1657          1.0000          0.1839          0.0065          0.1083
      3959.3000          0.0000          0.0302          0.0000        280.8541          0.1679          1.0000          0.1796          0.0082          0.0994
      3959.4000          0.0000          0.0308          0.0000        324.4091          0.1737          1.0000          0.1771          0.0000          0.0976
      3959.5000          0.0000          0.0322          0.0000        311.7626          0.1805          1.0000          0.1785          0.0000          0.1056
      3959.6000          0.0000          0.0348          0.0000        320.1123          0.1846          1.0000          0.1885          0.0000          0.1080
      3959.7000          0.0000          0.0346          0.0000        426.1155          0.1841          1.0000          0.1879          0.0000          0.0937
      3959.8000          0.0000          0.0360          0.0000        354.2737          0.1804          1.0000          0.1995          0.0000          0.0993
      3959.9000          0.0000          0.0404          0.0000        227.6393          0.1769          1.0000          0.2283          0.0000          0.1175
