~Version Information
VERS.                     2.0: CWLS log ASCII Standard Version 2.00
WRAP.                      NO: One line per depth step

~Well Information Block
#MNEM.UNIT                 Value                       Information
#------------              -----                       -----------
STRT.M                   3205.0000                    :START
STOP.M                   4093.8000                    :STOP
STEP.M                      0.1000                    :STEP
NULL.                     -999.25                     :NULL VALUE
COMP.         Statoil Petroleum                       :Company
WELL.         15/9-F-1 C                              :Well
FLD .         VOLVE                                   :Field
LOC .         Maersk Inspirer                         :Location
PROV.                                                 :Province
CNTY.                                                 :County
STATE.                                                 :State
CTRY.                                                 :Country
DATE.                                                 :Log Date
SRVC.                                                 :Service Company
UWI .                                                 :Unique Well Identifier
API .                                                 :API Number
LATI.         058 26' 29.907" N    DMS                :Latitude
LONG.         001 53' 14.708" E    DMS                :Longtitude
PD  .         MSL                                     :Permanent Datum
EDF .M                54.9000                         :Elevations D.F.
EGL .M               -91.0000                         :Elevations G.L.
ELZ .M                54.9000                         :Elev. Log Zero
LMF .         DF                                      :Log Measured From

~Curve Information
#MNEM   .UNIT             API CODE Curve Description
#------------             -------- -----------------
DEPTH   .M            00 001 00 00:   0  Depth
BADDATA_FLAG.unitless 00 000 00 00:   1  Bad Data Flag
BVW     .v/v          00 000 00 00:   2  Bulk Volume Water
COAL_FLAG.unitless    00 000 00 00:   3  Coal Flag
KLOGH   .mD           00 000 00 00:   4  Permeability
PHIF    .v/v          00 000 00 00:   5  Final Porosity
SAND_FLAG.unitless    00 000 00 00:   6  Sand Flag
SW      .v/v          00 000 00 00:   7  Water Saturation
VCARB   .v/v          00 000 00 00:   8  VCARB
VSH     .v/v          00 000 00 00:   9  Volume of Shale

~Parameter Information
#MNEM.UNIT       Value           Description
#------------    -----           -----------
RUN .         1                 :Run number

~Other Information
PETROPHYSICAL INTERPRETATION: OUTPUT

# --- LOG MNEMONICS AND UNITS ---
#Depth          BADDATA_FLAG    BVW             COAL_FLAG       KLOGH           PHIF            SAND_FLAG       SW              VCARB           VSH            
#M              unitless        v/v             unitless        mD              v/v             unitless        v/v             v/v             v/v            

~A
# ...
      3895.0000          0.0000          0.1450          0.0000          2.9576          0.2379          1.0000          0.6098          0.0000          0.3813
      3895.1000          0.0000          0.1458          0.0000          4.5469          0.2362          1.0000          0.6171          0.0000          0.3591
      3895.2000          0.0000          0.1473          0.0000          5.5513          0.2339          1.0000          0.6298          0.0000          0.3474
      3895.3000          0.0000          0.1492          0.0000          3.9582          0.2322          1.0000          0.6424          0.0000          0.3623
      3895.4000          0.0000          0.1503          0.0000          3.7022          0.2324          1.0000          0.6468          0.0000          0.3657
      3895.5000          0.0000          0.1531          0.0000          3.8789          0.2339          1.0000          0.6546          0.0000          0.3648
      3895.6000          0.0000          0.1553          0.0000          4.0053          0.2354          1.0000          0.6597          0.0000          0.3645
      3895.7000          0.0000          0.1564          0.0000          3.8992          0.2364          1.0000          0.6615          0.0000          0.3667
      3895.8000          0.0000          0.1574          0.0000          5.3322          0.2378          1.0000          0.6622          0.0000          0.3528
      3895.9000          0.0000          0.1582          0.0000          5.9423          0.2397          1.0000          0.6601          0.0000          0.3493
      3896.0000          0.0000          0.1592          0.0000          4.9589          0.2413          1.0000          0.6600          0.0000          0.3594
      3896.1000          0.0000          0.1600          0.0000          3.5228          0.2412          1.0000          0.6632          0.0000          0.3759
      3896.2000          0.0000          0.1599          0.0000          3.0097          0.2387          1.0000          0.6697          0.0000          0.3813
      3896.3000          0.0000          0.1591          0.0000          4.0314          0.2342          1.0000          0.6794          0.0000          0.3631
      3896.4000          0.0000          0.1589          0.0000          2.9345          0.2278          1.0000          0.6976          0.0000          0.3728
      3896.5000          0.0000          0.1577          0.0000          2.3909          0.2197          1.0000          0.7180          0.0000          0.3754
      3896.6000          0.0000          0.1544          0.0000          3.2329          0.2106          1.0000          0.7332          0.0000          0.3528
      3896.7000          0.0000          0.1502          0.0000          3.5142          0.2014          1.0000          0.7458          0.0000          0.3406
      3896.8000          0.0000          0.1442          0.0000          3.0637          0.1927          1.0000          0.7483          0.0000          0.3395
      3896.9000          0.0000          0.1365          0.0000          2.9350          0.1831          1.0000          0.7456          0.0000          0.3331
      3897.0000          0.0000          0.1280          0.0000          2.8503          0.1714          1.0000          0.7465          0.0000          0.3240
      3897.1000          0.0000          0.1196          0.0000          2.9511          0.1594          1.0000          0.7504          0.0000          0.3117
      3897.2000          0.0000          0.1124          0.0000          2.1790          0.1484          1.0000          0.7572          0.0000          0.3166
      3897.3000          0.0000          0.1058          0.0000          2.8611          0.1384          1.0000          0.7648          0.0000          0.2945
      3897.4000          0.0000          0.0993          0.0000          2.0413          0.1283          1.0000          0.7743          0.0000          0.3018
      3897.5000          0.0000          0.0816          0.0000          0.8049          0.0816          0.0000          1.0000          0.0823          0.3052
      3897.6000          0.0000          0.0688          0.0000          0.9013          0.0688          0.0000          1.0000          0.1436          0.2884
      3897.7000          0.0000          0.0604          0.0000          0.9452          0.0604          0.0000          1.0000          0.1851          0.2786
      3897.8000          0.0000          0.0529          0.0000          1.0448          0.0529          0.0000          1.0000          0.2276          0.2671
      3897.9000          0.0000          0.0458          0.0000          0.8393          0.0458          0.0000          1.0000          0.2486          0.2714
      3898.0000          0.0000          0.0404          0.0000          0.6382          0.0404          0.0000          1.0000          0.2572          0.2798
      3898.1000          0.0000          0.0366          0.0000          0.5380          0.0366          0.0000          1.0000          0.2649          0.2846
      3898.2000          0.0000          0.0325          0.0000          0.6140          0.0325          0.0000          1.0000          0.2951          0.2746
      3898.3000          0.0000          0.0262          0.0000          0.4991          0.0262          0.0000          1.0000          0.3128          0.2791
      3898.4000          0.0000          0.0200          0.0000          0.5837          0.0200          0.0000          1.0000          0.3577          0.2660
      3898.5000          0.0000          0.0200          0.0000          0.4685          0.0200          0.0000          1.0000          0.3412          0.2766
      3898.6000          0.0000          0.0200          0.0000          0.4395          0.0200          0.0000          1.0000          0.3365          0.2797
      3898.7000          0.0000          0.0253          0.0000          0.5099          0.0253          0.0000          1.0000          0.3195          0.2772
      3898.8000          0.0000          0.0356          0.0000          0.6305          0.0356          0.0000          1.0000          0.2807          0.2761
      3898.9000          0.0000          0.0390          0.0000          0.6263          0.0417          0.0000          0.9361          0.2496          0.2818
      3899.0000          0.0000          0.0345          0.0000          0.6426          0.0430          0.0000          0.8010          0.2445          0.2818
      3899.1000          0.0000          0.0304          0.0000          0.5845          0.0424          0.0000          0.7169          0.2413          0.2858
      3899.2000          0.0000          0.0282          0.0000          0.4246          0.0423          0.0000          0.6652          0.2209          0.3012
      3899.3000          0.0000          0.0330          0.0000          0.6750          0.0454          0.0000          0.7268          0.2362          0.2815
      3899.4000          0.0000          0.0396          0.0000          0.8706          0.0542          0.0000          0.7314          0.2097          0.2771
      3899.5000          0.0000          0.0398          0.0000          1.1592          0.0689          0.0000          0.5784          0.1580          0.2763
      3899.6000          0.0000          0.0282          0.0000          2.4822          0.0854          0.0000          0.3303          0.1266          0.2542
      3899.7000          0.0000          0.0246          0.0000          6.1482          0.1276          1.0000          0.1931          0.0000          0.2480
      3899.8000          0.0000          0.0236          0.0000          7.3359          0.1269          1.0000          0.1860          0.0045          0.2389
      3899.9000          0.0000          0.0225          0.0000          9.0504          0.1230          1.0000          0.1831          0.0306          0.2253
