~Version Information
VERS.                     2.0: CWLS log ASCII Standard Version 2.00
WRAP.                      NO: One line per depth step

~Well Information Block
#MNEM.UNIT                 Value                       Information
#------------              -----                       -----------
STRT.M                   3358.0000                    :START
STOP.M                   3681.9000                    :STOP
STEP.M                      0.1000                    :STEP
NULL.                     -999.25                     :NULL VALUE
COMP.         Statoil Petroleum AS                    :Company
WELL.         15/9-F-1 A                              :Well
FLD .         VOLVE                                   :Field
LOC .         Maersk Inspirer                         :Location
PROV.                                                 :Province
CNTY.         Unused                                  :County
STATE.                                                 :State
CTRY.                                                 :Country
DATE.                                                 :Log Date
SRVC.                                                 :Service Company
UWI .                                                 :Unique Well Identifier
API .                                                 :API Number
LATI.         058 26' 29.907" N    DMS                :Latitude
LONG.         001 53' 14.708" E    DMS                :Longtitude
PD  .         MSL                                     :Permanent Datum
ELZ .M                 0.0000                         :Elev. Log Zero

~Curve Information
#MNEM   .UNIT             API CODE Curve Description
#------------             -------- -----------------
DEPTH   .M            00 001 00 00:   0  Depth
BVW     .V/V          00 000 00 00:   1  Bound Volume Water
COAL_FLAG.unitless    00 000 00 00:   2  Coal Flag
KLOGH   .mD           00 000 00 00:   3  Calculated Horizontal PERMEABILITY from logs
PHIF    .V/V          00 000 00 00:   4  Final porosity
SAND_FLAG.unitless    00 000 00 00:   5  Sand Flag
SW      .V/V          00 000 00 00:   6  Water Saturation (Archie)
VCARB   .V/V          00 000 00 00:   7  IFC(CARB_FLAG>0.5,1-VSH, VCARB)
VSH     .V/V          00 000 00 00:   8  Volume of Shale

~Parameter Information
#MNEM.UNIT       Value           Description
#------------    -----           -----------
HLD .         Terms and Conditions.:Header Legal Disclaimer
RUN .         1                 :Run number

~Other Information
PETROPHYSICAL INTERPRETATION: OUTPUT

# --- LOG MNEMONICS AND UNITS ---
#Depth          BVW             COAL_FLAG       KLOGH           PHIF            SAND_FLAG       SW              VCARB           VSH            
#M              V/V             unitless        mD              V/V             unitless        V/V             V/V             V/V            

~A
# ...
      3486.8000          0.0200          0.0000          1.9628          0.0200          0.0000          1.0000          0.4549          0.2075
      3486.9000          0.0200          0.0000          1.6638          0.0200          0.0000          1.0000          0.4410          0.2154
      3487.0000          0.0200          0.0000          1.2831          0.0200          0.0000          1.0000          0.4197          0.2280
      3487.1000          0.0200          0.0000          1.2462          0.0200          0.0000          1.0000          0.4173          0.2294
      3487.2000          0.0200          0.0000          1.3658          0.0200          0.0000          1.0000          0.4248          0.2250
      3487.3000          0.0200          0.0000          1.3049          0.0200          0.0000          1.0000          0.4210          0.2272
      3487.4000          0.0249          0.0000          1.3412          0.0271          0.0000          0.9191          0.3822          0.2322
      3487.5000          0.0248          0.0000          1.3072          0.0329          0.0000          0.7534          0.3479          0.2386
      3487.6000          0.0238          0.0000          1.2254          0.0359          0.0000          0.6615          0.3266          0.2444
      3487.7000          0.0249          0.0000          1.0438          0.0370          0.0000          0.6738          0.3093          0.2530
      3487.8000          0.0280          0.0000          1.3095          0.0390          0.0000          0.7178          0.3151          0.2439
      3487.9000          0.0324          0.0000          1.5879          0.0446          0.0000          0.7255          0.2988          0.2396
      3488.0000          0.0373          0.0000          1.8951          0.0542          0.0000          0.6884          0.2612          0.2395
      3488.1000          0.0409          0.0000          2.7070          0.0653          0.0000          0.6259          0.2284          0.2322
      3488.2000          0.0431          0.0000          4.0078          0.0745          0.0000          0.5789          0.2078          0.2215
      3488.3000          0.0434          0.0000          4.6095          0.0780          0.0000          0.5570          0.1995          0.2178
      3488.4000          0.0431          0.0000          4.3712          0.0754          0.0000          0.5713          0.2092          0.2180
      3488.5000          0.0449          0.0000          3.0653          0.0683          0.0000          0.6576          0.2216          0.2289
      3488.6000          0.0483          0.0000          2.0944          0.0594          0.0000          0.8140          0.2414          0.2393
      3488.7000          0.0502          0.0000          1.7085          0.0502          0.0000          1.0000          0.2745          0.2410
      3488.8000          0.0413          0.0000          1.7641          0.0413          0.0000          1.0000          0.3247          0.2315
      3488.9000          0.0319          0.0000          1.7369          0.0319          0.0000          1.0000          0.3756          0.2239
      3489.0000          0.0225          0.0000          1.1569          0.0225          0.0000          1.0000          0.3968          0.2352
      3489.1000          0.0200          0.0000          1.1000          0.0200          0.0000          1.0000          0.4072          0.2354
      3489.2000          0.0200          0.0000          1.3764          0.0200          0.0000          1.0000          0.4254          0.2246
      3489.3000          0.0200          0.0000          1.3749          0.0200          0.0000          1.0000          0.4253          0.2246
      3489.4000          0.0200          0.0000          1.5918          0.0200          0.0000          1.0000          0.4374          0.2176
      3489.5000          0.0220          0.0000          1.5786          0.0220          0.0000          1.0000          0.4249          0.2197
      3489.6000          0.0287          0.0000          1.9203          0.0287          0.0000          1.0000          0.4015          0.2163
      3489.7000          0.0366          0.0000          2.5621          0.0366          0.0000          1.0000          0.3791          0.2094
      3489.8000          0.0427          0.0000          1.9970          0.0427          0.0000          1.0000          0.3261          0.2268
      3489.9000          0.0438          0.0000          1.7750          0.0438          0.0000          1.0000          0.3115          0.2334
      3490.0000          0.0406          0.0000          1.8548          0.0406          0.0000          1.0000          0.3319          0.2285
      3490.1000          0.0363          0.0000          1.8171          0.0363          0.0000          1.0000          0.3543          0.2257
      3490.2000          0.0341          0.0000          1.1768          0.0341          0.0000          1.0000          0.3335          0.2447
      3490.3000          0.0369          0.0000          0.8265          0.0369          0.0000          1.0000          0.2929          0.2642
      3490.4000          0.0466          0.0000          1.4186          0.0466          0.0000          1.0000          0.2803          0.2468
      3490.5000          0.0630          0.0000          3.5858          0.0630          0.0000          1.0000          0.2596          0.2166
      3490.6000          0.0803          0.0000          5.2140          0.0803          0.0000          1.0000          0.1960          0.2139
      3490.7000          0.0945          0.0000          7.7184          0.0945          0.0000          1.0000          0.1507          0.2076
      3490.8000          0.1049          0.0000          6.3236          0.1049          1.0000          1.0000          0.0907          0.2265
      3490.9000          0.1048          0.0000          5.3320          0.1141          1.0000          0.9187          0.0419          0.2429
      3491.0000          0.1082          0.0000          6.9132          0.1225          1.0000          0.8837          0.0199          0.2378
      3491.1000          0.1196          0.0000          5.7288          0.1271          1.0000          0.9414          0.0000          0.2510
      3491.2000          0.1260          0.0000          5.8245          0.1260          1.0000          1.0000          0.0000          0.2492
      3491.3000          0.1205          0.0000          6.2503          0.1205          1.0000          1.0000          0.0230          0.2409
      3491.4000          0.1159          0.0000          7.3701          0.1159          1.0000          1.0000          0.0504          0.2289
      3491.5000          0.1173          0.0000          9.4401          0.1173          1.0000          1.0000          0.0573          0.2182
      3491.6000          0.1250          0.0000         10.7403          0.1250          1.0000          1.0000          0.0309          0.2188
      3491.7000          0.1369          0.0000          9.2242          0.1369          1.0000          1.0000          0.0000          0.2367
      3491.8000          0.1498          0.0000          5.2571          0.1498          1.0000          1.0000          0.0000          0.2753
      3491.9000          0.1610          0.0000          2.5058          0.1610          1.0000          1.0000          0.0000          0.3210
      3492.0000          0.1695          0.0000          2.5099          0.1695          1.0000          1.0000          0.0000          0.3285
      3492.1000          0.1759          0.0000          2.7222          0.1759          1.0000          1.0000          0.0000          0.3302
      3492.2000          0.1814          0.0000          3.9079          0.1814          1.0000          1.0000          0.0000          0.3177
      3492.3000          0.1794          0.0000          6.6519          0.1866          1.0000          0.9616          0.0000          0.2966
