~Version Information
VERS.                     2.0: CWLS log ASCII Standard Version 2.00
WRAP.                      NO: One line per depth step

~Well Information Block
#MNEM.UNIT                 Value                       Information
#------------              -----                       -----------
STRT.M                    3575.000                    :START
STOP.M                    3761.800                    :STOP
STEP.M                       0.100                    :STEP
NULL.                     -999.25                     :NULL VALUE
COMP.         Statoil Petroleum AS                    :Company
WELL.         15/9-F-11 A                             :Well
FLD .         VOLVE                                   :Field
LOC .         Maersk Inspirer                         :Location
PROV.                                                 :Province
CNTY.                                                 :County
STATE.                                                 :State
CTRY.         Norway                                  :Country
DATE.                                                 :Log Date
SRVC.                                                 :Service Company
UWI .                                                 :Unique Well Identifier
API .                                                 :API Number
LATI.         058 26' 29.956" N    DMS                :Latitude
LONG.         001 53' 14.866" E    DMS                :Longtitude
PD  .         MSL                                     :Permanent Datum
EDF .M            54.900                              :Elevations D.F.
EGL .M           -91.000                              :Elevations G.L.
ELZ .M            54.900                              :Elev. Log Zero
LMF .         DF                                      :Log Measured From

~Curve Information
#MNEM   .UNIT             API CODE Curve Description
#------------             -------- -----------------
DEPTH   .M            00 001 00 00:   0  Depth
BVW     .v/v          00 000 00 00:   1  BVW:CPI:rC:NONE:v1
CARB_FLAG.UNKNOWN     00 000 00 00:   2  CARB_FLAG:CPI:rC:NONE:v1
COAL_FLAG.UNKNOWN     00 000 00 00:   3  COAL_FLAG:CPI:rC:NONE:v1
KLOGH   .mD           00 000 00 00:   4  KLOGH:CPI:rC:NONE:v1
PHIF    .v/v          00 000 00 00:   5  PHIF:CPI:rC:NONE:v1
SAND_FLAG.UNKNOWN     00 000 00 00:   6  SAND_FLAG:CPI:rC:NONE:v1
SW      .v/v          00 000 00 00:   7  SW:CPI:rC:NONE:v1
VSH     .v/v          00 000 00 00:   8  VSH:CPI:rC:NONE:v1

~Parameter Information
#MNEM.UNIT       Value           Description
#------------    -----           -----------
RUN .         1                 :Run number

~Other Information
PETROPHYSICAL_INTERPRETATION: OUTPUT

# --- LOG MNEMONICS AND UNITS ---
#Depth     BVW        CARB_FLAG  COAL_FLAG  KLOGH      PHIF       SAND_FLAG  SW         VSH       
#M         v/v        UNKNOWN    UNKNOWN    mD         v/v        UNKNOWN    v/v        v/v       

~A
# ...
  3615.500      0.043      0.000      0.000   2844.544      0.212      1.000      0.201      0.027
  3615.600      0.037      0.000      0.000   2672.165      0.212      1.000      0.175      0.030
  3615.700      0.035      0.000      0.000   2211.274      0.209      1.000      0.169      0.037
  3615.800      0.033      0.000      0.000   1959.258      0.206      1.000      0.161      0.040
  3615.900      0.031      0.000      0.000   2100.036      0.203      1.000      0.152      0.033
  3616.000      0.031      0.000      0.000   2213.979      0.202      1.000      0.154      0.030
  3616.100      0.029      0.000      0.000   2159.604      0.204      1.000      0.144      0.034
  3616.200      0.028      0.000      0.000   2337.430      0.209      1.000      0.134      0.034
  3616.300      0.028      0.000      0.000   2659.729      0.215      1.000      0.130      0.033
  3616.400      0.028      0.000      0.000   2898.191      0.221      1.000      0.127      0.034
  3616.500      0.028      0.000      0.000   3444.520      0.226      1.000      0.125      0.030
  3616.600      0.028      0.000      0.000   3712.360      0.230      1.000      0.123      0.030
  3616.700      0.028      0.000      0.000   3472.761      0.232      1.000      0.122      0.035
  3616.800      0.028      0.000      0.000   4230.447      0.234      1.000      0.121      0.027
  3616.900      0.028      0.000      0.000   4788.867      0.236      1.000      0.120      0.023
  3617.000      0.029      0.000      0.000   4488.263      0.240      1.000      0.119      0.030
  3617.100      0.029      0.000      0.000   4788.101      0.243      1.000      0.117      0.029
  3617.200      0.028      0.000      0.000   5252.464      0.245      1.000      0.116      0.026
  3617.300      0.028      0.000      0.000   4882.944      0.245      1.000      0.115      0.030
  3617.400      0.028      0.000      0.000   4643.028      0.246      1.000      0.115      0.034
  3617.500      0.028      0.000      0.000   4525.781      0.248      1.000      0.112      0.036
  3617.600      0.028      0.000      0.000   5490.575      0.250      1.000      0.111      0.029
  3617.700      0.027      0.000      0.000   5720.049      0.250      1.000      0.109      0.027
  3617.800      0.027      0.000      0.000   5805.086      0.251      1.000      0.107      0.027
  3617.900      0.026      0.000      0.000   5436.332      0.249      1.000      0.103      0.028
  3618.000      0.025      0.000      0.000   5036.417      0.246      1.000      0.101      0.030
  3618.100      0.024      0.000      0.000   5105.209      0.243      1.000      0.099      0.026
  3618.200      0.023      0.000      0.000   4426.674      0.240      1.000      0.096      0.030
  3618.300      0.024      0.000      0.000   3922.944      0.237      1.000      0.103      0.034
  3618.400      0.025      0.000      0.000   3497.242      0.233      1.000      0.108      0.036
  3618.500      0.026      0.000      0.000   2248.829      0.227      1.000      0.113      0.052
  3618.600      0.026      0.000      0.000   1334.074      0.217      1.000      0.119      0.068
  3618.700      0.025      0.000      0.000    647.531      0.203      1.000      0.125      0.090
  3618.800      0.024      0.000      0.000    233.963      0.186      1.000      0.128      0.125
  3618.900      0.023      0.000      0.000     94.347      0.170      1.000      0.134      0.154
  3619.000      0.023      0.000      0.000     35.442      0.155      1.000      0.147      0.188
  3619.100      0.030      0.000      0.000     12.413      0.143      1.000      0.207      0.228
  3619.200      0.042      1.000      0.000      2.156      0.096      0.000      0.438      0.270
  3619.300      0.057      1.000      0.000      0.844      0.087      0.000      0.648      0.308
  3619.400      0.062      1.000      0.000      0.646      0.085      0.000      0.734      0.319
  3619.500      0.068      1.000      0.000      0.535      0.085      0.000      0.804      0.328
  3619.600      0.071      1.000      0.000      0.497      0.086      0.000      0.832      0.332
  3619.700      0.076      1.000      0.000      0.454      0.086      0.000      0.885      0.337
  3619.800      0.082      1.000      0.000      0.581      0.088      0.000      0.930      0.327
  3619.900      0.090      1.000      0.000      0.737      0.093      0.000      0.963      0.320
  3620.000      0.094      0.000      0.000      1.134      0.102      1.000      0.929      0.306
  3620.100      0.088      0.000      0.000      1.412      0.115      1.000      0.766      0.307
  3620.200      0.084      0.000      0.000      6.097      0.165      1.000      0.512      0.282
  3620.300      0.081      0.000      0.000     14.458      0.181      1.000      0.447      0.254
  3620.400      0.077      0.000      0.000     25.858      0.197      1.000      0.393      0.241
  3620.500      0.076      0.000      0.000     63.987      0.212      1.000      0.361      0.210
  3620.600      0.075      0.000      0.000    158.999      0.225      1.000      0.332      0.177
  3620.700      0.072      0.000      0.000    214.378      0.233      1.000      0.310      0.170
  3620.800      0.070      0.000      0.000    244.454      0.237      1.000      0.294      0.168
  3620.900      0.067      0.000      0.000    256.362      0.236      1.000      0.284      0.164
  3621.000      0.065      0.000      0.000    223.223      0.232      1.000      0.281      0.167
  3621.100      0.066      0.000      0.000    164.461      0.227      1.000      0.290      0.177
  3621.200      0.067      0.000      0.000    153.891      0.222      1.000      0.304      0.176
  3621.300      0.068      0.000      0.000    155.803      0.216      1.000      0.313      0.171
  3621.400      0.065      0.000      0.000    142.779      0.214      1.000      0.303      0.173
  3621.500      0.064      0.000      0.000    161.790      0.208      1.000      0.309      0.162
  3621.600      0.060      0.000      0.000    174.693      0.203      1.000      0.295      0.154
  3621.700      0.055      0.000      0.000    219.347      0.200      1.000      0.274      0.140
  3621.800      0.050      0.000      0.000    389.551      0.199      1.000      0.250      0.111
  3621.900      0.048      0.000      0.000    573.514      0.203      1.000      0.235      0.096
  3622.000      0.047      0.000      0.000    881.362      0.211      1.000      0.221      0.083
  3622.100      0.050      0.000      0.000   1377.073      0.221      1.000      0.225      0.069
  3622.200      0.050      0.000      0.000   1738.511      0.228      1.000      0.221      0.065
  3622.300      0.051      0.000      0.000   1825.870      0.232      1.000      0.219      0.066
  3622.400      0.051      0.000      0.000   1892.375      0.233      1.000      0.217      0.065
  3622.500      0.049      0.000      0.000   1686.905      0.232      1.000      0.210      0.070
  3622.600      0.047      0.000      0.000   1769.465      0.229      1.000      0.203      0.065
  3622.700      0.045      0.000      0.000   1703.655      0.226      1.000      0.199      0.064
  3622.800      0.044      0.000      0.000   1894.963      0.224      1.000      0.195      0.058
  3622.900      0.042      0.000      0.000   2066.611      0.224      1.000      0.189      0.053
  3623.000      0.042      0.000      0.000   2099.137      0.226      1.000      0.186      0.054
  3623.100      0.043      0.000      0.000   2137.498      0.228      1.000      0.189      0.055
  3623.200      0.044      0.000      0.000   1986.044      0.229      1.000      0.191      0.060
  3623.300      0.046      0.000      0.000   1800.151      0.229      1.000      0.199      0.064
  3623.400      0.047      0.000      0.000   1739.687      0.229      1.000      0.207      0.065
  3623.500      0.048      0.000      0.000   1747.723      0.227      1.000      0.210      0.064
