~Version Information
VERS.                     2.0: CWLS log ASCII Standard Version 2.00
WRAP.                      NO: One line per depth step

~Well Information Block
#MNEM.UNIT                 Value                       Information
#------------              -----                       -----------
STRT.M                     188.500                    :START
STOP.M                     346.700                    :STOP
STEP.M                       0.100                    :STEP
NULL.                     -999.25                     :NULL VALUE
COMP.         STATOIL PETRPOLEUM AS                   :Company
WELL.         15/9-F-11                               :Well
FLD .         VOLVE                                   :Field
LOC .         Maersk Inspirer                         :Location
PROV.                                                 :Province
CNTY.                                                 :County
STATE.                                                 :State
CTRY.         Norway                                  :Country
DATE.                                                 :Log Date
SRVC.                                                 :Service Company
UWI .                                                 :Unique Well Identifier
API .                                                 :API Number
LATI.         058 26' 29.960" N    DMS                :Latitude
LONG.         001 53' 14.870" E    DMS                :Longtitude
PD  .         MSL                                     :Permanent Datum
EDF .M            54.900                              :Elevations D.F.
EGL .M           -91.000                              :Elevations G.L.
WD  .M           -91.000                              :Water Depth
ELZ .M            54.900                              :Elev. Log Zero

~Curve Information
#MNEM   .UNIT             API CODE Curve Description
#------------             -------- -----------------
DEPTH   .M            00 001 00 00:   0  Depth
BS      .inches       00 000 00 00:   1  BS:COMPOSITE:rC:NONE:v1
GR      .API          30 150 01 01:   2  GR:COMPOSITE:rC:NONE:v1
RACEHM  .ohm.m        95 220 00 01:   3  RACEHM:COMPOSITE:rC:NONE:v1
RACELM  .ohm.m        00 524 01 00:   4  RACELM:COMPOSITE:rC:NONE:v1
RD      .ohm.m        00 000 00 00:   5  RD:COMPOSITE:rC:NONE:v1
RM      .ohm.m        00 000 00 00:   6  RM:COMPOSITE:rC:NONE:v1
ROP     .m/hr         00 000 00 00:   7  ROP:COMPOSITE:rC:NONE:v1
RPCEHM  .ohm.m        00 000 00 00:   8  RPCEHM:COMPOSITE:rC:NONE:v1
RPCELM  .ohm.m        00 000 00 00:   9  RPCELM:COMPOSITE:rC:NONE:v1
RT      .ohm.m        00 000 00 00:  10  RT:COMPOSITE:rC:NONE:v1

~Parameter Information
#MNEM.UNIT       Value           Description
#------------    -----           -----------
RUN .         1                 :Run number

~Other Information
PETROPHYSICAL INTERPRETATION: INPUT

# --- LOG MNEMONICS AND UNITS ---
#Depth     BS         GR         RACEHM     RACELM     RD         RM         ROP        RPCEHM     RPCELM     RT        
#M         inches     API        ohm.m      ohm.m      ohm.m      ohm.m      m/hr       ohm.m      ohm.m      ohm.m     

~A
# ...
   268.900     26.000     20.700      1.184      1.156      1.316      1.500     12.204      1.500      1.316      1.500
   269.000     26.000     20.400      1.145      1.156      1.339      1.551     12.147      1.551      1.339      1.551
   269.100     26.000     20.500      1.143      1.140      1.303      1.555     12.090      1.555      1.304      1.555
   269.200     26.000     22.000      1.090      1.130      1.278      1.478     12.112      1.478      1.278      1.478
   269.300     26.000     22.800      1.056      1.132      1.269      1.413     12.133      1.413      1.269      1.413
   269.400     26.000     22.200      1.054      1.125      1.275      1.436     12.155      1.436      1.275      1.436
   269.500     26.000     22.300      1.065      1.112      1.219      1.447     12.249      1.447      1.219      1.447
   269.600     26.000     22.400      1.071      1.132      1.264      1.354     12.343      1.354      1.264      1.354
   269.700     26.000     20.700      1.062      1.077      1.175      1.331     12.438      1.331      1.175      1.331
   269.800     26.000     20.800      1.055      1.073      1.147      1.272     12.609      1.272      1.147      1.272
   269.900     26.000     24.000      1.059      1.131      1.167      1.208     12.780      1.208      1.167      1.208
   270.000     26.000     23.700      1.029      1.062      1.128      1.172     12.951      1.172      1.128      1.172
   270.100     26.000     22.300      1.022      1.009      1.041      1.202     13.217      1.202      1.041      1.202
   270.200     26.000     20.800      1.003      1.028      1.075      1.147     13.483      1.147      1.075      1.147
   270.300     26.000     19.400      1.008      1.019      1.075      1.164     13.749      1.164      1.075      1.164
   270.400     26.000     21.100      1.007      1.025      1.097      1.176     14.000      1.176      1.097      1.176
   270.500     26.000     22.100      0.955      1.018      1.112      1.178     14.250      1.178      1.112      1.178
   270.600     26.000     21.400      0.957      1.020      1.102      1.200     14.500      1.200      1.102      1.200
   270.700     26.000     22.500      0.964      1.029      1.071      1.156     14.848      1.156      1.071      1.156
   270.800     26.000     21.900      0.955      1.064      1.127      1.132     15.196      1.132      1.127      1.132
   270.900     26.000     21.000      0.926      1.046      1.095      1.126     15.544      1.126      1.095      1.126
   271.000     26.000     20.800      0.880      1.051      1.100      1.130     15.838      1.130      1.100      1.130
   271.100     26.000     18.100      0.886      1.036      1.067      1.033     16.131      1.033      1.067      1.033
   271.200     26.000     18.600      0.870      1.048      1.070      1.067     16.424      1.067      1.070      1.067
   271.300     26.000     17.100      0.870      1.048      1.014      0.966     16.526      0.966      1.014      0.966
   271.400     26.000     14.500      0.883      1.024      0.901      0.822     16.628      0.822      0.901      0.822
   271.500     26.000     13.700      0.890      1.030      0.936      0.853     16.730      0.853      0.936      0.853
   271.600     26.000     14.500      0.891      1.009      0.887      0.800     16.984      0.800      0.887      0.800
   271.700     26.000     15.700      0.889      0.976      0.887      0.778     17.238      0.778      0.887      0.778
   271.800     26.000     15.500      0.800      0.981      0.826      0.687     17.492      0.687      0.826      0.687
   271.900     26.000     15.900      0.795      0.965      0.820      0.715     17.575      0.715      0.820      0.715
   272.000     26.000     18.400      0.790      0.950      0.813      0.744     17.658      0.744      0.813      0.744
   272.100     26.000     20.800      0.888      0.967      0.893      1.096     17.741      1.096      0.893      1.096
   272.200     26.000     27.300      0.917      0.977      0.888      1.100     17.755      1.100      0.888      1.100
   272.300     26.000     31.300      0.947      0.988      0.882      1.104     17.770      1.104      0.882      1.104
   272.400     26.000     31.300      0.924      1.020      0.883      0.835     17.785      0.835      0.883      0.835
   272.500     26.000     24.200      1.039      1.027      0.933      0.996     17.878      0.996      0.933      0.996
   272.600     26.000     17.900      1.098      1.048      0.965      1.015     17.970      1.015      0.965      1.015
   272.700     26.000     16.100      1.158      1.069      0.996      1.035     18.063      1.035      0.996      1.035
   272.800     26.000     15.600      1.143      1.122      1.141      0.989     17.682      0.989      1.141      0.989
   272.900     26.000     15.200      1.243      1.131      1.151      1.186     17.301      1.186      1.151      1.186
   273.000     26.000     14.700      1.184      1.139      1.106      1.077     16.920      1.077      1.106      1.077
   273.100     26.000     16.600      1.126      1.147      1.062      0.969     16.578      0.969      1.062      0.969
   273.200     26.000     17.600      1.169      1.182      1.151      0.972     16.237      0.972      1.151      0.972
   273.300     26.000     17.700      1.226      1.168      1.124      0.921     15.895      0.921      1.124      0.921
   273.400     26.000     18.000      1.207      1.198      1.125      0.996     15.277      0.996      1.125      0.996
   273.500     26.000     19.500      1.229      1.217      1.192      1.114     14.658      1.114      1.192      1.114
   273.600     26.000     18.600      1.188      1.223      1.229      1.099     14.040      1.099      1.229      1.099
   273.700     26.000     18.400      1.214      1.194      1.237      1.192     13.542      1.192      1.237      1.192
   273.800     26.000     18.500      1.231      1.244      1.287      1.241     13.043      1.241      1.287      1.241
   273.900     26.000     18.200      1.212      1.172      1.186      1.229     12.545      1.229      1.186      1.229
   274.000     26.000     19.500      1.249      1.153      1.216      1.314     12.281      1.314      1.216      1.314
   274.100     26.000     20.400      1.250      1.165      1.263      1.280     12.017      1.280      1.263      1.280
   274.200     26.000     20.600      1.233      1.184      1.264      1.240     11.753      1.240      1.264      1.240
   274.300     26.000     21.900      1.269      1.174      1.213      1.353     11.737      1.353      1.213      1.353
   274.400     26.000     22.600      1.225      1.161      1.196      1.217     11.721      1.217      1.196      1.217
   274.500     26.000     21.900      1.265      1.163      1.218      1.216     11.705      1.216      1.218      1.216
   274.600     26.000     21.600      1.257      1.166      1.217      1.313     11.770      1.313      1.217      1.313
   274.700     26.000     21.000      1.122      1.146      1.162      1.196     11.836      1.196      1.162      1.196
   274.800     26.000     20.200      1.058      1.135      1.168      1.189     11.901      1.189      1.168      1.189
   274.900     26.000     22.300      1.052      1.133      1.158      1.251     11.493      1.251      1.158      1.251
   275.000     26.000     20.300      1.045      1.127      1.194      1.238     11.085      1.238      1.194      1.238
   275.100     26.000     21.900      1.028      1.140      1.206      1.297     10.677      1.297      1.206      1.297
   275.200     26.000     25.100      1.006      1.118      1.165      1.300     10.324      1.300      1.165      1.300
   275.300     26.000     22.200      0.998      1.115      1.204      1.263      9.971      1.263      1.204      1.263
   275.400     26.000     20.900      1.041      1.130      1.178      1.282      9.618      1.282      1.178      1.282
   275.500     26.000     19.500      1.070      1.137      1.171      1.240      9.418      1.240      1.171      1.240
