~Version Information
VERS.                     2.0: CWLS log ASCII Standard Version 2.00
WRAP.                      NO: One line per depth step

~Well Information Block
#MNEM.UNIT                 Value                       Information
#------------              -----                       -----------
STRT.M                    3575.000                    :START
STOP.M                    3761.800                    :STOP
STEP.M                       0.100                    :STEP
NULL.                     -999.25                     :NULL VALUE
COMP.         Statoil Petroleum AS                    :Company
WELL.         15/9-F-11 A                             :Well
FLD .         VOLVE                                   :Field
LOC .         Maersk Inspirer                         :Location
PROV.                                                 :Province
CNTY.                                                 :County
STATE.                                                 :State
CTRY.         Norway                                  :Country
DATE.                                                 :Log Date
SRVC.                                                 :Service Company
UWI .                                                 :Unique Well Identifier
API .                                                 :API Number
LATI.         058 26' 29.956" N    DMS                :Latitude
LONG.         001 53' 14.866" E    DMS                :Longtitude
PD  .         MSL                                     :Permanent Datum
EDF .M            54.900                              :Elevations D.F.
EGL .M           -91.000                              :Elevations G.L.
ELZ .M            54.900                              :Elev. Log Zero
LMF .         DF                                      :Log Measured From

~Curve Information
#MNEM   .UNIT             API CODE Curve Description
#------------             -------- -----------------
DEPTH   .M            00 001 00 00:   0  Depth
BVW     .v/v          00 000 00 00:   1  BVW:CPI:rC:NONE:v1
CARB_FLAG.UNKNOWN     00 000 00 00:   2  CARB_FLAG:CPI:rC:NONE:v1
COAL_FLAG.UNKNOWN     00 000 00 00:   3  COAL_FLAG:CPI:rC:NONE:v1
KLOGH   .mD           00 000 00 00:   4  KLOGH:CPI:rC:NONE:v1
PHIF    .v/v          00 000 00 00:   5  PHIF:CPI:rC:NONE:v1
SAND_FLAG.UNKNOWN     00 000 00 00:   6  SAND_FLAG:CPI:rC:NONE:v1
SW      .v/v          00 000 00 00:   7  SW:CPI:rC:NONE:v1
VSH     .v/v          00 000 00 00:   8  VSH:CPI:rC:NONE:v1

~Parameter Information
#MNEM.UNIT       Value           Description
#------------    -----           -----------
RUN .         1                 :Run number

~Other Information
PETROPHYSICAL_INTERPRETATION: OUTPUT

# --- LOG MNEMONICS AND UNITS ---
#Depth     BVW        CARB_FLAG  COAL_FLAG  KLOGH      PHIF       SAND_FLAG  SW         VSH       
#M         v/v        UNKNOWN    UNKNOWN    mD         v/v        UNKNOWN    v/v        v/v       

~A
# ...
  3680.300      0.045      0.000      0.000    695.942      0.211      1.000      0.212      0.094
  3680.400      0.044      0.000      0.000    692.677      0.209      1.000      0.211      0.092
  3680.500      0.044      0.000      0.000    624.567      0.207      1.000      0.211      0.095
  3680.600      0.043      0.000      0.000    540.745      0.204      1.000      0.213      0.100
  3680.700      0.043      0.000      0.000    555.196      0.203      1.000      0.212      0.097
  3680.800      0.042      0.000      0.000    614.363      0.201      1.000      0.208      0.091
  3680.900      0.041      0.000      0.000    580.189      0.202      1.000      0.205      0.094
  3681.000      0.041      0.000      0.000    704.485      0.200      1.000      0.205      0.084
  3681.100      0.040      0.000      0.000    687.234      0.198      1.000      0.203      0.083
  3681.200      0.039      0.000      0.000    515.899      0.195      1.000      0.199      0.094
  3681.300      0.037      0.000      0.000    497.933      0.192      1.000      0.190      0.094
  3681.400      0.035      0.000      0.000    528.672      0.191      1.000      0.185      0.089
  3681.500      0.035      0.000      0.000    527.558      0.191      1.000      0.184      0.089
  3681.600      0.036      0.000      0.000    580.894      0.189      1.000      0.189      0.083
  3681.700      0.036      0.000      0.000    595.979      0.187      1.000      0.191      0.080
  3681.800      0.035      0.000      0.000    565.346      0.186      1.000      0.190      0.082
  3681.900      0.034      0.000      0.000    396.235      0.185      1.000      0.184      0.098
  3682.000      0.033      0.000      0.000    405.857      0.185      1.000      0.180      0.097
  3682.100      0.033      0.000      0.000    386.257      0.186      1.000      0.177      0.100
  3682.200      0.032      0.000      0.000    402.882      0.185      1.000      0.171      0.097
  3682.300      0.031      0.000      0.000    394.732      0.184      1.000      0.169      0.097
  3682.400      0.030      0.000      0.000    401.604      0.181      1.000      0.168      0.094
  3682.500      0.030      0.000      0.000    490.556      0.180      1.000      0.168      0.083
  3682.600      0.031      0.000      0.000    445.392      0.182      1.000      0.169      0.090
  3682.700      0.031      0.000      0.000    484.506      0.184      1.000      0.170      0.087
  3682.800      0.032      0.000      0.000    592.171      0.186      1.000      0.170      0.080
  3682.900      0.032      0.000      0.000    560.013      0.188      1.000      0.170      0.084
  3683.000      0.032      0.000      0.000    594.018      0.189      1.000      0.170      0.082
  3683.100      0.032      0.000      0.000    586.318      0.189      1.000      0.171      0.083
  3683.200      0.033      0.000      0.000    625.076      0.188      1.000      0.175      0.079
  3683.300      0.034      0.000      0.000    622.117      0.188      1.000      0.180      0.079
  3683.400      0.036      0.000      0.000    631.450      0.189      1.000      0.190      0.079
  3683.500      0.038      0.000      0.000    606.756      0.191      1.000      0.200      0.082
  3683.600      0.041      0.000      0.000    530.827      0.192      1.000      0.213      0.090
  3683.700      0.042      0.000      0.000    443.758      0.193      1.000      0.217      0.100
  3683.800      0.044      0.000      0.000    276.012      0.196      1.000      0.225      0.125
  3683.900      0.048      0.000      0.000    185.286      0.196      1.000      0.245      0.145
  3684.000      0.053      0.000      0.000    116.431      0.197      1.000      0.271      0.168
  3684.100      0.058      0.000      0.000     80.940      0.195      1.000      0.296      0.183
  3684.200      0.062      0.000      0.000     45.313      0.191      1.000      0.326      0.208
  3684.300      0.068      0.000      0.000     30.417      0.188      1.000      0.360      0.225
  3684.400      0.071      0.000      0.000     30.969      0.189      1.000      0.374      0.225
  3684.500      0.072      0.000      0.000     40.928      0.198      1.000      0.366      0.219
  3684.600      0.073      0.000      0.000     81.998      0.211      1.000      0.348      0.197
  3684.700      0.074      0.000      0.000    133.575      0.225      1.000      0.329      0.186
  3684.800      0.075      0.000      0.000    155.155      0.237      1.000      0.315      0.189
  3684.900      0.075      0.000      0.000    168.491      0.244      1.000      0.307      0.192
  3685.000      0.075      0.000      0.000    177.307      0.248      1.000      0.302      0.193
  3685.100      0.075      0.000      0.000    171.910      0.251      1.000      0.300      0.197
  3685.200      0.076      0.000      0.000    175.081      0.252      1.000      0.302      0.197
  3685.300      0.077      0.000      0.000    178.070      0.253      1.000      0.303      0.197
  3685.400      0.077      0.000      0.000    185.507      0.252      1.000      0.306      0.194
  3685.500      0.077      0.000      0.000    226.997      0.250      1.000      0.308      0.183
  3685.600      0.077      0.000      0.000    202.193      0.248      1.000      0.310      0.186
  3685.700      0.077      0.000      0.000    172.573      0.245      1.000      0.313      0.191
  3685.800      0.076      0.000      0.000    150.516      0.242      1.000      0.317      0.195
  3685.900      0.076      0.000      0.000     99.585      0.237      1.000      0.322      0.211
  3686.000      0.076      0.000      0.000     89.307      0.232      1.000      0.329      0.212
  3686.100      0.076      0.000      0.000     82.981      0.226      1.000      0.338      0.210
  3686.200      0.077      0.000      0.000     82.368      0.221      1.000      0.347      0.206
  3686.300      0.076      0.000      0.000     83.332      0.218      1.000      0.350      0.202
  3686.400      0.075      0.000      0.000     84.509      0.216      1.000      0.346      0.200
  3686.500      0.074      0.000      0.000     72.865      0.217      1.000      0.342      0.208
  3686.600      0.074      0.000      0.000     74.695      0.218      1.000      0.340      0.207
  3686.700      0.074      0.000      0.000     81.655      0.219      1.000      0.337      0.204
  3686.800      0.073      0.000      0.000    107.636      0.221      1.000      0.332      0.193
  3686.900      0.073      0.000      0.000    104.749      0.224      1.000      0.327      0.197
  3687.000      0.073      0.000      0.000    111.498      0.227      1.000      0.322      0.197
  3687.100      0.073      0.000      0.000    138.694      0.230      1.000      0.318      0.189
  3687.200      0.073      0.000      0.000    172.100      0.232      1.000      0.314      0.180
  3687.300      0.073      0.000      0.000    156.669      0.234      1.000      0.312      0.186
  3687.400      0.072      0.000      0.000    136.756      0.234      1.000      0.310      0.193
  3687.500      0.072      0.000      0.000    157.152      0.234      1.000      0.309      0.186
  3687.600      0.072      0.000      0.000    182.826      0.235      1.000      0.307      0.179
  3687.700      0.072      0.000      0.000    176.602      0.237      1.000      0.305      0.183
  3687.800      0.072      0.000      0.000    193.583      0.239      1.000      0.303      0.181
  3687.900      0.072      0.000      0.000    206.780      0.241      1.000      0.301      0.179
  3688.000      0.073      0.000      0.000    193.372      0.242      1.000      0.301      0.183
  3688.100      0.073      0.000      0.000    176.356      0.242      1.000      0.301      0.187
  3688.200      0.073      0.000      0.000    168.923      0.241      1.000      0.303      0.189
  3688.300      0.074      0.000      0.000    160.512      0.240      1.000      0.307      0.191
