~Version Information
VERS.                     2.0: CWLS log ASCII Standard Version 2.00
WRAP.                      NO: One line per depth step

~Well Information Block
#MNEM.UNIT                 Value                       Information
#------------              -----                       -----------
STRT.M                   3358.0000                    :START
STOP.M                   3681.9000                    :STOP
STEP.M                      0.1000                    :STEP
NULL.                     -999.25                     :NULL VALUE
COMP.         Statoil Petroleum AS                    :Company
WELL.         15/9-F-1 A                              :Well
FLD .         VOLVE                                   :Field
LOC .         Maersk Inspirer                         :Location
PROV.                                                 :Province
CNTY.         Unused                                  :County
STATE.                                                 :State
CTRY.                                                 :Country
DATE.                                                 :Log Date
SRVC.                                                 :Service Company
UWI .                                                 :Unique Well Identifier
API .                                                 :API Number
LATI.         058 26' 29.907" N    DMS                :Latitude
LONG.         001 53' 14.708" E    DMS                :Longtitude
PD  .         MSL                                     :Permanent Datum
ELZ .M                 0.0000                         :Elev. Log Zero

~Curve Information
#MNEM   .UNIT             API CODE Curve Description
#------------             -------- -----------------
DEPTH   .M            00 001 00 00:   0  Depth
BVW     .V/V          00 000 00 00:   1  Bound Volume Water
COAL_FLAG.unitless    00 000 00 00:   2  Coal Flag
KLOGH   .mD           00 000 00 00:   3  Calculated Horizontal PERMEABILITY from logs
PHIF    .V/V          00 000 00 00:   4  Final porosity
SAND_FLAG.unitless    00 000 00 00:   5  Sand Flag
SW      .V/V          00 000 00 00:   6  Water Saturation (Archie)
VCARB   .V/V          00 000 00 00:   7  IFC(CARB_FLAG>0.5,1-VSH, VCARB)
VSH     .V/V          00 000 00 00:   8  Volume of Shale

~Parameter Information
#MNEM.UNIT       Value           Description
#------------    -----           -----------
HLD .         Terms and Conditions.:Header Legal Disclaimer
RUN .         1                 :Run number

~Other Information
PETROPHYSICAL INTERPRETATION: OUTPUT

# --- LOG MNEMONICS AND UNITS ---
#Depth          BVW             COAL_FLAG       KLOGH           PHIF            SAND_FLAG       SW              VCARB           VSH            
#M              V/V             unitless        mD              V/V             unitless        V/V             V/V             V/V            

~A
# ...
      3638.0000          0.0670          0.0000          0.0102          0.0670          0.0000          1.0000          0.0050          0.4365
      3638.1000          0.0505          0.0000          0.0061          0.0505          0.0000          1.0000          0.0662          0.4156
      3638.2000          0.0367          0.0000          0.0037          0.0367          0.0000          1.0000          0.1158          0.4059
      3638.3000          0.0269          0.0000          0.0030          0.0269          0.0000          1.0000          0.1761          0.3794
      3638.4000          0.0215          0.0000          0.0030          0.0215          0.0000          1.0000          0.2333          0.3482
      3638.5000          0.0213          0.0000          0.0037          0.0213          0.0000          1.0000          0.2779          0.3160
      3638.6000          0.0270          0.0000          0.0061          0.0270          0.0000          1.0000          0.3098          0.2791
      3638.7000          0.0375          0.0000          0.0112          0.0375          0.0000          1.0000          0.3090          0.2517
      3638.8000          0.0498          0.0000          0.0184          0.0498          0.0000          1.0000          0.2621          0.2508
      3638.9000          0.0603          0.0000          0.0284          0.0603          0.0000          1.0000          0.2244          0.2490
      3639.0000          0.0672          0.0000          0.0353          0.0672          0.0000          1.0000          0.1882          0.2570
      3639.1000          0.0703          0.0000          0.0343          0.0703          0.0000          1.0000          0.1490          0.2794
      3639.2000          0.0709          0.0000          0.0265          0.0709          0.0000          1.0000          0.1013          0.3197
      3639.3000          0.0702          0.0000          0.0196          0.0702          0.0000          1.0000          0.0620          0.3601
      3639.4000          0.0695          0.0000          0.0134          0.0695          0.0000          1.0000          0.0187          0.4108
      3639.5000          0.0687          0.0000          0.0097          0.0687          0.0000          1.0000          0.0000          0.4535
      3639.6000          0.0665          0.0000          0.0069          0.0665          0.0000          1.0000          0.0000          0.4886
      3639.7000          0.0616          0.0000          0.0048          0.0616          0.0000          1.0000          0.0000          0.5130
      3639.8000          0.0544          0.0000          0.0031          0.0544          0.0000          1.0000          0.0000          0.5339
      3639.9000          0.0472          0.0000          0.0021          0.0472          0.0000          1.0000          0.0000          0.5512
      3640.0000          0.0423          0.0000          0.0013          0.0423          0.0000          1.0000          0.0000          0.5907
      3640.1000          0.0401          0.0000          0.0010          0.0401          0.0000          1.0000          0.0000          0.6454
      3640.2000          0.0388          0.0000          0.0010          0.0388          0.0000          1.0000          0.0000          0.6867
      3640.3000          0.0368          0.0000          0.0010          0.0368          0.0000          1.0000          0.0000          0.7394
      3640.4000          0.0337          0.0000          0.0010          0.0337          0.0000          1.0000          0.0000          0.8011
      3640.5000          0.0301          0.0000          0.0010          0.0301          0.0000          1.0000          0.0000          0.8628
      3640.6000          0.0267          0.0000          0.0010          0.0267          0.0000          1.0000          0.0000          0.9100
      3640.7000          0.0238          0.0000          0.0010          0.0238          0.0000          1.0000          0.0000          0.9276
      3640.8000          0.0218          0.0000          0.0010          0.0218          0.0000          1.0000          0.0000          0.9339
      3640.9000          0.0205          0.0000          0.0010          0.0205          0.0000          1.0000          0.0000          0.9370
      3641.0000          0.0200          0.0000          0.0010          0.0200          0.0000          1.0000          0.0000          0.9176
      3641.1000          0.0200          0.0000          0.0010          0.0200          0.0000          1.0000          0.0000          0.8989
      3641.2000          0.0200          0.0000          0.0010          0.0200          0.0000          1.0000          0.0000          0.8806
      3641.3000          0.0200          0.0000          0.0010          0.0200          0.0000          1.0000          0.0000          0.8756
      3641.4000          0.0200          0.0000          0.0010          0.0200          0.0000          1.0000          0.0000          0.8823
      3641.5000          0.0200          0.0000          0.0010          0.0200          0.0000          1.0000          0.0000          0.8897
      3641.6000          0.0200          0.0000          0.0010          0.0200          0.0000          1.0000          0.0000          0.8856
      3641.7000          0.0200          0.0000          0.0010          0.0200          0.0000          1.0000          0.0000          0.8848
      3641.8000          0.0200          0.0000          0.0010          0.0200          0.0000          1.0000          0.0000          0.8832
      3641.9000          0.0200          0.0000          0.0010          0.0200          0.0000          1.0000          0.0000          0.8805
      3642.0000          0.0200          0.0000          0.0010          0.0200          0.0000          1.0000          0.0000          0.9010
      3642.1000          0.0200          0.0000          0.0010          0.0200          0.0000          1.0000          0.0000          0.8973
      3642.2000          0.0200          0.0000          0.0010          0.0200          0.0000          1.0000          0.0000          0.8861
      3642.3000          0.0200          0.0000          0.0010          0.0200          0.0000          1.0000          0.0000          0.8851
      3642.4000          0.0200          0.0000          0.0010          0.0200          0.0000          1.0000          0.0000          0.8703
      3642.5000          0.0200          0.0000          0.0010          0.0200          0.0000          1.0000          0.0000          0.8604
      3642.6000          0.0200          0.0000          0.0010          0.0200          0.0000          1.0000          0.0000          0.8410
      3642.7000          0.0200          0.0000          0.0010          0.0200          0.0000          1.0000          0.0000          0.8156
      3642.8000          0.0200          0.0000          0.0010          0.0200          0.0000          1.0000          0.0000          0.7949
      3642.9000          0.0200          0.0000          0.0010          0.0200          0.0000          1.0000          0.0000          0.7848
      3643.0000          0.0200          0.0000          0.0010          0.0200          0.0000          1.0000          0.0000          0.7862
      3643.1000          0.0200          0.0000          0.0010          0.0200          0.0000          1.0000          0.0000          0.7881
      3643.2000          0.0200          0.0000          0.0010          0.0200          0.0000          1.0000          0.0000          0.7781
      3643.3000          0.0200          0.0000          0.0010          0.0200          0.0000          1.0000          0.0000          0.7592
      3643.4000          0.0200          0.0000          0.0010          0.0200          0.0000          1.0000          0.0000          0.7460
      3643.5000          0.0200          0.0000          0.0010          0.0200          0.0000          1.0000          0.0000          0.7499
