~Version Information
VERS.                     2.0: CWLS log ASCII Standard Version 2.00
WRAP.                      NO: One line per depth step

~Well Information Block
#MNEM.UNIT                 Value                       Information
#------------              -----                       -----------
STRT.M                   3358.0000                    :START
STOP.M                   3681.9000                    :STOP
STEP.M                      0.1000                    :STEP
NULL.                     -999.25                     :NULL VALUE
COMP.         Statoil Petroleum AS                    :Company
WELL.         15/9-F-1 A                              :Well
FLD .         VOLVE                                   :Field
LOC .         Maersk Inspirer                         :Location
PROV.                                                 :Province
CNTY.         Unused                                  :County
STATE.                                                 :State
CTRY.                                                 :Country
DATE.                                                 :Log Date
SRVC.                                                 :Service Company
UWI .                                                 :Unique Well Identifier
API .                                                 :API Number
LATI.         058 26' 29.907" N    DMS                :Latitude
LONG.         001 53' 14.708" E    DMS                :Longtitude
PD  .         MSL                                     :Permanent Datum
ELZ .M                 0.0000                         :Elev. Log Zero

~Curve Information
#MNEM   .UNIT             API CODE Curve Description
#------------             -------- -----------------
DEPTH   .M            00 001 00 00:   0  Depth
BVW     .V/V          00 000 00 00:   1  Bound Volume Water
COAL_FLAG.unitless    00 000 00 00:   2  Coal Flag
KLOGH   .mD           00 000 00 00:   3  Calculated Horizontal PERMEABILITY from logs
PHIF    .V/V          00 000 00 00:   4  Final porosity
SAND_FLAG.unitless    00 000 00 00:   5  Sand Flag
SW      .V/V          00 000 00 00:   6  Water Saturation (Archie)
VCARB   .V/V          00 000 00 00:   7  IFC(CARB_FLAG>0.5,1-VSH, VCARB)
VSH     .V/V          00 000 00 00:   8  Volume of Shale

~Parameter Information
#MNEM.UNIT       Value           Description
#------------    -----           -----------
HLD .         Terms and Conditions.:Header Legal Disclaimer
RUN .         1                 :Run number

~Other Information
PETROPHYSICAL INTERPRETATION: OUTPUT

# --- LOG MNEMONICS AND UNITS ---
#Depth          BVW             COAL_FLAG       KLOGH           PHIF            SAND_FLAG       SW              VCARB           VSH            
#M              V/V             unitless        mD              V/V             unitless        V/V             V/V             V/V            

~A
# ...
      3514.8000          0.0231          0.0000          0.0015          0.0231          0.0000          1.0000          0.3281          0.2771
      3514.9000          0.0246          0.0000          0.0018          0.0246          0.0000          1.0000          0.3433          0.2633
      3515.0000          0.0247          0.0000          0.0019          0.0247          0.0000          1.0000          0.3497          0.2588
      3515.1000          0.0273          0.0000          0.0022          0.0273          0.0000          1.0000          0.3327          0.2631
      3515.2000          0.0377          0.0000          0.0047          0.0377          0.0000          1.0000          0.2841          0.2681
      3515.3000          0.0563          0.0000          0.0197          0.0563          0.0000          1.0000          0.2322          0.2543
      3515.4000          0.0672          0.0000          0.0825          0.0748          0.0000          0.8980          0.1841          0.2386
      3515.5000          0.0710          0.0000          0.1383          0.0814          0.0000          0.8724          0.1689          0.2315
      3515.6000          0.0721          0.0000          0.0830          0.0734          0.0000          0.9820          0.2203          0.2154
      3515.7000          0.0598          0.0000          0.0313          0.0598          0.0000          1.0000          0.2828          0.2093
      3515.8000          0.0519          0.0000          0.0174          0.0519          0.0000          1.0000          0.3118          0.2114
      3515.9000          0.0561          0.0000          0.0218          0.0561          0.0000          1.0000          0.2700          0.2282
      3516.0000          0.0704          0.0000          0.0574          0.0704          0.0000          1.0000          0.1896          0.2469
      3516.1000          0.0788          0.0000          0.1925          0.0886          0.0000          0.8893          0.0910          0.2758
      3516.2000          0.0786          0.0000          0.5215          0.1049          1.0000          0.7492          0.0000          0.3200
      3516.3000          0.0805          0.0000          0.9599          0.1157          1.0000          0.6960          0.0000          0.3603
      3516.4000          0.0846          0.0000          1.1460          0.1201          1.0000          0.7046          0.0000          0.3922
      3516.5000          0.0910          0.0000          0.9942          0.1192          1.0000          0.7637          0.0000          0.4085
      3516.6000          0.0901          0.0000          0.7032          0.1142          1.0000          0.7885          0.0000          0.4041
      3516.7000          0.0828          0.0000          0.3590          0.1074          1.0000          0.7715          0.0000          0.4404
      3516.8000          0.0801          0.0000          0.1973          0.1007          1.0000          0.7955          0.0000          0.4643
      3516.9000          0.0793          0.0000          0.1341          0.0957          0.0000          0.8283          0.0000          0.4676
      3517.0000          0.0773          0.0000          0.1048          0.0926          0.0000          0.8342          0.0000          0.4719
      3517.1000          0.0752          0.0000          0.0773          0.0910          0.0000          0.8270          0.0000          0.5113
      3517.2000          0.0790          0.0000          0.0626          0.0905          0.0000          0.8732          0.0000          0.5501
      3517.3000          0.0865          0.0000          0.0703          0.0910          0.0000          0.9498          0.0000          0.5330
      3517.4000          0.0902          0.0000          0.1033          0.0926          0.0000          0.9738          0.0000          0.4749
      3517.5000          0.0822          0.0000          0.1514          0.0945          0.0000          0.8705          0.0000          0.4212
      3517.6000          0.0741          0.0000          0.1882          0.0954          0.0000          0.7767          0.0000          0.3896
      3517.7000          0.0673          0.0000          0.1822          0.0944          0.0000          0.7130          0.0000          0.3801
      3517.8000          0.0687          0.0000          0.1501          0.0901          0.0000          0.7626          0.0115          0.3527
      3517.9000          0.0703          0.0000          0.1026          0.0826          0.0000          0.8517          0.0685          0.3156
      3518.0000          0.0712          0.0000          0.0596          0.0742          0.0000          0.9595          0.1133          0.2990
      3518.1000          0.0675          0.0000          0.0396          0.0675          0.0000          1.0000          0.1557          0.2819
      3518.2000          0.0646          0.0000          0.0330          0.0646          0.0000          1.0000          0.1763          0.2738
      3518.3000          0.0630          0.0000          0.0287          0.0630          0.0000          1.0000          0.1758          0.2787
      3518.4000          0.0606          0.0000          0.0223          0.0606          0.0000          1.0000          0.1636          0.2954
      3518.5000          0.0573          0.0000          0.0153          0.0573          0.0000          1.0000          0.1414          0.3236
      3518.6000          0.0555          0.0000          0.0122          0.0555          0.0000          1.0000          0.1226          0.3452
      3518.7000          0.0576          0.0000          0.0130          0.0576          0.0000          1.0000          0.0950          0.3650
      3518.8000          0.0627          0.0000          0.0177          0.0627          0.0000          1.0000          0.0663          0.3786
      3518.9000          0.0677          0.0000          0.0252          0.0677          0.0000          1.0000          0.0483          0.3824
      3519.0000          0.0702          0.0000          0.0303          0.0702          0.0000          1.0000          0.0410          0.3826
      3519.1000          0.0691          0.0000          0.0275          0.0691          0.0000          1.0000          0.0417          0.3855
      3519.2000          0.0657          0.0000          0.0204          0.0657          0.0000          1.0000          0.0423          0.3954
      3519.3000          0.0621          0.0000          0.0143          0.0621          0.0000          1.0000          0.0344          0.4157
      3519.4000          0.0584          0.0000          0.0104          0.0584          0.0000          1.0000          0.0361          0.4254
      3519.5000          0.0540          0.0000          0.0068          0.0540          0.0000          1.0000          0.0288          0.4482
      3519.6000          0.0498          0.0000          0.0048          0.0498          0.0000          1.0000          0.0343          0.4546
      3519.7000          0.0481          0.0000          0.0044          0.0481          0.0000          1.0000          0.0454          0.4466
      3519.8000          0.0503          0.0000          0.0053          0.0503          0.0000          1.0000          0.0425          0.4431
      3519.9000          0.0563          0.0000          0.0078          0.0563          0.0000          1.0000          0.0173          0.4552
      3520.0000          0.0653          0.0000          0.0142          0.0653          0.0000          1.0000          0.0000          0.4683
      3520.1000          0.0746          0.0000          0.0270          0.0746          0.0000          1.0000          0.0000          0.4787
      3520.2000          0.0755          0.0000          0.0477          0.0815          0.0000          0.9266          0.0000          0.4646
      3520.3000          0.0760          0.0000          0.0596          0.0839          0.0000          0.9060          0.0000          0.4545
