~Version Information
VERS.                     2.0: CWLS log ASCII Standard Version 2.00
WRAP.                      NO: One line per depth step

~Well Information Block
#MNEM.UNIT                 Value                       Information
#------------              -----                       -----------
STRT.M                    3351.600                    :START
STOP.M                    4759.200                    :STOP
STEP.M                       0.100                    :STEP
NULL.                     -999.25                     :NULL VALUE
COMP.         Statoil Petroleum AS                    :Company
WELL.         15/9-F-11 B                             :Well
FLD .         VOLVE                                   :Field
LOC .         Maersk Inspirer                         :Location
PROV.                                                 :Province
CNTY.                                                 :County
STATE.                                                 :State
CTRY.                                                 :Country
DATE.                                                 :Log Date
SRVC.                                                 :Service Company
UWI .                                                 :Unique Well Identifier
API .                                                 :API Number
LATI.         058 26' 29.960" N    DMS                :Latitude
LONG.         001 53' 14.870" E    DMS                :Longtitude
PD  .         MSL                                     :Permanent Datum
EDF .M            54.900                              :Elevations D.F.
EGL .M           -91.000                              :Elevations G.L.
ELZ .M            54.900                              :Elev. Log Zero
LMF .         DF                                      :Log Measured From

~Curve Information
#MNEM   .UNIT             API CODE Curve Description
#------------             -------- -----------------
DEPTH   .M            00 001 00 00:   0  Depth
BVW     .v/v          00 000 00 00:   1  BVW:CPI:rC:NONE:v1
CARB_FLAG.unitless    00 000 00 00:   2  CARB_FLAG:CPI:rC:NONE:v1
COAL_FLAG.unitless    00 000 00 00:   3  COAL_FLAG:CPI:rC:NONE:v1
KLOGH   .mD           00 000 00 00:   4  KLOGH:CPI:rC:NONE:v1
PHIF    .v/v          00 000 00 00:   5  PHIF:CPI:rC:NONE:v1
SAND_FLAG.UNKNOWN     00 000 00 00:   6  SAND_FLAG:CPI:rC:NONE:v1
SW      .v/v          00 000 00 00:   7  SW:CPI:rC:NONE:v1
VSH     .v/v          00 000 00 00:   8  VSH:CPI:rC:NONE:v1

~Parameter Information
#MNEM.UNIT       Value           Description
#------------    -----           -----------
RUN .         1                 :Run number

~Other Information
PETROPHYSICAL_INTERPRETATION: OUTPUT

# --- LOG MNEMONICS AND UNITS ---
#Depth     BVW        CARB_FLAG  COAL_FLAG  KLOGH      PHIF       SAND_FLAG  SW         VSH       
#M         v/v        unitless   unitless   mD         v/v        UNKNOWN    v/v        v/v       

~A
# ...
  4185.900      0.068      0.000      0.000    488.103      0.206      1.000      0.330      0.106
  4186.000      0.067      0.000      0.000    426.113      0.203      1.000      0.330      0.111
  4186.100      0.066      0.000      0.000    464.148      0.202      1.000      0.328      0.106
  4186.200      0.066      0.000      0.000    510.149      0.203      1.000      0.324      0.102
  4186.300      0.065      0.000      0.000    523.911      0.205      1.000      0.319      0.102
  4186.400      0.065      0.000      0.000    531.043      0.207      1.000      0.314      0.103
  4186.500      0.065      0.000      0.000    504.466      0.206      1.000      0.315      0.105
  4186.600      0.064      0.000      0.000    524.870      0.204      1.000      0.312      0.101
  4186.700      0.062      0.000      0.000    405.503      0.201      1.000      0.308      0.111
  4186.800      0.060      0.000      0.000    278.914      0.197      1.000      0.306      0.126
  4186.900      0.058      0.000      0.000    201.189      0.194      1.000      0.300      0.139
  4187.000      0.057      0.000      0.000    111.001      0.191      1.000      0.301      0.164
  4187.100      0.059      0.000      0.000     92.192      0.191      1.000      0.306      0.174
  4187.200      0.060      0.000      0.000     66.189      0.192      1.000      0.313      0.191
  4187.300      0.056      0.000      0.000     68.669      0.200      1.000      0.281      0.196
  4187.400      0.052      0.000      0.000     88.220      0.211      1.000      0.248      0.194
  4187.500      0.052      0.000      0.000    126.665      0.224      1.000      0.233      0.188
  4187.600      0.051      0.000      0.000    155.246      0.235      1.000      0.219      0.187
  4187.700      0.049      0.000      0.000    158.334      0.241      1.000      0.203      0.192
  4187.800      0.046      0.000      0.000    322.564      0.245      1.000      0.189      0.162
  4187.900      0.046      0.000      0.000    307.498      0.246      1.000      0.185      0.165
  4188.000      0.045      0.000      0.000    288.300      0.246      1.000      0.182      0.168
  4188.100      0.043      0.000      0.000    327.272      0.247      1.000      0.175      0.162
  4188.200      0.040      0.000      0.000    330.181      0.249      1.000      0.162      0.163
  4188.300      0.039      0.000      0.000    338.628      0.251      1.000      0.157      0.165
  4188.400      0.039      0.000      0.000    341.156      0.257      1.000      0.152      0.169
  4188.500      0.038      0.000      0.000    308.810      0.260      1.000      0.148      0.177
  4188.600      0.038      0.000      0.000    358.638      0.263      1.000      0.144      0.172
  4188.700      0.038      0.000      0.000    401.991      0.265      1.000      0.142      0.169
  4188.800      0.038      0.000      0.000    334.740      0.265      1.000      0.142      0.177
  4188.900      0.037      0.000      0.000    375.688      0.266      1.000      0.140      0.172
  4189.000      0.037      0.000      0.000    371.499      0.266      1.000      0.138      0.173
  4189.100      0.036      0.000      0.000    343.042      0.267      1.000      0.136      0.177
  4189.200      0.036      0.000      0.000    348.330      0.267      1.000      0.134      0.177
  4189.300      0.035      0.000      0.000    334.754      0.265      1.000      0.133      0.177
  4189.400      0.035      0.000      0.000    391.925      0.264      1.000      0.132      0.169
  4189.500      0.035      0.000      0.000    454.474      0.262      1.000      0.132      0.160
  4189.600      0.034      0.000      0.000    398.088      0.260      1.000      0.131      0.165
  4189.700      0.034      0.000      0.000    322.407      0.257      1.000      0.132      0.172
  4189.800      0.033      0.000      0.000    340.635      0.256      1.000      0.131      0.168
  4189.900      0.033      0.000      0.000    454.215      0.256      1.000      0.131      0.154
  4190.000      0.033      0.000      0.000    520.964      0.257      1.000      0.129      0.149
  4190.100      0.033      0.000      0.000    541.542      0.258      1.000      0.128      0.148
  4190.200      0.033      0.000      0.000    469.293      0.259      1.000      0.127      0.156
  4190.300      0.033      0.000      0.000    323.665      0.260      1.000      0.127      0.174
  4190.400      0.033      0.000      0.000    327.526      0.260      1.000      0.127      0.174
  4190.500      0.033      0.000      0.000    441.022      0.260      1.000      0.126      0.160
  4190.600      0.033      0.000      0.000    484.239      0.261      1.000      0.125      0.156
  4190.700      0.033      0.000      0.000    423.206      0.261      1.000      0.125      0.162
  4190.800      0.033      0.000      0.000    378.615      0.261      1.000      0.125      0.168
  4190.900      0.033      0.000      0.000    359.630      0.260      1.000      0.126      0.169
  4191.000      0.033      0.000      0.000    463.622      0.260      1.000      0.125      0.157
  4191.100      0.032      0.000      0.000    556.398      0.261      1.000      0.124      0.149
  4191.200      0.032      0.000      0.000    541.632      0.262      1.000      0.123      0.151
  4191.300      0.032      0.000      0.000    452.221      0.262      1.000      0.123      0.160
  4191.400      0.032      0.000      0.000    531.891      0.262      1.000      0.123      0.152
  4191.500      0.032      0.000      0.000    563.125      0.263      1.000      0.122      0.150
  4191.600      0.032      0.000      0.000    612.520      0.262      1.000      0.122      0.146
  4191.700      0.032      0.000      0.000    662.857      0.261      1.000      0.123      0.140
  4191.800      0.032      0.000      0.000    603.271      0.261      1.000      0.123      0.145
  4191.900      0.032      0.000      0.000    469.966      0.261      1.000      0.123      0.157
  4192.000      0.032      0.000      0.000    466.398      0.261      1.000      0.123      0.157
  4192.100      0.032      0.000      0.000    525.204      0.261      1.000      0.123      0.152
  4192.200      0.032      0.000      0.000    424.626      0.260      1.000      0.123      0.162
  4192.300      0.032      0.000      0.000    466.600      0.261      1.000      0.122      0.158
  4192.400      0.032      0.000      0.000    487.430      0.262      1.000      0.122      0.157
  4192.500      0.032      0.000      0.000    474.221      0.263      1.000      0.121      0.159
  4192.600      0.032      0.000      0.000    504.375      0.263      1.000      0.120      0.156
  4192.700      0.032      0.000      0.000    541.705      0.263      1.000      0.120      0.152
  4192.800      0.031      0.000      0.000    486.863      0.263      1.000      0.120      0.157
  4192.900      0.031      0.000      0.000    477.034      0.263      1.000      0.119      0.158
  4193.000      0.031      0.000      0.000    433.449      0.263      1.000      0.119      0.163
  4193.100      0.031      0.000      0.000    442.651      0.262      1.000      0.119      0.162
  4193.200      0.031      0.000      0.000    497.356      0.262      1.000      0.119      0.155
  4193.300      0.031      0.000      0.000    535.477      0.261      1.000      0.119      0.151
  4193.400      0.031      0.000      0.000    507.878      0.263      1.000      0.118      0.155
  4193.500      0.031      0.000      0.000    463.591      0.263      1.000      0.118      0.160
  4193.600      0.031      0.000      0.000    436.460      0.265      1.000      0.117      0.164
  4193.700      0.031      0.000      0.000    376.821      0.265      1.000      0.117      0.172
  4193.800      0.031      0.000      0.000    522.018      0.265      1.000      0.116      0.156
  4193.900      0.031      0.000      0.000    528.711      0.265      1.000      0.116      0.155
