~Version Information
VERS.                     2.0: CWLS log ASCII Standard Version 2.00
WRAP.                      NO: One line per depth step

~Well Information Block
#MNEM.UNIT                 Value                       Information
#------------              -----                       -----------
STRT.M                    4334.700                    :START
STOP.M                    4561.700                    :STOP
STEP.M                       0.100                    :STEP
NULL.                     -999.25                     :NULL VALUE
COMP.         Statoil Petroleum AS                    :Company
WELL.         15/9-F-11 T2                            :Well
FLD .         VOLVE                                   :Field
LOC .                                                 :Location
PROV.                                                 :Province
CNTY.                                                 :County
STATE.                                                 :State
CTRY.         Norway                                  :Country
DATE.                                                 :Log Date
SRVC.                                                 :Service Company
UWI .                                                 :Unique Well Identifier
API .                                                 :API Number
PD  .         MSL                                     :Permanent Datum
EDF .M            54.900                              :Elevations D.F.
EGL .M           -91.000                              :Elevations G.L.
ELZ .M            54.900                              :Elev. Log Zero
LMF .         DF                                      :Log Measured From

~Curve Information
#MNEM   .UNIT             API CODE Curve Description
#------------             -------- -----------------
DEPTH   .M            00 001 00 00:   0  Depth
BVW     .v/v          00 000 00 00:   1  BVW:CPI:rC:NONE:v1
CARB_FLAG.unitless    00 000 00 00:   2  CARB_FLAG:CPI:rC:NONE:v1
COAL_FLAG.unitless    00 000 00 00:   3  COAL_FLAG:CPI:rC:NONE:v1
KLOGH   .mD           00 000 00 00:   4  KLOGH:CPI:rC:NONE:v1
PHIF    .v/v          00 000 00 00:   5  PHIF:CPI:rC:NONE:v1
SAND_FLAG.unitless    00 000 00 00:   6  SAND_FLAG:CPI:rC:NONE:v1
SW      .v/v          00 000 00 00:   7  SW:CPI:rC:NONE:v1
VSH     .v/v          00 000 00 00:   8  VSH:CPI:rC:NONE:v1

~Parameter Information
#MNEM.UNIT       Value           Description
#------------    -----           -----------
RUN .         1                 :Run number

~Other Information
PETROPHYSICAL INTERPRETATION: OUTPUT

# --- LOG MNEMONICS AND UNITS ---
#Depth     BVW        CARB_FLAG  COAL_FLAG  KLOGH      PHIF       SAND_FLAG  SW         VSH       
#M         v/v        unitless   unitless   mD         v/v        unitless   v/v        v/v       

~A
# ...
  4415.700      0.047      1.000      0.000    278.301      0.087      0.000      0.540      0.028
  4415.800      0.051      0.000      0.000    497.463      0.111      1.000      0.456      0.021
  4415.900      0.052      0.000      0.000    620.554      0.127      1.000      0.410      0.025
  4416.000      0.052      0.000      0.000    666.224      0.134      1.000      0.389      0.028
  4416.100      0.053      0.000      0.000    743.605      0.136      1.000      0.391      0.024
  4416.200      0.055      0.000      0.000    727.915      0.135      1.000      0.405      0.024
  4416.300      0.055      0.000      0.000    621.614      0.133      1.000      0.414      0.030
  4416.400      0.057      0.000      0.000    610.311      0.133      1.000      0.424      0.031
  4416.500      0.060      0.000      0.000    616.791      0.134      1.000      0.444      0.032
  4416.600      0.062      0.000      0.000    625.032      0.134      1.000      0.462      0.031
  4416.700      0.062      0.000      0.000    622.268      0.133      1.000      0.469      0.030
  4416.800      0.063      0.000      0.000    649.349      0.131      1.000      0.477      0.026
  4416.900      0.063      0.000      0.000    611.771      0.129      1.000      0.488      0.027
  4417.000      0.063      0.000      0.000    585.182      0.127      1.000      0.493      0.028
  4417.100      0.061      0.000      0.000    615.259      0.127      1.000      0.476      0.025
  4417.200      0.058      0.000      0.000    615.390      0.128      1.000      0.454      0.026
  4417.300      0.059      0.000      0.000    630.638      0.132      1.000      0.448      0.028
  4417.400      0.061      0.000      0.000    651.922      0.136      1.000      0.448      0.030
  4417.500      0.061      0.000      0.000    608.309      0.139      1.000      0.441      0.037
  4417.600      0.064      0.000      0.000    505.056      0.141      1.000      0.457      0.047
  4417.700      0.071      0.000      0.000    406.173      0.139      1.000      0.513      0.056
  4417.800      0.071      0.000      0.000    319.087      0.136      1.000      0.523      0.065
  4417.900      0.069      0.000      0.000    358.478      0.134      1.000      0.513      0.057
  4418.000      0.070      0.000      0.000    510.314      0.133      1.000      0.528      0.040
  4418.100      0.071      0.000      0.000    620.777      0.134      1.000      0.525      0.031
  4418.200      0.070      0.000      0.000    606.045      0.137      1.000      0.509      0.035
  4418.300      0.071      0.000      0.000    614.795      0.141      1.000      0.501      0.038
  4418.400      0.071      0.000      0.000    705.465      0.145      1.000      0.492      0.034
  4418.500      0.071      0.000      0.000    823.580      0.147      1.000      0.486      0.029
  4418.600      0.072      0.000      0.000    900.254      0.148      1.000      0.488      0.025
  4418.700      0.073      0.000      0.000    862.464      0.146      1.000      0.502      0.026
  4418.800      0.075      0.000      0.000    778.637      0.142      1.000      0.526      0.027
  4418.900      0.074      0.000      0.000    719.791      0.134      1.000      0.549      0.024
  4419.000      0.073      0.000      0.000    620.657      0.123      1.000      0.594      0.021
  4419.100      0.076      0.000      0.000    456.974      0.112      1.000      0.674      0.026
  4419.200      0.078      0.000      0.000    375.573      0.108      1.000      0.729      0.032
  4419.300      0.084      0.000      0.000    399.558      0.114      1.000      0.743      0.034
  4419.400      0.089      0.000      0.000    475.343      0.126      1.000      0.704      0.037
  4419.500      0.090      0.000      0.000    545.597      0.135      1.000      0.669      0.038
  4419.600      0.091      0.000      0.000    589.194      0.133      1.000      0.681      0.033
  4419.700      0.087      0.000      0.000    437.693      0.117      1.000      0.740      0.033
  4419.800      0.086      0.000      0.000    276.178      0.092      0.000      0.934      0.033
  4419.900      0.071      0.000      0.000    173.072      0.071      0.000      1.000      0.037
  4420.000      0.068      0.000      0.000    157.140      0.068      0.000      1.000      0.039
  4420.100      0.085      0.000      0.000    188.276      0.085      0.000      1.000      0.045
  4420.200      0.111      0.000      0.000    276.514      0.111      1.000      1.000      0.050
  4420.300      0.133      0.000      0.000    365.550      0.133      1.000      1.000      0.056
  4420.400      0.145      0.000      0.000    388.051      0.145      1.000      1.000      0.063
  4420.500      0.152      0.000      0.000    331.566      0.152      1.000      1.000      0.077
  4420.600      0.159      0.000      0.000    279.895      0.159      1.000      1.000      0.092
  4420.700      0.168      0.000      0.000    307.045      0.168      1.000      1.000      0.095
  4420.800      0.177      0.000      0.000    297.789      0.177      1.000      1.000      0.104
  4420.900      0.183      0.000      0.000    292.451      0.183      1.000      1.000      0.111
  4421.000      0.187      0.000      0.000    309.791      0.187      1.000      1.000      0.112
  4421.100      0.189      0.000      0.000    256.970      0.189      1.000      1.000      0.122
  4421.200      0.188      0.000      0.000    213.223      0.189      1.000      0.996      0.131
  4421.300      0.186      0.000      0.000    193.085      0.188      1.000      0.992      0.135
  4421.400      0.181      0.000      0.000    166.048      0.185      1.000      0.981      0.140
  4421.500      0.176      0.000      0.000    142.894      0.178      1.000      0.989      0.141
  4421.600      0.169      0.000      0.000    102.991      0.169      1.000      1.000      0.149
  4421.700      0.160      0.000      0.000     79.949      0.160      1.000      1.000      0.153
  4421.800      0.152      0.000      0.000     66.819      0.152      1.000      1.000      0.154
  4421.900      0.143      0.000      0.000     56.548      0.143      1.000      1.000      0.154
  4422.000      0.129      0.000      0.000     39.182      0.129      1.000      1.000      0.160
  4422.100      0.109      0.000      0.000     25.786      0.109      1.000      1.000      0.162
  4422.200      0.083      0.000      0.000     10.711      0.083      0.000      1.000      0.182
  4422.300      0.062      0.000      0.000      2.368      0.062      0.000      1.000      0.236
  4422.400      0.053      0.000      0.000      0.646      0.053      0.000      1.000      0.291
  4422.500      0.057      0.000      0.000      0.494      0.057      0.000      1.000      0.307
  4422.600      0.066      0.000      0.000      0.921      0.066      0.000      1.000      0.285
  4422.700      0.070      0.000      0.000      1.806      0.070      0.000      1.000      0.256
  4422.800      0.069      0.000      0.000      2.859      0.069      0.000      1.000      0.232
  4422.900      0.065      0.000      0.000      3.224      0.065      0.000      1.000      0.224
  4423.000      0.068      0.000      0.000      3.757      0.068      0.000      1.000      0.219
  4423.100      0.079      0.000      0.000      3.824      0.079      0.000      1.000      0.228
  4423.200      0.099      0.000      0.000      6.472      0.099      0.000      1.000      0.220
  4423.300      0.117      0.000      0.000     11.657      0.117      1.000      1.000      0.208
  4423.400      0.131      0.000      0.000     23.217      0.131      1.000      1.000      0.187
  4423.500      0.142      0.000      0.000     43.961      0.142      1.000      1.000      0.166
  4423.600      0.151      0.000      0.000     67.759      0.151      1.000      1.000      0.153
  4423.700      0.160      0.000      0.000    100.494      0.160      1.000      1.000      0.142
