~Version Information
VERS.                     2.0: CWLS log ASCII Standard Version 2.00
WRAP.                      NO: One line per depth step

~Well Information Block
#MNEM.UNIT                 Value                       Information
#------------              -----                       -----------
STRT.M                    3351.600                    :START
STOP.M                    4759.200                    :STOP
STEP.M                       0.100                    :STEP
NULL.                     -999.25                     :NULL VALUE
COMP.         Statoil Petroleum AS                    :Company
WELL.         15/9-F-11 B                             :Well
FLD .         VOLVE                                   :Field
LOC .         Maersk Inspirer                         :Location
PROV.                                                 :Province
CNTY.                                                 :County
STATE.                                                 :State
CTRY.                                                 :Country
DATE.                                                 :Log Date
SRVC.                                                 :Service Company
UWI .                                                 :Unique Well Identifier
API .                                                 :API Number
LATI.         058 26' 29.960" N    DMS                :Latitude
LONG.         001 53' 14.870" E    DMS                :Longtitude
PD  .         MSL                                     :Permanent Datum
EDF .M            54.900                              :Elevations D.F.
EGL .M           -91.000                              :Elevations G.L.
ELZ .M            54.900                              :Elev. Log Zero
LMF .         DF                                      :Log Measured From

~Curve Information
#MNEM   .UNIT             API CODE Curve Description
#------------             -------- -----------------
DEPTH   .M            00 001 00 00:   0  Depth
BVW     .v/v          00 000 00 00:   1  BVW:CPI:rC:NONE:v1
CARB_FLAG.unitless    00 000 00 00:   2  CARB_FLAG:CPI:rC:NONE:v1
COAL_FLAG.unitless    00 000 00 00:   3  COAL_FLAG:CPI:rC:NONE:v1
KLOGH   .mD           00 000 00 00:   4  KLOGH:CPI:rC:NONE:v1
PHIF    .v/v          00 000 00 00:   5  PHIF:CPI:rC:NONE:v1
SAND_FLAG.UNKNOWN     00 000 00 00:   6  SAND_FLAG:CPI:rC:NONE:v1
SW      .v/v          00 000 00 00:   7  SW:CPI:rC:NONE:v1
VSH     .v/v          00 000 00 00:   8  VSH:CPI:rC:NONE:v1

~Parameter Information
#MNEM.UNIT       Value           Description
#------------    -----           -----------
RUN .         1                 :Run number

~Other Information
PETROPHYSICAL_INTERPRETATION: OUTPUT

# --- LOG MNEMONICS AND UNITS ---
#Depth     BVW        CARB_FLAG  COAL_FLAG  KLOGH      PHIF       SAND_FLAG  SW         VSH       
#M         v/v        unitless   unitless   mD         v/v        UNKNOWN    v/v        v/v       

~A
# ...
  4647.600      0.074      0.000      0.000    306.407      0.193      1.000      0.382      0.118
  4647.700      0.075      0.000      0.000    415.945      0.198      1.000      0.380      0.107
  4647.800      0.076      0.000      0.000    634.085      0.202      1.000      0.374      0.091
  4647.900      0.076      0.000      0.000    845.221      0.205      1.000      0.371      0.079
  4648.000      0.076      0.000      0.000   1153.832      0.207      1.000      0.367      0.066
  4648.100      0.075      0.000      0.000   1264.633      0.207      1.000      0.364      0.061
  4648.200      0.074      0.000      0.000   1357.605      0.208      1.000      0.358      0.059
  4648.300      0.074      0.000      0.000   1608.567      0.210      1.000      0.352      0.053
  4648.400      0.074      0.000      0.000   1487.245      0.211      1.000      0.353      0.057
  4648.500      0.075      0.000      0.000   1619.551      0.211      1.000      0.356      0.053
  4648.600      0.076      0.000      0.000   1680.070      0.209      1.000      0.363      0.050
  4648.700      0.077      0.000      0.000   1791.967      0.210      1.000      0.367      0.047
  4648.800      0.077      0.000      0.000   1950.266      0.210      1.000      0.368      0.044
  4648.900      0.078      0.000      0.000   1922.936      0.211      1.000      0.371      0.045
  4649.000      0.080      0.000      0.000   1875.186      0.212      1.000      0.379      0.047
  4649.100      0.082      0.000      0.000   1605.928      0.212      1.000      0.388      0.054
  4649.200      0.084      0.000      0.000   1480.051      0.212      1.000      0.396      0.058
  4649.300      0.087      0.000      0.000   1456.689      0.211      1.000      0.410      0.058
  4649.400      0.087      0.000      0.000   1681.336      0.210      1.000      0.415      0.051
  4649.500      0.088      0.000      0.000   1739.408      0.209      1.000      0.421      0.048
  4649.600      0.090      0.000      0.000   1621.595      0.208      1.000      0.433      0.051
  4649.700      0.091      0.000      0.000   1537.496      0.210      1.000      0.436      0.055
  4649.800      0.095      0.000      0.000   1616.677      0.211      1.000      0.448      0.053
  4649.900      0.096      0.000      0.000   1642.506      0.213      1.000      0.451      0.054
  4650.000      0.098      0.000      0.000   1662.254      0.215      1.000      0.458      0.055
  4650.100      0.100      0.000      0.000   1554.805      0.214      1.000      0.465      0.058
  4650.200      0.101      0.000      0.000   1517.983      0.214      1.000      0.472      0.059
  4650.300      0.102      0.000      0.000   1671.168      0.214      1.000      0.474      0.055
  4650.400      0.102      0.000      0.000   1575.587      0.215      1.000      0.474      0.058
  4650.500      0.102      0.000      0.000   1668.239      0.216      1.000      0.472      0.056
  4650.600      0.102      0.000      0.000   1672.485      0.217      1.000      0.473      0.056
  4650.700      0.102      0.000      0.000   1848.543      0.216      1.000      0.473      0.051
  4650.800      0.101      0.000      0.000   1832.084      0.215      1.000      0.470      0.051
  4650.900      0.101      0.000      0.000   1862.964      0.214      1.000      0.470      0.049
  4651.000      0.101      0.000      0.000   1930.062      0.216      1.000      0.464      0.050
  4651.100      0.101      0.000      0.000   1935.631      0.217      1.000      0.466      0.050
  4651.200      0.101      0.000      0.000   2028.628      0.216      1.000      0.465      0.047
  4651.300      0.100      0.000      0.000   2060.849      0.216      1.000      0.464      0.046
  4651.400      0.099      0.000      0.000   2003.221      0.215      1.000      0.461      0.046
  4651.500      0.098      0.000      0.000   2047.239      0.215      1.000      0.459      0.045
  4651.600      0.098      0.000      0.000   2259.112      0.214      1.000      0.456      0.040
  4651.700      0.097      0.000      0.000   1945.802      0.211      1.000      0.459      0.045
  4651.800      0.096      0.000      0.000   1941.293      0.210      1.000      0.458      0.044
  4651.900      0.095      0.000      0.000   1808.295      0.207      1.000      0.458      0.045
  4652.000      0.094      0.000      0.000   1589.890      0.204      1.000      0.460      0.048
  4652.100      0.093      0.000      0.000   1399.337      0.202      1.000      0.460      0.052
  4652.200      0.092      0.000      0.000   1581.898      0.202      1.000      0.454      0.047
  4652.300      0.091      0.000      0.000   1466.726      0.201      1.000      0.452      0.049
  4652.400      0.090      0.000      0.000   1453.040      0.201      1.000      0.447      0.049
  4652.500      0.089      0.000      0.000   1365.544      0.200      1.000      0.444      0.052
  4652.600      0.088      0.000      0.000   1252.852      0.199      1.000      0.444      0.055
  4652.700      0.088      0.000      0.000   1312.961      0.198      1.000      0.445      0.052
  4652.800      0.088      0.000      0.000   1311.615      0.196      1.000      0.449      0.050
  4652.900      0.089      0.000      0.000   1272.926      0.197      1.000      0.449      0.053
  4653.000      0.088      0.000      0.000   1349.310      0.201      1.000      0.439      0.053
  4653.100      0.088      0.000      0.000   1419.667      0.207      1.000      0.426      0.056
  4653.200      0.089      0.000      0.000   1207.690      0.211      1.000      0.420      0.068
  4653.300      0.091      0.000      0.000    489.226      0.212      1.000      0.428      0.112
  4653.400      0.091      0.000      0.000    792.498      0.209      1.000      0.437      0.086
  4653.500      0.090      0.000      0.000   1300.170      0.203      1.000      0.445      0.056
  4653.600      0.091      0.000      0.000   1384.384      0.197      1.000      0.463      0.048
  4653.700      0.092      0.000      0.000   1468.234      0.194      1.000      0.475      0.043
  4653.800      0.092      0.000      0.000   1603.217      0.193      1.000      0.476      0.038
  4653.900      0.092      0.000      0.000   1591.823      0.193      1.000      0.475      0.038
  4654.000      0.092      0.000      0.000   1647.751      0.193      1.000      0.474      0.036
  4654.100      0.091      0.000      0.000   1373.354      0.191      1.000      0.479      0.043
  4654.200      0.091      0.000      0.000   1356.492      0.190      1.000      0.479      0.043
  4654.300      0.091      0.000      0.000   1459.539      0.190      1.000      0.482      0.039
  4654.400      0.091      0.000      0.000   1236.237      0.190      1.000      0.482      0.047
  4654.500      0.091      0.000      0.000   1308.601      0.190      1.000      0.481      0.045
  4654.600      0.092      0.000      0.000   1313.788      0.190      1.000      0.483      0.045
  4654.700      0.092      0.000      0.000   1365.435      0.190      1.000      0.484      0.043
  4654.800      0.092      0.000      0.000   1782.558      0.190      1.000      0.486      0.030
  4654.900      0.092      0.000      0.000   1774.370      0.189      1.000      0.488      0.029
  4655.000      0.093      0.000      0.000   1554.291      0.188      1.000      0.493      0.035
  4655.100      0.093      0.000      0.000   1493.079      0.188      1.000      0.496      0.036
  4655.200      0.093      0.000      0.000   1655.118      0.187      1.000      0.496      0.031
  4655.300      0.094      0.000      0.000   1804.453      0.186      1.000      0.502      0.026
  4655.400      0.093      0.000      0.000   1489.373      0.185      1.000      0.504      0.034
  4655.500      0.092      0.000      0.000   1489.157      0.183      1.000      0.502      0.032
  4655.600      0.092      0.000      0.000   1432.703      0.181      1.000      0.506      0.033
