~Version Information
VERS.                     2.0: CWLS log ASCII Standard Version 2.00
WRAP.                      NO: One line per depth step

~Well Information Block
#MNEM.UNIT                 Value                       Information
#------------              -----                       -----------
STRT.M                   3205.0000                    :START
STOP.M                   4093.8000                    :STOP
STEP.M                      0.1000                    :STEP
NULL.                     -999.25                     :NULL VALUE
COMP.         Statoil Petroleum                       :Company
WELL.         15/9-F-1 C                              :Well
FLD .         VOLVE                                   :Field
LOC .         Maersk Inspirer                         :Location
PROV.                                                 :Province
CNTY.                                                 :County
STATE.                                                 :State
CTRY.                                                 :Country
DATE.                                                 :Log Date
SRVC.                                                 :Service Company
UWI .                                                 :Unique Well Identifier
API .                                                 :API Number
LATI.         058 26' 29.907" N    DMS                :Latitude
LONG.         001 53' 14.708" E    DMS                :Longtitude
PD  .         MSL                                     :Permanent Datum
EDF .M                54.9000                         :Elevations D.F.
EGL .M               -91.0000                         :Elevations G.L.
ELZ .M                54.9000                         :Elev. Log Zero
LMF .         DF                                      :Log Measured From

~Curve Information
#MNEM   .UNIT             API CODE Curve Description
#------------             -------- -----------------
DEPTH   .M            00 001 00 00:   0  Depth
BADDATA_FLAG.unitless 00 000 00 00:   1  Bad Data Flag
BVW     .v/v          00 000 00 00:   2  Bulk Volume Water
COAL_FLAG.unitless    00 000 00 00:   3  Coal Flag
KLOGH   .mD           00 000 00 00:   4  Permeability
PHIF    .v/v          00 000 00 00:   5  Final Porosity
SAND_FLAG.unitless    00 000 00 00:   6  Sand Flag
SW      .v/v          00 000 00 00:   7  Water Saturation
VCARB   .v/v          00 000 00 00:   8  VCARB
VSH     .v/v          00 000 00 00:   9  Volume of Shale

~Parameter Information
#MNEM.UNIT       Value           Description
#------------    -----           -----------
RUN .         1                 :Run number

~Other Information
PETROPHYSICAL INTERPRETATION: OUTPUT

# --- LOG MNEMONICS AND UNITS ---
#Depth          BADDATA_FLAG    BVW             COAL_FLAG       KLOGH           PHIF            SAND_FLAG       SW              VCARB           VSH            
#M              unitless        v/v             unitless        mD              v/v             unitless        v/v             v/v             v/v            

~A
# ...
      3335.0000          0.0000          0.0851          0.0000          0.0022          0.0860          0.0000          0.9896          0.0000          0.5941
      3335.1000          0.0000          0.0841          0.0000          0.0025          0.0877          0.0000          0.9583          0.0000          0.5899
      3335.2000          0.0000          0.0851          0.0000          0.0020          0.0912          0.0000          0.9326          0.0000          0.6028
      3335.3000          0.0000          0.0883          0.0000          0.0013          0.0959          0.0000          0.9206          0.0000          0.6298
      3335.4000          0.0000          0.0911          0.0000          0.0010          0.1009          0.0000          0.9029          0.0000          0.6585
      3335.5000          0.0000          0.0942          0.0000          0.0010          0.1050          0.0000          0.8973          0.0000          0.6787
      3335.6000          0.0000          0.0959          0.0000          0.0010          0.1070          0.0000          0.8961          0.0000          0.6876
      3335.7000          0.0000          0.0977          0.0000          0.0010          0.1069          0.0000          0.9141          0.0000          0.6925
      3335.8000          0.0000          0.0985          0.0000          0.0010          0.1057          0.0000          0.9318          0.0000          0.6935
      3335.9000          0.0000          0.0997          0.0000          0.0010          0.1048          0.0000          0.9509          0.0000          0.6861
      3336.0000          0.0000          0.1012          0.0000          0.0010          0.1051          0.0000          0.9626          0.0000          0.6958
      3336.1000          0.0000          0.1023          0.0000          0.0010          0.1063          0.0000          0.9615          0.0000          0.6730
      3336.2000          0.0000          0.1024          0.0000          0.0012          0.1075          0.0000          0.9522          0.0000          0.6416
      3336.3000          0.0000          0.1023          0.0000          0.0017          0.1078          0.0000          0.9493          0.0000          0.6250
      3336.4000          0.0000          0.1013          0.0000          0.0033          0.1069          0.0000          0.9476          0.0000          0.5925
      3336.5000          0.0000          0.1008          0.0000          0.0040          0.1055          0.0000          0.9553          0.0000          0.5830
      3336.6000          0.0000          0.1005          0.0000          0.0046          0.1049          0.0000          0.9584          0.0000          0.5750
      3336.7000          0.0000          0.1004          0.0000          0.0049          0.1054          0.0000          0.9527          0.0000          0.5722
      3336.8000          0.0000          0.1007          0.0000          0.0055          0.1067          0.0000          0.9435          0.0000          0.5684
      3336.9000          0.0000          0.1009          0.0000          0.0067          0.1078          0.0000          0.9360          0.0000          0.5598
      3337.0000          0.0000          0.1023          0.0000          0.0036          0.1081          0.0000          0.9461          0.0000          0.5893
      3337.1000          0.0000          0.1035          0.0000          0.0023          0.1070          0.0000          0.9671          0.0000          0.6101
      3337.2000          0.0000          0.1033          0.0000          0.0021          0.1046          0.0000          0.9873          0.0000          0.6131
      3337.3000          0.0000          0.1013          0.0000          0.0020          0.1013          0.0000          1.0000          0.0000          0.6128
      3337.4000          0.0000          0.0984          0.0000          0.0021          0.0984          0.0000          1.0000          0.0000          0.6071
      3337.5000          0.0000          0.0972          0.0000          0.0039          0.0972          0.0000          1.0000          0.0000          0.5767
      3337.6000          0.0000          0.0974          0.0000          0.0043          0.0974          0.0000          1.0000          0.0000          0.5718
      3337.7000          0.0000          0.0975          0.0000          0.0047          0.0975          0.0000          1.0000          0.0000          0.5671
      3337.8000          0.0000          0.0971          0.0000          0.0041          0.0971          0.0000          1.0000          0.0000          0.5734
      3337.9000          0.0000          0.0962          0.0000          0.0035          0.0962          0.0000          1.0000          0.0000          0.5811
      3338.0000          0.0000          0.0962          0.0000          0.0041          0.0962          0.0000          1.0000          0.0000          0.5734
      3338.1000          0.0000          0.0971          0.0000          0.0042          0.0971          0.0000          1.0000          0.0000          0.5727
      3338.2000          0.0000          0.0983          0.0000          0.0044          0.0983          0.0000          1.0000          0.0000          0.5716
      3338.3000          0.0000          0.0985          0.0000          0.0038          0.0985          0.0000          1.0000          0.0000          0.5781
      3338.4000          0.0000          0.0972          0.0000          0.0047          0.0972          0.0000          1.0000          0.0000          0.5677
      3338.5000          0.0000          0.0943          0.0000          0.0058          0.0950          0.0000          0.9926          0.0000          0.5552
      3338.6000          0.0000          0.0901          0.0000          0.0070          0.0912          0.0000          0.9884          0.0000          0.5426
      3338.7000          0.0000          0.0852          0.0000          0.0093          0.0852          0.0000          1.0000          0.0000          0.5235
      3338.8000          0.0000          0.0782          0.0000          0.0087          0.0782          0.0000          1.0000          0.0000          0.5206
      3338.9000          0.0000          0.0729          0.0000          0.0087          0.0729          0.0000          1.0000          0.0000          0.5157
      3339.0000          0.0000          0.0643          0.0000          0.0177          0.0707          0.0000          0.9103          0.0000          0.4797
      3339.1000          0.0000          0.0510          0.0000          0.0271          0.0697          0.0000          0.7324          0.0000          0.4583
      3339.2000          0.0000          0.0416          0.0000          0.0499          0.0655          0.0000          0.6347          0.0178          0.4251
      3339.3000          0.0000          0.0306          0.0000          0.0877          0.0528          0.0000          0.5792          0.0853          0.3887
      3339.4000          0.0000          0.0265          0.0000          0.1801          0.0495          0.0000          0.5344          0.1478          0.3402
      3339.5000          0.0000          0.0252          0.0000          0.3461          0.0462          0.0000          0.5453          0.2181          0.2927
      3339.6000          0.0000          0.0246          0.0000          0.6340          0.0429          0.0000          0.5736          0.2729          0.2620
      3339.7000          0.0000          0.0247          0.0000          0.9141          0.0396          0.0000          0.6232          0.3119          0.2443
      3339.8000          0.0000          0.0234          0.0000          1.7266          0.0412          0.0000          0.5677          0.3114          0.2403
      3339.9000          0.0000          0.0224          0.0000          1.5940          0.0429          0.0000          0.5218          0.3038          0.2409
