~Version Information
VERS.                     2.0: CWLS log ASCII Standard Version 2.00
WRAP.                      NO: One line per depth step

~Well Information Block
#MNEM.UNIT                 Value                       Information
#------------              -----                       -----------
STRT.M                     188.500                    :START
STOP.M                     346.700                    :STOP
STEP.M                       0.100                    :STEP
NULL.                     -999.25                     :NULL VALUE
COMP.         STATOIL PETRPOLEUM AS                   :Company
WELL.         15/9-F-11                               :Well
FLD .         VOLVE                                   :Field
LOC .         Maersk Inspirer                         :Location
PROV.                                                 :Province
CNTY.                                                 :County
STATE.                                                 :State
CTRY.         Norway                                  :Country
DATE.                                                 :Log Date
SRVC.                                                 :Service Company
UWI .                                                 :Unique Well Identifier
API .                                                 :API Number
LATI.         058 26' 29.960" N    DMS                :Latitude
LONG.         001 53' 14.870" E    DMS                :Longtitude
PD  .         MSL                                     :Permanent Datum
EDF .M            54.900                              :Elevations D.F.
EGL .M           -91.000                              :Elevations G.L.
WD  .M           -91.000                              :Water Depth
ELZ .M            54.900                              :Elev. Log Zero

~Curve Information
#MNEM   .UNIT             API CODE Curve Description
#------------             -------- -----------------
DEPTH   .M            00 001 00 00:   0  Depth
BS      .inches       00 000 00 00:   1  BS:COMPOSITE:rC:NONE:v1
GR      .API          30 150 01 01:   2  GR:COMPOSITE:rC:NONE:v1
RACEHM  .ohm.m        95 220 00 01:   3  RACEHM:COMPOSITE:rC:NONE:v1
RACELM  .ohm.m        00 524 01 00:   4  RACELM:COMPOSITE:rC:NONE:v1
RD      .ohm.m        00 000 00 00:   5  RD:COMPOSITE:rC:NONE:v1
RM      .ohm.m        00 000 00 00:   6  RM:COMPOSITE:rC:NONE:v1
ROP     .m/hr         00 000 00 00:   7  ROP:COMPOSITE:rC:NONE:v1
RPCEHM  .ohm.m        00 000 00 00:   8  RPCEHM:COMPOSITE:rC:NONE:v1
RPCELM  .ohm.m        00 000 00 00:   9  RPCELM:COMPOSITE:rC:NONE:v1
RT      .ohm.m        00 000 00 00:  10  RT:COMPOSITE:rC:NONE:v1

~Parameter Information
#MNEM.UNIT       Value           Description
#------------    -----           -----------
RUN .         1                 :Run number

~Other Information
PETROPHYSICAL INTERPRETATION: INPUT

# --- LOG MNEMONICS AND UNITS ---
#Depth     BS         GR         RACEHM     RACELM     RD         RM         ROP        RPCEHM     RPCELM     RT        
#M         inches     API        ohm.m      ohm.m      ohm.m      ohm.m      m/hr       ohm.m      ohm.m      ohm.m     

~A
# ...
   235.400     26.000     23.100      1.056      1.456      1.328      1.650     10.996      1.650      1.328      1.650
   235.500     26.000     23.700      1.110      1.484      1.378      1.630     11.065      1.630      1.378      1.630
   235.600     26.000     22.100      1.114      1.497      1.356      1.591     11.172      1.591      1.356      1.591
   235.700     26.000     21.600      1.118      1.510      1.333      1.552     11.280      1.552      1.333      1.552
   235.800     26.000     21.300      1.122      1.523      1.310      1.514     11.388      1.514      1.310      1.514
   235.900     26.000     21.000      1.126      1.536      1.287      1.475     11.629      1.475      1.287      1.475
   236.000     26.000     22.500      1.130      1.548      1.264      1.436     11.870      1.436      1.265      1.436
   236.100     26.000     22.200      1.134      1.561      1.242      1.397     12.112      1.397      1.242      1.397
   236.200     26.000     22.000      1.125      1.561      1.234      1.463     12.167      1.463      1.234      1.463
   236.300     26.000     22.600      1.117      1.562      1.226      1.528     12.222      1.528      1.227      1.528
   236.400     26.000     21.000      1.108      1.562      1.219      1.594     12.278      1.594      1.219      1.594
   236.500     26.000     21.900      1.099      1.562      1.211      1.660     12.275      1.660      1.211      1.660
   236.600     26.000     23.000      1.091      1.562      1.204      1.725     12.273      1.725      1.204      1.725
   236.700     26.000     24.400      1.082      1.562      1.196      1.791     12.270      1.791      1.196      1.791
   236.800     26.000     26.300      1.074      1.562      1.188      1.856     12.407      1.856      1.188      1.856
   236.900     26.000     27.400      1.120      1.556      1.264      1.400     12.545      1.400      1.264      1.400
   237.000     26.000     26.800      1.091      1.582      1.348      1.517     12.682      1.517      1.348      1.517
   237.100     26.000     28.500      1.182      1.538      1.325      1.689     12.592      1.689      1.325      1.689
   237.200     26.000     31.000      1.275      1.586      1.378      1.831     12.503      1.831      1.378      1.831
   237.300     26.000     33.000      1.261      1.641      1.422      1.899     12.414      1.899      1.422      1.899
   237.400     26.000     34.400      1.202      1.499      1.489      1.615     12.400      1.615      1.489      1.615
   237.500     26.000     36.000      1.169      1.521      1.455      2.232     12.386      2.232      1.455      2.232
   237.600     26.000     37.500      1.264      1.654      1.594      2.160     12.373      2.160      1.594      2.160
   237.700     26.000     37.000      1.216      1.496      1.489      2.211     12.197      2.211      1.489      2.211
   237.800     26.000     36.700      1.288      1.684      1.620      2.237     12.021      2.237      1.620      2.237
   237.900     26.000     35.300      1.359      1.729      1.561      2.059     11.844      2.059      1.561      2.059
   238.000     26.000     34.800      1.344      1.673      1.543      2.412     11.531      2.412      1.543      2.412
   238.100     26.000     33.500      1.376      1.687      1.620      1.761     11.218      1.761      1.620      1.761
   238.200     26.000     33.200      1.391      1.702      1.601      2.494     10.905      2.494      1.601      2.494
   238.300     26.000     32.200      1.138      1.699      1.602      1.905     10.706      1.905      1.602      1.905
   238.400     26.000     32.000      1.267      1.714      1.525      2.280     10.506      2.280      1.525      2.280
   238.500     26.000     32.100      1.318      1.727      1.654      1.825     10.307      1.825      1.654      1.825
   238.600     26.000     30.600      1.285      1.761      1.540      1.746     10.091      1.746      1.540      1.746
   238.700     26.000     30.000      1.395      1.843      1.491      1.660      9.874      1.660      1.491      1.660
   238.800     26.000     30.100      1.372      1.760      1.536      2.101      9.658      2.101      1.536      2.101
   238.900     26.000     30.300      1.302      1.706      1.531      1.935      9.417      1.935      1.531      1.935
   239.000     26.000     30.600      1.332      1.726      1.654      1.370      9.176      1.370      1.654      1.370
   239.100     26.000     32.000      1.432      1.761      1.649      2.121      8.935      2.121      1.649      2.121
   239.200     26.000     32.600      1.332      1.710      1.659      2.348      8.915      2.348      1.659      2.348
   239.300     26.000     33.600      1.426      1.759      1.796      2.297      8.894      2.297      1.796      2.297
   239.400     26.000     33.100      1.440      1.897      1.822      2.438      8.874      2.438      1.822      2.438
   239.500     26.000     32.700      1.537      1.760      1.962      2.036      8.841      2.036      1.962      2.036
   239.600     26.000     32.200      1.470      1.749      1.837      2.179      8.807      2.179      1.837      2.179
   239.700     26.000     32.900      1.669      1.740      1.836      2.622      8.773      2.622      1.836      2.622
   239.800     26.000     32.600      1.691      1.736      1.817      2.401      8.726      2.401      1.817      2.401
   239.900     26.000     30.900      1.837      1.765      1.847      2.474      8.679      2.474      1.847      2.474
   240.000     26.000     29.800      1.714      1.693      1.790      2.445      8.632      2.445      1.790      2.445
   240.100     26.000     27.600      1.711      1.685      1.695      2.408      8.577      2.408      1.695      2.408
   240.200     26.000     26.200      1.804      1.801      1.778      2.239      8.522      2.239      1.778      2.239
   240.300     26.000     25.900      1.703      1.720      1.706      2.223      8.467      2.223      1.706      2.223
   240.400     26.000     24.300      1.564      1.601      1.620      2.303      8.477      2.303      1.620      2.303
   240.500     26.000     24.100      1.608      1.624      1.621      2.380      8.488      2.380      1.620      2.380
   240.600     26.000     23.900      1.569      1.661      1.647      2.231      8.498      2.231      1.647      2.231
   240.700     26.000     23.800      1.569      1.591      1.571      2.371      8.471      2.371      1.571      2.371
   240.800     26.000     24.100      1.502      1.628      1.598      2.218      8.444      2.218      1.598      2.218
   240.900     26.000     23.700      1.504      1.570      1.577      2.318      8.417      2.318      1.577      2.318
   241.000     26.000     23.600      1.460      1.581      1.644      2.420      8.420      2.420      1.644      2.420
   241.100     26.000     23.900      1.379      1.578      1.596      2.312      8.424      2.312      1.596      2.312
   241.200     26.000     23.900      1.406      1.574      1.630      2.383      8.427      2.383      1.630      2.383
   241.300     26.000     23.700      1.420      1.583      1.657      2.473      8.473      2.473      1.657      2.473
   241.400     26.000     23.300      1.453      1.583      1.634      2.270      8.518      2.270      1.634      2.270
   241.500     26.000     23.200      1.449      1.561      1.595      2.364      8.564      2.364      1.595      2.364
   241.600     26.000     23.800      1.461      1.571      1.636      2.277      8.617      2.277      1.636      2.277
   241.700     26.000     22.700      1.478      1.534      1.614      2.391      8.671      2.391      1.614      2.391
   241.800     26.000     22.200      1.459      1.525      1.581      2.341      8.725      2.341      1.581      2.341
   241.900     26.000     20.700      1.456      1.483      1.623      2.775      8.781      2.775      1.623      2.775
   242.000     26.000     19.800      1.459      1.464      1.542      2.326      8.837      2.326      1.542      2.326
