~Version Information
VERS.                     2.0: CWLS log ASCII Standard Version 2.00
WRAP.                      NO: One line per depth step

~Well Information Block
#MNEM.UNIT                 Value                       Information
#------------              -----                       -----------
STRT.M                    3351.600                    :START
STOP.M                    4759.200                    :STOP
STEP.M                       0.100                    :STEP
NULL.                     -999.25                     :NULL VALUE
COMP.         Statoil Petroleum AS                    :Company
WELL.         15/9-F-11 B                             :Well
FLD .         VOLVE                                   :Field
LOC .         Maersk Inspirer                         :Location
PROV.                                                 :Province
CNTY.                                                 :County
STATE.                                                 :State
CTRY.                                                 :Country
DATE.                                                 :Log Date
SRVC.                                                 :Service Company
UWI .                                                 :Unique Well Identifier
API .                                                 :API Number
LATI.         058 26' 29.960" N    DMS                :Latitude
LONG.         001 53' 14.870" E    DMS                :Longtitude
PD  .         MSL                                     :Permanent Datum
EDF .M            54.900                              :Elevations D.F.
EGL .M           -91.000                              :Elevations G.L.
ELZ .M            54.900                              :Elev. Log Zero
LMF .         DF                                      :Log Measured From

~Curve Information
#MNEM   .UNIT             API CODE Curve Description
#------------             -------- -----------------
DEPTH   .M            00 001 00 00:   0  Depth
BVW     .v/v          00 000 00 00:   1  BVW:CPI:rC:NONE:v1
CARB_FLAG.unitless    00 000 00 00:   2  CARB_FLAG:CPI:rC:NONE:v1
COAL_FLAG.unitless    00 000 00 00:   3  COAL_FLAG:CPI:rC:NONE:v1
KLOGH   .mD           00 000 00 00:   4  KLOGH:CPI:rC:NONE:v1
PHIF    .v/v          00 000 00 00:   5  PHIF:CPI:rC:NONE:v1
SAND_FLAG.UNKNOWN     00 000 00 00:   6  SAND_FLAG:CPI:rC:NONE:v1
SW      .v/v          00 000 00 00:   7  SW:CPI:rC:NONE:v1
VSH     .v/v          00 000 00 00:   8  VSH:CPI:rC:NONE:v1

~Parameter Information
#MNEM.UNIT       Value           Description
#------------    -----           -----------
RUN .         1                 :Run number

~Other Information
PETROPHYSICAL_INTERPRETATION: OUTPUT

# --- LOG MNEMONICS AND UNITS ---
#Depth     BVW        CARB_FLAG  COAL_FLAG  KLOGH      PHIF       SAND_FLAG  SW         VSH       
#M         v/v        unitless   unitless   mD         v/v        UNKNOWN    v/v        v/v       

~A
  3351.600      0.055      0.000      0.000      0.001      0.055      0.000      1.000      0.869
  3351.700      0.058      0.000      0.000      0.001      0.058      0.000      1.000      0.892
  3351.800      0.061      0.000      0.000      0.001      0.061      0.000      1.000      0.881
  3351.900      0.062      0.000      0.000      0.001      0.062      0.000      1.000      0.886
  3352.000      0.064      0.000      0.000      0.001      0.064      0.000      1.000      0.876
  3352.100      0.066      0.000      0.000      0.001      0.066      0.000      1.000      0.882
  3352.200      0.067      0.000      0.000      0.001      0.067      0.000      1.000      0.875
  3352.300      0.067      0.000      0.000      0.001      0.067      0.000      1.000      0.843
  3352.400      0.066      0.000      0.000      0.001      0.066      0.000      1.000      0.840
  3352.500      0.062      0.000      0.000      0.001      0.062      0.000      1.000      0.860
  3352.600      0.058      0.000      0.000      0.001      0.058      0.000      1.000      0.880
  3352.700      0.055      0.000      0.000      0.001      0.055      0.000      1.000      0.896
  3352.800      0.060      0.000      0.000      0.001      0.060      0.000      1.000      0.912
  3352.900      0.072      0.000      0.000      0.001      0.072      0.000      1.000      0.941
  3353.000      0.084      0.000      0.000      0.001      0.084      0.000      1.000      0.971
  3353.100      0.089      0.000      0.000      0.001      0.089      0.000      1.000      0.993
  3353.200      0.086      0.000      0.000      0.001      0.086      0.000      1.000      0.980
  3353.300      0.078      0.000      0.000      0.001      0.078      0.000      1.000      0.944
  3353.400      0.071      0.000      0.000      0.001      0.071      0.000      1.000      0.905
  3353.500      0.069      0.000      0.000      0.001      0.069      0.000      1.000      0.911
  3353.600      0.070      0.000      0.000      0.001      0.070      0.000      1.000      0.937
  3353.700      0.070      0.000      0.000      0.001      0.070      0.000      1.000      0.914
  3353.800      0.071      0.000      0.000      0.001      0.071      0.000      1.000      0.908
  3353.900      0.072      0.000      0.000      0.001      0.072      0.000      1.000      0.946
  3354.000      0.075      0.000      0.000      0.001      0.075      0.000      1.000      0.984
  3354.100      0.074      0.000      0.000      0.001      0.074      0.000      1.000      1.000
  3354.200      0.069      0.000      0.000      0.001      0.069      0.000      1.000      1.000
  3354.300      0.062      0.000      0.000      0.001      0.062      0.000      1.000      0.987
  3354.400      0.059      0.000      0.000      0.001      0.059      0.000      1.000      0.947
  3354.500      0.064      0.000      0.000      0.001      0.064      0.000      1.000      0.928
  3354.600      0.073      0.000      0.000      0.001      0.073      0.000      1.000      0.938
  3354.700      0.081      0.000      0.000      0.001      0.081      0.000      1.000      0.940
  3354.800      0.082      0.000      0.000      0.001      0.082      0.000      1.000      0.968
  3354.900      0.077      0.000      0.000      0.001      0.077      0.000      1.000      0.992
  3355.000      0.069      0.000      0.000      0.001      0.069      0.000      1.000      0.981
  3355.100      0.064      0.000      0.000      0.001      0.064      0.000      1.000      0.976
  3355.200      0.065      0.000      0.000      0.001      0.065      0.000      1.000      0.928
  3355.300      0.069      0.000      0.000      0.001      0.069      0.000      1.000      0.872
  3355.400      0.072      0.000      0.000      0.001      0.072      0.000      1.000      0.860
  3355.500      0.071      0.000      0.000      0.001      0.071      0.000      1.000      0.865
  3355.600      0.068      0.000      0.000      0.001      0.068      0.000      1.000      0.875
  3355.700      0.066      0.000      0.000      0.001      0.066      0.000      1.000      0.854
  3355.800      0.063      0.000      0.000      0.001      0.063      0.000      1.000      0.843
  3355.900      0.057      0.000      0.000      0.001      0.057      0.000      1.000      0.857
  3356.000      0.049      0.000      0.000      0.001      0.049      0.000      1.000      0.866
  3356.100      0.042      0.000      0.000      0.001      0.042      0.000      1.000      0.873
  3356.200      0.040      0.000      0.000      0.001      0.040      0.000      1.000      0.869
  3356.300      0.043      0.000      0.000      0.001      0.043      0.000      1.000      0.859
  3356.400      0.048      0.000      0.000      0.001      0.048      0.000      1.000      0.832
  3356.500      0.052      0.000      0.000      0.001      0.052      0.000      1.000      0.818
  3356.600      0.055      0.000      0.000      0.001      0.055      0.000      1.000      0.803
  3356.700      0.057      0.000      0.000      0.001      0.057      0.000      1.000      0.786
  3356.800      0.057      0.000      0.000      0.001      0.057      0.000      1.000      0.777
  3356.900      0.056      0.000      0.000      0.001      0.056      0.000      1.000      0.764
  3357.000      0.054      0.000      0.000      0.001      0.054      0.000      1.000      0.750
  3357.100      0.051      0.000      0.000      0.001      0.051      0.000      1.000      0.775
  3357.200      0.047      0.000      0.000      0.001      0.047      0.000      1.000      0.789
  3357.300      0.045      0.000      0.000      0.001      0.045      0.000      1.000      0.771
  3357.400      0.048      0.000      0.000      0.001      0.048      0.000      1.000      0.760
  3357.500      0.055      0.000      0.000      0.001      0.055      0.000      1.000      0.744
  3357.600      0.060      0.000      0.000      0.001      0.060      0.000      1.000      0.743
  3357.700      0.066      0.000      0.000      0.001      0.066      0.000      1.000      0.761
  3357.800      0.065      0.000      0.000      0.001      0.065      0.000      1.000      0.776
  3357.900      0.062      0.000      0.000      0.001      0.062      0.000      1.000      0.781
  3358.000      0.060      0.000      0.000      0.001      0.060      0.000      1.000      0.763
  3358.100      0.061      0.000      0.000      0.001      0.061      0.000      1.000      0.763
  3358.200      0.062      0.000      0.000      0.001      0.062      0.000      1.000      0.757
  3358.300      0.062      0.000      0.000      0.001      0.062      0.000      1.000      0.760
  3358.400      0.061      0.000      0.000      0.001      0.061      0.000      1.000      0.761
  3358.500      0.059      0.000      0.000      0.001      0.059      0.000      1.000      0.771
  3358.600      0.061      0.000      0.000      0.001      0.061      0.000      1.000      0.767
  3358.700      0.065      0.000      0.000      0.001      0.065      0.000      1.000      0.755
  3358.800      0.066      0.000      0.000      0.001      0.066      0.000      1.000      0.741
  3358.900      0.064      0.000      0.000      0.001      0.064      0.000      1.000      0.742
  3359.000      0.062      0.000      0.000      0.001      0.062      0.000      1.000      0.733
  3359.100      0.062      0.000      0.000      0.001      0.062      0.000      1.000      0.732
  3359.200      0.064      0.000      0.000      0.001      0.064      0.000      1.000      0.737
  3359.300      0.063      0.000      0.000      0.001      0.063      0.000      1.000      0.750
  3359.400      0.061      0.000      0.000      0.001      0.061      0.000      1.000      0.745
  3359.500      0.059      0.000      0.000      0.001      0.059      0.000      1.000      0.751
  3359.600      0.059      0.000      0.000      0.001      0.059      0.000      1.000      0.740
