~Version Information
VERS.                     2.0: CWLS log ASCII Standard Version 2.00
WRAP.                      NO: One line per depth step

~Well Information Block
#MNEM.UNIT                 Value                       Information
#------------              -----                       -----------
STRT.M                     188.500                    :START
STOP.M                     346.700                    :STOP
STEP.M                       0.100                    :STEP
NULL.                     -999.25                     :NULL VALUE
COMP.         STATOIL PETRPOLEUM AS                   :Company
WELL.         15/9-F-11                               :Well
FLD .         VOLVE                                   :Field
LOC .         Maersk Inspirer                         :Location
PROV.                                                 :Province
CNTY.                                                 :County
STATE.                                                 :State
CTRY.         Norway                                  :Country
DATE.                                                 :Log Date
SRVC.                                                 :Service Company
UWI .                                                 :Unique Well Identifier
API .                                                 :API Number
LATI.         058 26' 29.960" N    DMS                :Latitude
LONG.         001 53' 14.870" E    DMS                :Longtitude
PD  .         MSL                                     :Permanent Datum
EDF .M            54.900                              :Elevations D.F.
EGL .M           -91.000                              :Elevations G.L.
WD  .M           -91.000                              :Water Depth
ELZ .M            54.900                              :Elev. Log Zero

~Curve Information
#MNEM   .UNIT             API CODE Curve Description
#------------             -------- -----------------
DEPTH   .M            00 001 00 00:   0  Depth
BS      .inches       00 000 00 00:   1  BS:COMPOSITE:rC:NONE:v1
GR      .API          30 150 01 01:   2  GR:COMPOSITE:rC:NONE:v1
RACEHM  .ohm.m        95 220 00 01:   3  RACEHM:COMPOSITE:rC:NONE:v1
RACELM  .ohm.m        00 524 01 00:   4  RACELM:COMPOSITE:rC:NONE:v1
RD      .ohm.m        00 000 00 00:   5  RD:COMPOSITE:rC:NONE:v1
RM      .ohm.m        00 000 00 00:   6  RM:COMPOSITE:rC:NONE:v1
ROP     .m/hr         00 000 00 00:   7  ROP:COMPOSITE:rC:NONE:v1
RPCEHM  .ohm.m        00 000 00 00:   8  RPCEHM:COMPOSITE:rC:NONE:v1
RPCELM  .ohm.m        00 000 00 00:   9  RPCELM:COMPOSITE:rC:NONE:v1
RT      .ohm.m        00 000 00 00:  10  RT:COMPOSITE:rC:NONE:v1

~Parameter Information
#MNEM.UNIT       Value           Description
#------------    -----           -----------
RUN .         1                 :Run number

~Other Information
PETROPHYSICAL INTERPRETATION: INPUT

# --- LOG MNEMONICS AND UNITS ---
#Depth     BS         GR         RACEHM     RACELM     RD         RM         ROP        RPCEHM     RPCELM     RT        
#M         inches     API        ohm.m      ohm.m      ohm.m      ohm.m      m/hr       ohm.m      ohm.m      ohm.m     

~A
# ...
   215.300     26.000      8.500      0.576      0.946      0.484      0.363    -999.25      0.363      0.484      0.363
   215.400     26.000      9.800      0.537      0.936      0.502      0.365    -999.25      0.365      0.502      0.365
   215.500     26.000     10.800      0.543      0.972      0.513      0.400    -999.25      0.400      0.513      0.400
   215.600     26.000     10.700      0.656      0.989      0.531      0.402    -999.25      0.402      0.531      0.402
   215.700     26.000     10.600      0.765      0.952      0.589      0.420    -999.25      0.420      0.589      0.420
   215.800     26.000     10.400      0.676      1.008      0.566      0.391    -999.25      0.391      0.566      0.391
   215.900     26.000     10.200      0.692      1.008      0.569      0.413    -999.25      0.413      0.569      0.413
   216.000     26.000      9.800      0.745      1.024      0.586      0.328    -999.25      0.328      0.586      0.328
   216.100     26.000      9.600      0.701      1.051      0.546      0.357    -999.25      0.357      0.546      0.357
   216.200     26.000      9.300      0.721      1.036      0.558      0.390    -999.25      0.390      0.558      0.390
   216.300     26.000      8.800      0.697      1.016      0.611      0.411    -999.25      0.411      0.611      0.411
   216.400     26.000      8.600      0.596      0.980      0.601      0.351    -999.25      0.351      0.601      0.351
   216.500     26.000      8.400      0.719      0.973      0.589      0.378    -999.25      0.378      0.589      0.378
   216.600     26.000      8.200      0.655      0.996      0.570      0.395    -999.25      0.395      0.570      0.395
   216.700     26.000      8.300      0.700      0.931      0.765      0.659    -999.25      0.659      0.765      0.659
   216.800     26.000      8.500      0.749      1.056      0.530      0.314    -999.25      0.314      0.530      0.314
   216.900     26.000      8.400      0.708      0.946      0.622      0.502    -999.25      0.502      0.622      0.502
   217.000     26.000      7.300      0.729      0.977      0.574      0.409    -999.25      0.409      0.574      0.409
   217.100     26.000      6.900      0.624      0.826      0.749      0.910    -999.25      0.910      0.749      0.910
   217.200     26.000      6.300      0.693      0.933      0.501      0.299    -999.25      0.299      0.501      0.299
   217.300     26.000      6.500      0.728      0.938      0.490      0.404    -999.25      0.404      0.490      0.404
   217.400     26.000      5.600      0.607      0.935      0.480      0.266    -999.25      0.266      0.480      0.266
   217.500     26.000      5.800      0.558      0.893      0.477      0.283    -999.25      0.283      0.477      0.283
   217.600     26.000      6.500      0.498      0.904      0.498      0.383    -999.25      0.383      0.498      0.383
   217.700     26.000      6.900      0.522      0.775      0.526      0.319    -999.25      0.319      0.526      0.319
   217.800     26.000      7.400      0.525      0.816      0.492      0.398    -999.25      0.398      0.492      0.398
   217.900     26.000      7.200      0.519      0.775      0.483      0.410    -999.25      0.410      0.483      0.410
   218.000     26.000      6.500      0.458      0.762      0.491      0.353    -999.25      0.353      0.491      0.353
   218.100     26.000      6.700      0.480      0.738      0.517      0.406    -999.25      0.406      0.517      0.406
   218.200     26.000      6.800      0.503      0.765      0.488      0.485    -999.25      0.485      0.488      0.485
   218.300     26.000      7.200      0.535      0.787      0.468      0.492    -999.25      0.492      0.468      0.492
   218.400     26.000      9.000      0.531      0.774      0.475      0.488    -999.25      0.488      0.475      0.488
   218.500     26.000     12.700      0.512      0.736      0.502      0.352    -999.25      0.352      0.502      0.352
   218.600     26.000     13.600      0.516      0.774      0.484      0.341    -999.25      0.341      0.484      0.341
   218.700     26.000     13.600      0.520      0.758      0.485      0.317    -999.25      0.317      0.485      0.317
   218.800     26.000     13.000      0.578      0.806      0.446      0.374    -999.25      0.374      0.446      0.374
   218.900     26.000     10.400      0.606      0.800      0.462      0.337    -999.25      0.337      0.462      0.337
   219.000     26.000      9.300      0.564      0.753      0.471      0.255    -999.25      0.255      0.471      0.255
   219.100     26.000      9.700      0.564      0.797      0.459      0.269    -999.25      0.269      0.459      0.269
   219.200     26.000     12.700      0.587      0.792      0.471      0.248    -999.25      0.248      0.471      0.248
   219.300     26.000     14.200      0.608      0.807      0.463      0.260    -999.25      0.261      0.463      0.260
   219.400     26.000     14.300      0.590      0.810      0.452      0.232    -999.25      0.232      0.452      0.232
   219.500     26.000     14.900      0.568      0.789      0.454      0.244    -999.25      0.244      0.454      0.244
   219.600     26.000     15.500      0.612      0.806      0.436      0.241    -999.25      0.241      0.436      0.241
   219.700     26.000     14.500      0.553      0.795      0.434      0.245    -999.25      0.245      0.434      0.245
   219.800     26.000     14.200      0.608      0.749      0.456      0.304    -999.25      0.304      0.456      0.304
   219.900     26.000     13.500      0.588      0.678      0.422      0.268    -999.25      0.268      0.422      0.268
   220.000     26.000     13.400      0.485      0.672      0.491      0.399    -999.25      0.399      0.491      0.399
   220.100     26.000     13.700      0.486      0.667      0.457      0.401    -999.25      0.401      0.457      0.401
   220.200     26.000     14.100      0.470      0.683      0.437      0.453    -999.25      0.454      0.437      0.453
   220.300     26.000     14.900      0.481      0.630      0.513      0.437    -999.25      0.437      0.513      0.437
   220.400     26.000     15.900      0.507      0.657      0.489      0.440    -999.25      0.440      0.489      0.440
   220.500     26.000     16.400      0.422      0.670      0.454      0.438    -999.25      0.438      0.454      0.438
   220.600     26.000     16.700      0.471      0.751      0.447      0.407    -999.25      0.407      0.447      0.407
   220.700     26.000     16.900      0.739      0.697      0.792      1.292    -999.25      1.292      0.792      1.292
   220.800     26.000     17.100      0.671      0.693      0.731      1.421    -999.25      1.421      0.731      1.421
   220.900     26.000     17.900      0.635      0.760      0.838      1.267    -999.25      1.267      0.838      1.267
   221.000     26.000     18.300      0.658      0.724      0.693      1.355    -999.25      1.355      0.693      1.355
   221.100     26.000     17.800      0.606      0.768      0.630      0.641    -999.25      0.641      0.630      0.641
   221.200     26.000     16.900      0.424      0.835      0.464      0.260    -999.25      0.260      0.464      0.260
   221.300     26.000     15.600      0.775      0.716      0.702      0.431    -999.25      0.431      0.702      0.431
   221.400     26.000     13.800      0.629      0.704      0.781      0.942    -999.25      0.942      0.781      0.942
   221.500     26.000     12.900      0.415      0.642      0.591      1.276    -999.25      1.276      0.591      1.276
   221.600     26.000     12.200      0.392      0.712      0.957      0.478    -999.25      0.478      0.957      0.478
   221.700     26.000     11.500      0.472      0.693      0.718      0.883    -999.25      0.883      0.718      0.883
   221.800     26.000     10.700      0.610      0.675      0.737      1.558    -999.25      1.558      0.737      1.558
   221.900     26.000     11.300      0.520      0.677      0.626      1.046    -999.25      1.046      0.626      1.046
