~Version Information
VERS.                     2.0: CWLS log ASCII Standard Version 2.00
WRAP.                      NO: One line per depth step

~Well Information Block
#MNEM.UNIT                 Value                       Information
#------------              -----                       -----------
STRT.M                     188.500                    :START
STOP.M                     346.700                    :STOP
STEP.M                       0.100                    :STEP
NULL.                     -999.25                     :NULL VALUE
COMP.         STATOIL PETRPOLEUM AS                   :Company
WELL.         15/9-F-11                               :Well
FLD .         VOLVE                                   :Field
LOC .         Maersk Inspirer                         :Location
PROV.                                                 :Province
CNTY.                                                 :County
STATE.                                                 :State
CTRY.         Norway                                  :Country
DATE.                                                 :Log Date
SRVC.                                                 :Service Company
UWI .                                                 :Unique Well Identifier
API .                                                 :API Number
LATI.         058 26' 29.960" N    DMS                :Latitude
LONG.         001 53' 14.870" E    DMS                :Longtitude
PD  .         MSL                                     :Permanent Datum
EDF .M            54.900                              :Elevations D.F.
EGL .M           -91.000                              :Elevations G.L.
WD  .M           -91.000                              :Water Depth
ELZ .M            54.900                              :Elev. Log Zero

~Curve Information
#MNEM   .UNIT             API CODE Curve Description
#------------             -------- -----------------
DEPTH   .M            00 001 00 00:   0  Depth
BS      .inches       00 000 00 00:   1  BS:COMPOSITE:rC:NONE:v1
GR      .API          30 150 01 01:   2  GR:COMPOSITE:rC:NONE:v1
RACEHM  .ohm.m        95 220 00 01:   3  RACEHM:COMPOSITE:rC:NONE:v1
RACELM  .ohm.m        00 524 01 00:   4  RACELM:COMPOSITE:rC:NONE:v1
RD      .ohm.m        00 000 00 00:   5  RD:COMPOSITE:rC:NONE:v1
RM      .ohm.m        00 000 00 00:   6  RM:COMPOSITE:rC:NONE:v1
ROP     .m/hr         00 000 00 00:   7  ROP:COMPOSITE:rC:NONE:v1
RPCEHM  .ohm.m        00 000 00 00:   8  RPCEHM:COMPOSITE:rC:NONE:v1
RPCELM  .ohm.m        00 000 00 00:   9  RPCELM:COMPOSITE:rC:NONE:v1
RT      .ohm.m        00 000 00 00:  10  RT:COMPOSITE:rC:NONE:v1

~Parameter Information
#MNEM.UNIT       Value           Description
#------------    -----           -----------
RUN .         1                 :Run number

~Other Information
PETROPHYSICAL INTERPRETATION: INPUT

# --- LOG MNEMONICS AND UNITS ---
#Depth     BS         GR         RACEHM     RACELM     RD         RM         ROP        RPCEHM     RPCELM     RT        
#M         inches     API        ohm.m      ohm.m      ohm.m      ohm.m      m/hr       ohm.m      ohm.m      ohm.m     

~A
# ...
   201.900     36.000      6.500    -999.25    -999.25    -999.25    -999.25    -999.25    -999.25    -999.25    -999.25
   202.000     36.000      6.800      0.488      0.264    -999.25    -999.25    -999.25      0.392      0.876    -999.25
   202.100     36.000      5.800      0.491      0.342    -999.25    -999.25    -999.25      0.304      0.685    -999.25
   202.200     36.000      3.800      0.494      0.420    -999.25    -999.25    -999.25      0.217      0.494    -999.25
   202.300     36.000      3.500      0.460      0.540    -999.25    -999.25    -999.25      0.220      0.454    -999.25
   202.400     36.000      1.900      0.427      0.660    -999.25    -999.25    -999.25      0.223      0.415    -999.25
   202.500     36.000      1.500      0.393      0.780    -999.25    -999.25    -999.25      0.226      0.376    -999.25
   202.600     36.000      1.700      0.374      0.783    -999.25    -999.25    -999.25      0.235      0.367    -999.25
   202.700     36.000      1.900      0.354      0.786    -999.25    -999.25    -999.25      0.244      0.358    -999.25
   202.800     36.000      1.900      0.350      0.684    -999.25    -999.25    -999.25      0.247      0.347    -999.25
   202.900     36.000      2.100      0.347      0.581    -999.25    -999.25    -999.25      0.249      0.336    -999.25
   203.000     36.000      2.200      0.387      0.554    -999.25    -999.25    -999.25      0.272      0.340    -999.25
   203.100     36.000      2.700      0.427      0.527    -999.25    -999.25    -999.25      0.295      0.344    -999.25
   203.200     36.000      3.000      0.449      0.536    -999.25    -999.25    -999.25      0.335      0.356    -999.25
   203.300     36.000      2.900      0.472      0.546    -999.25    -999.25    -999.25      0.374      0.368    -999.25
   203.400     36.000      2.800      0.461      0.617    -999.25    -999.25    -999.25      0.359      0.400    -999.25
   203.500     36.000      2.800      0.450      0.687    -999.25    -999.25    -999.25      0.343      0.432    -999.25
   203.600     36.000      2.400      0.468      0.719    -999.25    -999.25    -999.25      0.340      0.457    -999.25
   203.700     36.000      2.300      0.487      0.751    -999.25    -999.25    -999.25      0.337      0.482    -999.25
   203.800     36.000      3.300      0.505      0.782    -999.25    -999.25    -999.25      0.334      0.508    -999.25
   203.900     36.000      5.200      0.578      0.923    -999.25    -999.25    -999.25      0.365      0.561    -999.25
   204.000     36.000      5.400      0.652      1.063    -999.25    -999.25    -999.25      0.396      0.614    -999.25
   204.100     36.000      5.400      0.791      1.207    -999.25    -999.25    -999.25      0.480      0.681    -999.25
   204.200     36.000      5.400      0.929      1.351    -999.25    -999.25    -999.25      0.565      0.748    -999.25
   204.300     36.000      5.600      1.167      1.388    -999.25    -999.25    -999.25      0.555      0.747    -999.25
   204.400     36.000      6.400      1.404      1.424    -999.25    -999.25    -999.25      0.544      0.745    -999.25
   204.500     36.000      6.600      1.642      1.461    -999.25    -999.25    -999.25      0.534      0.743    -999.25
   204.600     36.000      6.400      1.801      1.463    -999.25    -999.25    -999.25      0.489      0.733    -999.25
   204.700     36.000      6.200      1.959      1.466    -999.25    -999.25    -999.25      0.443      0.723    -999.25
   204.800     36.000      6.400      1.680      1.426    -999.25    -999.25    -999.25      0.415      0.711    -999.25
   204.900     36.000      7.500      1.401      1.386    -999.25    -999.25    -999.25      0.387      0.698    -999.25
   205.000     36.000      7.900      1.312      1.381    -999.25    -999.25    -999.25      0.375      0.688    -999.25
   205.100     36.000      7.200      1.222      1.376    -999.25    -999.25    -999.25      0.364      0.678    -999.25
   205.200     36.000      4.300      1.133      1.372    -999.25    -999.25    -999.25      0.352      0.668    -999.25
   205.300     36.000      3.700      1.017      1.408    -999.25    -999.25    -999.25      0.351      0.653    -999.25
   205.400     36.000      3.900      0.900      1.445    -999.25    -999.25    -999.25      0.349      0.637    -999.25
   205.500     36.000      4.400      0.916      1.470    -999.25    -999.25    -999.25      0.347      0.644    -999.25
   205.600     36.000      4.800      0.932      1.496    -999.25    -999.25    -999.25      0.344      0.650    -999.25
   205.700     36.000      5.100      0.947      1.521    -999.25    -999.25    -999.25      0.342      0.657    -999.25
   205.800     36.000      5.300      1.076      1.542    -999.25    -999.25    -999.25      0.350      0.670    -999.25
   205.900     36.000      6.000      1.205      1.564    -999.25    -999.25    -999.25      0.357      0.684    -999.25
   206.000     36.000      6.100      1.133      1.560    -999.25    -999.25    -999.25      0.367      0.710    -999.25
   206.100     36.000      6.900      1.062      1.557    -999.25    -999.25    -999.25      0.378      0.736    -999.25
   206.200     36.000      6.300      0.991      1.554    -999.25    -999.25    -999.25      0.388      0.763    -999.25
   206.300     36.000      6.000      1.063      1.506    -999.25    -999.25    -999.25      0.415      0.766    -999.25
   206.400     36.000      7.000      1.134      1.459    -999.25    -999.25    -999.25      0.442      0.770    -999.25
   206.500     36.000      6.800      1.108      1.451    -999.25    -999.25    -999.25      0.444      0.761    -999.25
   206.600     36.000      6.700      1.082      1.444    -999.25    -999.25    -999.25      0.447      0.751    -999.25
   206.700     36.000      7.600      1.056      1.437    -999.25    -999.25    -999.25      0.449      0.742    -999.25
   206.800     36.000      9.300      0.980      1.428    -999.25    -999.25    -999.25      0.426      0.719    -999.25
   206.900     36.000     11.100      0.904      1.419    -999.25    -999.25    -999.25      0.403      0.697    -999.25
   207.000     36.000     11.000      0.828      1.411    -999.25    -999.25    -999.25      0.379      0.674    -999.25
   207.100     36.000      9.700      0.842      1.374    -999.25    -999.25    -999.25      0.340      0.645    -999.25
   207.200     36.000      8.700      0.857      1.337    -999.25    -999.25    -999.25      0.301      0.615    -999.25
   207.300     36.000      6.900      0.832      1.336    -999.25    -999.25    -999.25      0.296      0.602    -999.25
   207.400     36.000      7.300      0.808      1.334    -999.25    -999.25    -999.25      0.290      0.589    -999.25
   207.500     36.000      6.600      0.783      1.333    -999.25    -999.25    -999.25      0.286      0.576    -999.25
   207.600     36.000      6.900      0.814      1.263    -999.25    -999.25    -999.25      0.273      0.568    -999.25
   207.700     36.000      7.500      0.846      1.192    -999.25    -999.25    -999.25      0.261      0.561    -999.25
   207.800     36.000      7.300      0.654      1.065    -999.25    -999.25    -999.25      0.244      0.508    -999.25
   207.900     36.000      8.100      0.462      0.937    -999.25    -999.25    -999.25      0.227      0.456    -999.25
   208.000     26.000      7.800      0.475      0.687    -999.25    -999.25    -999.25      0.232      0.380    -999.25
   208.100     26.000      7.600      0.380      0.616    -999.25    -999.25    -999.25      0.243      0.380    -999.25
   208.200     26.000      7.900      0.377      0.551    -999.25    -999.25    -999.25      0.266      0.353    -999.25
   208.300     26.000      8.500      0.353      0.599    -999.25    -999.25    -999.25      0.258      0.368    -999.25
   208.400     26.000      8.400      0.387      0.568    -999.25    -999.25    -999.25      0.283      0.359    -999.25
   208.500     26.000      8.500      0.420      0.539    -999.25    -999.25    -999.25      0.309      0.351    -999.25
