~Version Information
VERS.                     2.0: CWLS log ASCII Standard Version 2.00
WRAP.                      NO: One line per depth step

~Well Information Block
#MNEM.UNIT                 Value                       Information
#------------              -----                       -----------
STRT.M                   3465.0000                    :START
STOP.M                   4684.7000                    :STOP
STEP.M                      0.1000                    :STEP
NULL.                     -999.25                     :NULL VALUE
COMP.         STATOIL PETROLEUM AS                    :Company
WELL.         15/9-F-15 D                             :Well
FLD .         VOLVE                                   :Field
LOC .                                                 :Location
PROV.                                                 :Province
CNTY.         MAERSK INSPIRER                         :County
STATE.                                                 :State
CTRY.         NORWAY                                  :Country
DATE.                                                 :Log Date
SRVC.                                                 :Service Company
UWI .                                                 :Unique Well Identifier
API .                                                 :API Number
LATI.         058 26' 29.706" N    DMS                :Latitude
LONG.         001 53' 15.149" E    DMS                :Longtitude
PD  .         MSL                                     :Permanent Datum
EDF .M                54.9000                         :Elevations D.F.
EGL .M               -91.0000                         :Elevations G.L.
ELZ .M                54.9000                         :Elev. Log Zero
LMF .         DF                                      :Log Measured From
MP  .         DF                                      :Drill Measured From

~Curve Information
#MNEM   .UNIT             API CODE Curve Description
#------------             -------- -----------------
DEPTH   .M            00 001 00 00:   0  Depth
BVW     .v/v          00 000 00 00:   1  BVW:CPI:rC:0001:v1
COAL_FLAG.unitless    00 000 00 00:   2  COAL_FLAG:CPI:rC:0001:v1
KLOGH   .mD           00 000 00 00:   3  KLOGH:CPI:rC:0001:v1
PHIF    .v/v          00 000 00 00:   4  PHIF:CPI:rC:0001:v1
SAND_FLAG.unitless    00 000 00 00:   5  SAND_FLAG:CPI:rC:0001:v1
SW      .v/v          00 000 00 00:   6  SW:CPI:rC:0001:v1
VCARB   .v/v          00 000 00 00:   7  VCARB:CPI:rC:0001:v1
VSH     .v/v          00 000 00 00:   8  VSH:CPI:rC:0001:v1

~Parameter Information
#MNEM.UNIT       Value           Description
#------------    -----           -----------
RUN .         .                 :Run Number

~Other Information
PETROPHYSICAL INTERPRETATION: OUTPUT

# --- LOG MNEMONICS AND UNITS ---
#Depth          BVW             COAL_FLAG       KLOGH           PHIF            SAND_FLAG       SW              VCARB           VSH            
#M              v/v             unitless        mD              v/v             unitless        v/v             v/v             v/v            

~A
# ...
      3784.2000          0.0317          0.0000        890.0375          0.2278          1.0000          0.1392          0.0000          0.0970
      3784.3000          0.0320          0.0000       1049.3910          0.2280          1.0000          0.1403          0.0000          0.0893
      3784.4000          0.0314          0.0000       1111.1394          0.2273          1.0000          0.1381          0.0000          0.0859
      3784.5000          0.0317          0.0000       1098.5288          0.2258          1.0000          0.1406          0.0000          0.0851
      3784.6000          0.0318          0.0000        861.2253          0.2241          1.0000          0.1421          0.0000          0.0953
      3784.7000          0.0315          0.0000        765.0482          0.2227          1.0000          0.1416          0.0000          0.0997
      3784.8000          0.0315          0.0000        585.2252          0.2215          1.0000          0.1422          0.0000          0.1116
      3784.9000          0.0311          0.0000        656.7327          0.2205          1.0000          0.1411          0.0000          0.1052
      3785.0000          0.0312          0.0000        564.4614          0.2195          1.0000          0.1420          0.0000          0.1116
      3785.1000          0.0309          0.0000        573.2632          0.2190          1.0000          0.1409          0.0000          0.1104
      3785.2000          0.0310          0.0000        782.2602          0.2193          1.0000          0.1414          0.0000          0.0957
      3785.3000          0.0310          0.0000        772.5736          0.2203          1.0000          0.1407          0.0000          0.0972
      3785.4000          0.0313          0.0000        788.7200          0.2209          1.0000          0.1416          0.0000          0.0967
      3785.5000          0.0314          0.0000        661.9854          0.2191          1.0000          0.1434          0.0000          0.1036
      3785.6000          0.0312          0.0000        689.9127          0.2143          1.0000          0.1458          0.0000          0.0973
      3785.7000          0.0313          0.0000        404.7648          0.2085          1.0000          0.1502          0.0000          0.1179
      3785.8000          0.0299          0.0000        361.6118          0.2051          1.0000          0.1460          0.0000          0.1203
      3785.9000          0.0278          0.0000        345.2936          0.2062          1.0000          0.1346          0.0000          0.1235
      3786.0000          0.0283          0.0000        342.6416          0.2104          1.0000          0.1347          0.0000          0.1276
      3786.1000          0.0321          0.0000        494.6976          0.2140          1.0000          0.1499          0.0000          0.1131
      3786.2000          0.0331          0.0000        490.8947          0.2143          1.0000          0.1542          0.0000          0.1137
      3786.3000          0.0336          0.0000        688.1495          0.2116          1.0000          0.1587          0.0000          0.0950
      3786.4000          0.0334          0.0000        743.6503          0.2090          1.0000          0.1597          0.0000          0.0890
      3786.5000          0.0327          0.0000        563.5817          0.2084          1.0000          0.1569          0.0000          0.1018
      3786.6000          0.0321          0.0000        513.7257          0.2094          1.0000          0.1531          0.0000          0.1072
      3786.7000          0.0325          0.0000        400.5871          0.2104          1.0000          0.1545          0.0000          0.1201
      3786.8000          0.0328          0.0000        438.3313          0.2105          1.0000          0.1559          0.0000          0.1158
      3786.9000          0.0324          0.0000        476.3525          0.2096          1.0000          0.1544          0.0000          0.1110
      3787.0000          0.0333          0.0000        438.4847          0.2082          1.0000          0.1600          0.0000          0.1137
      3787.1000          0.0341          0.0000        348.9981          0.2064          1.0000          0.1652          0.0000          0.1231
      3787.2000          0.0335          0.0000        350.7286          0.2047          1.0000          0.1638          0.0000          0.1214
      3787.3000          0.0334          0.0000        334.6195          0.2041          1.0000          0.1635          0.0000          0.1232
      3787.4000          0.0333          0.0000        331.2531          0.2057          1.0000          0.1621          0.0000          0.1250
      3787.5000          0.0344          0.0000        376.7259          0.2088          1.0000          0.1649          0.0000          0.1216
      3787.6000          0.0355          0.0000        464.6070          0.2122          1.0000          0.1675          0.0000          0.1145
      3787.7000          0.0344          0.0000        460.4836          0.2144          1.0000          0.1604          0.0000          0.1169
      3787.8000          0.0335          0.0000        558.7092          0.2151          1.0000          0.1558          0.0000          0.1082
      3787.9000          0.0335          0.0000        531.8462          0.2146          1.0000          0.1559          0.0000          0.1102
      3788.0000          0.0337          0.0000        394.4964          0.2156          1.0000          0.1564          0.0000          0.1254
      3788.1000          0.0338          0.0000        405.5379          0.2134          1.0000          0.1586          0.0000          0.1221
      3788.2000          0.0337          0.0000        346.8189          0.2127          1.0000          0.1586          0.0000          0.1291
      3788.3000          0.0338          0.0000        288.3216          0.2124          1.0000          0.1591          0.0000          0.1377
      3788.4000          0.0336          0.0000        428.7175          0.2136          1.0000          0.1573          0.0000          0.1196
      3788.5000          0.0336          0.0000        530.4200          0.2170          1.0000          0.1550          0.0000          0.1123
      3788.6000          0.0340          0.0000        509.7061          0.2216          1.0000          0.1534          0.0000          0.1184
      3788.7000          0.0342          0.0000        636.7029          0.2252          1.0000          0.1518          0.0000          0.1109
      3788.8000          0.0343          0.0000        629.6432          0.2263          1.0000          0.1515          0.0000          0.1123
      3788.9000          0.0343          0.0000        535.9022          0.2255          1.0000          0.1523          0.0000          0.1194
      3789.0000          0.0344          0.0000        454.0101          0.2241          1.0000          0.1533          0.0000          0.1262
      3789.1000          0.0343          0.0000        391.4457          0.2234          1.0000          0.1535          0.0000          0.1327
      3789.2000          0.0342          0.0000        437.8879          0.2233          1.0000          0.1531          0.0000          0.1272
      3789.3000          0.0342          0.0000        372.7543          0.2239          1.0000          0.1528          0.0000          0.1355
      3789.4000          0.0341          0.0000        368.9436          0.2245          1.0000          0.1521          0.0000          0.1366
      3789.5000          0.0341          0.0000        371.1222          0.2250          1.0000          0.1515          0.0000          0.1367
      3789.6000          0.0343          0.0000        358.2144          0.2251          1.0000          0.1523          0.0000          0.1385
      3789.7000          0.0344          0.0000        466.5858          0.2244          1.0000          0.1533          0.0000          0.1252
