~Version Information
VERS.                     2.0: CWLS log ASCII Standard Version 2.00
WRAP.                      NO: One line per depth step

~Well Information Block
#MNEM       .UNIT          Value                       Information
#-------------------------------------------------------------------------
STRT        .M             3102.102                    :START
STOP        .M             3505.8096                   :STOP
STEP        .M             0.1524                      :STEP
NULL        .              -999.25                     :NULL VALUE
COMP        .              STATOILHYDRO                :COMPANY
WELL        .              15/9-F-12                   :WELL
FLD         .              VOLVE                       :FIELD
LOC         .              UNKNOWN                     :LOCATION
CNTY        .              UNKNOWN                     :COUNTY
STAT        .              UNKNOWN                     :STATE
CTRY        .              Norway                      :COUNTRY
SRVC        .              UNKNOWN                     :SERVICE COMPANY
DATE        .              UNKNOWN                     :LOG DATE
UWI         .              NO 15/9-F-12                :UNIQUE WELL ID
XCOORD      .              435050.170000               :SURFACE X
YCOORD      .              6478574.700000              :SURFACE Y
LAT         .              58.441713                   :LATITUDE
LON         .              1.887480                    :LONGITUDE
ELEV        .M             54.9000                     :SURFACE ELEV
ELEV_TYPE   .              KB                          :ELEV TYPE

~Curve Information
#MNEM       .UNIT             API CODE : Curve Description
#-------------------------------------------------------------------------
DEPTH       .M                UNKNOWN  : Measured Dept
BVW         .v/v_decimal      UNKNOWN  : BVW:UNKNOWN:rC:NONE:v1
KLOGH       .mD               UNKNOWN  : KLOGH:UNKNOWN:rC:NONE:v1
PHIF        .v/v_decimal      UNKNOWN  : PHIF:UNKNOWN:rC:NONE:v1
SW          .v/v_decimal      UNKNOWN  : SW:UNKNOWN:rC:NONE:v1
VSH         .v/v_decimal      UNKNOWN  : VSH:UNKNOWN:rC:NONE:v1
# --- LOG MNEMONICS AND UNITS ---
#Depth     BVW        KLOGH      PHIF       SW         VSH       
#M         v/v_decima mD         v/v_decima v/v_decima v/v_decima
~A
# ...
 3436.7724 0.10379999 0.00520000 0.10379999          1 0.74779999
 3436.9248 0.10379999 0.00520000 0.10379999          1 0.74639999
 3437.0772 0.09960000 0.00480000 0.09960000          1 0.73269999
 3437.2296 0.09130000 0.00410000 0.09130000          1 0.70709997
  3437.382 0.08299999 0.00350000 0.08299999          1 0.68150001
 3437.5344 0.07689999 0.00289999 0.07689999          1 0.67540001
 3437.6868 0.07850000 0.00200000 0.07850000          1 0.73659998
 3437.8392 0.08020000 0.00139999 0.08020000          1 0.79780000
 3437.9916 0.08190000 0.00100000 0.08190000          1 0.85900002
  3438.144 0.08669999 0.00109999 0.08669999          1 0.87180000
 3438.2964 0.09170000 0.00130000 0.09170000          1 0.88179999
 3438.4488 0.09459999 0.00139999 0.09669999 0.97860002 0.89179998
 3438.6012 0.09529999 0.00159999 0.09730000 0.98040002 0.87589997
 3438.7536 0.09560000 0.00190000 0.09560000          1 0.84680002
  3438.906 0.09390000 0.00209999 0.09390000          1 0.81779998
 3439.0584 0.09480000 0.00260000 0.09480000          1 0.79589998
 3439.2108 0.09979999 0.00340000 0.09979999          1 0.78539997
 3439.3632 0.10480000 0.00449999 0.10480000          1 0.77499997
 3439.5156 0.10710000 0.00520000 0.10710000          1 0.76490002
  3439.668 0.08540000 0.00230000 0.08540000          1 0.75840002
 3439.8204 0.06379999 0.00100000 0.06379999          1 0.75190001
 3439.9728 0.04210000 0.00100000 0.04210000          1 0.74540001
 3440.1252 0.03689999 0.00100000 0.03689999          1 0.78689998
 3440.2776 0.03519999 0.00100000 0.03519999          1 0.83890002
   3440.43 0.03359999 0.00100000 0.03359999          1 0.89079999
 3440.5824 0.04809999 0.00100000 0.04809999          1 0.92210000
 3440.7348 0.07639999 0.00100000 0.07639999          1 0.93580001
 3440.8872 0.10469999 0.00130000 0.10469999          1 0.94959998
 3441.0396 0.12909999 0.00449999 0.12909999          1 0.91409999
  3441.192 0.14249999 0.02590000 0.14249999          1 0.73849999
 3441.3444 0.15579999 0.14859999 0.15579999          1 0.56290000
 3441.4968 0.16910000 0.85269999 0.16910000          1 0.38730001
 3441.6492 0.17720000 3.64450001 0.20149999 0.87940001 0.36509999
 3441.8016 0.17649999 3.76259994 0.19910000 0.88639998 0.34619998
  3441.954 0.17569999 3.88439989 0.19660000 0.89370000 0.32730001
 3442.1064 0.17470000 4.15840005 0.19629999 0.88999998 0.31560000
 3442.2588 0.17360000 4.52209997 0.19689999 0.88169997 0.30709999
 3442.4112 0.17260000 4.91760015 0.19760000 0.87349998 0.29859998
 3442.5636 0.17069999 5.19110012 0.19750000 0.86419999 0.29019999
  3442.716 0.16769999 5.25699996 0.19640000 0.85369998 0.28220000
 3442.8684 0.16480000 5.32380008 0.19529999 0.84380000 0.27410000
 3443.0208 0.16230000 5.48489999 0.19439999 0.83459997 0.26469999
 3443.1732 0.16079999 6.30030012 0.19470000 0.82620000 0.24600000
 3443.3256 0.15940000 7.23699998 0.19490000 0.81790000 0.22730000
  3443.478 0.15809999 8.31299972 0.19519999 0.80989998 0.20870000
 3443.6304 0.15469999 7.66970014 0.19529999 0.79229998 0.22120000
 3443.7828 0.15129999 6.81930017 0.19539999 0.77420002 0.23890000
 3443.9352 0.14810000 6.06330013 0.19550000 0.75730001 0.25659999
 3444.0876 0.14779999 6.05480003 0.19609999 0.75379997 0.25970000
   3444.24 0.14959999 6.58879995 0.19679999 0.75989997 0.25209999
 3444.3924 0.15150000 7.16979980 0.19760000 0.76630002 0.24449999
 3444.5448 0.15350000 7.38990020 0.19689999 0.77929997 0.23589999
 3444.6972 0.15569999 6.68580007 0.19259999 0.80870002 0.22509999
 3444.8496 0.15809999 6.04869985 0.18819999 0.83999997 0.21430000
  3445.002 0.16050000 5.49060010 0.18389999 0.87290000 0.20350000
 3445.1544 0.16200000 6.39680004 0.18690000 0.86669999 0.19869999
 3445.3068 0.16349999 7.45270013 0.18989999 0.86089998 0.19390000
 3445.4592 0.16500000 8.68280029 0.19290000 0.85549998 0.18919999
 3445.6116 0.16629999 8.92529964 0.19490000 0.85350000 0.19689999
  3445.764 0.16760000 8.76410007 0.19660000 0.85269999 0.20929999
 3445.9164 0.16889999 8.60579967 0.19830000 0.85210001 0.22169999
 3446.0688 0.16850000 8.22570037 0.19779999 0.85199999 0.22519999
 3446.2212 0.16590000 7.60920000 0.19449999 0.85269999 0.21789999
 3446.3736 0.16339999 7.03889989 0.19130000 0.85409998 0.21060000
  3446.526 0.16130000 6.31769990 0.18760000 0.85949999 0.20469999
 3446.6784 0.16009999 4.89629983 0.18140000 0.88239997 0.20579999
 3446.8308 0.15899999 3.79469990 0.17530000 0.90700000 0.20679999
 3446.9832 0.15780000 2.94090008 0.16910000 0.93349999 0.20790000
 3447.1356 0.13220000 0.73170000 0.13220000          1 0.19509999
  3447.288 0.12720000 0.66189998 0.12720000          1 0.18070000
 3447.4404 0.12219999 0.59869998 0.12219999          1 0.16619999
 3447.5928 0.12020000 0.55430001 0.12020000          1 0.16599999
 3447.7452 0.12020000 0.52079999 0.12020000          1 0.17499999
 3447.8976 0.12020000 0.48930001 0.12020000          1 0.18410000
   3448.05 0.12080000 0.46869999 0.12080000          1 0.19349999
 3448.2024 0.15639999 1.82280004 0.15639999          1 0.20360000
 3448.3548 0.15770000 1.78779995 0.15770000          1 0.21379999
 3448.5072 0.15970000 1.79960000 0.15970000          1 0.22429999
 3448.6596 0.16419999 3.05929994 0.17579999 0.93409997 0.24099999
  3448.812 0.15960000 5.20069980 0.19189999 0.83160001 0.25780001
 3448.9644 0.15539999 8.84109973 0.20810000 0.74690002 0.27459999
 3449.1168 0.15469999 11.0338001 0.21299999 0.72600001 0.27129998
 3449.2692 0.15489999 12.5325002 0.21459999 0.72189998 0.26199999
 3449.4216 0.15520000 14.2347002 0.21619999 0.71789997 0.25260001
  3449.574 0.15690000 14.5006999 0.21570000 0.72759997 0.24729999
 3449.7264 0.16050000 13.1627998 0.21310000 0.75309997 0.24629999
 3449.8788 0.16429999 11.9483003 0.21050000 0.78039997 0.24529999
 3450.0312 0.16840000 11.0128002 0.20819999 0.80879998 0.24349999
 3450.1836 0.17280000 10.7706003 0.20669999 0.83590000 0.23839999
  3450.336 0.17759999 10.5336999 0.20530000 0.86510002 0.23319999
 3450.4884 0.18279999 10.3021001 0.20389999 0.89679998 0.22810000
 3450.6408 0.18209999 10.9306001 0.20690000 0.88020002 0.23700000
 3450.7932 0.18089999 11.6756000 0.21029999 0.86019998 0.24699999
 3450.9456 0.17970000 12.4714002 0.21359999 0.84109997 0.25709998
  3451.098 0.18129999 11.4785995 0.21379999 0.84820002 0.26989999
 3451.2504 0.18469999 9.72669982 0.21209999 0.87059998 0.28439998
 3451.4028 0.18819999 8.24230003 0.21050000 0.89429998 0.29879999
 3451.5552 0.18979999 7.72989988 0.20970000 0.90509998 0.30329999
 3451.7076     0.1875 8.66699981 0.21029999 0.89139997 0.29049998
   3451.86 0.18520000 9.71770000 0.21089999 0.87819999 0.27759999
 3452.0124 0.17499999 2.47790002 0.17499999          1 0.26699998
 3452.1648 0.17669999 2.38630008 0.17669999          1 0.28209999
 3452.3172 0.18410000 8.65919971 0.21140000 0.87089997 0.29719999
 3452.4696 0.18459999 7.78889989 0.21140000 0.87309998 0.31229999
  3452.622 0.18569999 9.35840034 0.21269999 0.87319999 0.29309999
 3452.7744 0.18709999 12.0850000 0.21430000 0.87300002 0.26539999
 3452.9268 0.18840000 15.6061000 0.21590000 0.87290000 0.23759999
 3453.0792 0.18860000 17.1077003 0.21690000 0.86949998 0.23049999
 3453.2316 0.18770000 16.1184997 0.21750000 0.86299997 0.24240000
  3453.384 0.18680000 15.1864995 0.21809999 0.85650002 0.25440001
 3453.5364 0.18619999 13.9430999 0.21789999 0.85460001 0.26579999
 3453.6888 0.18670000 11.7887001 0.21539999 0.86659997 0.27529999
 3453.8412 0.18709999 9.96730041 0.21279999 0.87900000 0.28490000
 3453.9936     0.1875 8.42720031 0.21029999 0.89170002 0.29449999
  3454.146 0.18580000 8.20189952 0.20890000 0.88959997 0.29019999
 3454.2984 0.18410000 8.03199958 0.20749999 0.88709998 0.28519999
 3454.4508 0.18240000 7.86560010 0.20610000 0.88480001 0.28029999
 3454.6032 0.18269999 8.38319969 0.20579999 0.88749998 0.26940000
 3454.7556 0.18400000 9.30290031 0.20610000 0.89259999 0.25580000
  3454.908 0.18529999 10.3234996 0.20630000 0.89780002 0.24210000
 3455.0604 0.18680000 11.9279003 0.20780000 0.89869999 0.22980000
 3455.2128 0.18860000 14.6554002 0.21119999 0.89289999 0.21969999
