~Version Information
VERS.                     2.0: CWLS log ASCII Standard Version 2.00
WRAP.                      NO: One line per depth step

~Well Information Block
#MNEM.UNIT                 Value                       Information
#------------              -----                       -----------
STRT.M                     188.500                    :START
STOP.M                     346.700                    :STOP
STEP.M                       0.100                    :STEP
NULL.                     -999.25                     :NULL VALUE
COMP.         STATOIL PETRPOLEUM AS                   :Company
WELL.         15/9-F-11                               :Well
FLD .         VOLVE                                   :Field
LOC .         Maersk Inspirer                         :Location
PROV.                                                 :Province
CNTY.                                                 :County
STATE.                                                 :State
CTRY.         Norway                                  :Country
DATE.                                                 :Log Date
SRVC.                                                 :Service Company
UWI .                                                 :Unique Well Identifier
API .                                                 :API Number
LATI.         058 26' 29.960" N    DMS                :Latitude
LONG.         001 53' 14.870" E    DMS                :Longtitude
PD  .         MSL                                     :Permanent Datum
EDF .M            54.900                              :Elevations D.F.
EGL .M           -91.000                              :Elevations G.L.
WD  .M           -91.000                              :Water Depth
ELZ .M            54.900                              :Elev. Log Zero

~Curve Information
#MNEM   .UNIT             API CODE Curve Description
#------------             -------- -----------------
DEPTH   .M            00 001 00 00:   0  Depth
BS      .inches       00 000 00 00:   1  BS:COMPOSITE:rC:NONE:v1
GR      .API          30 150 01 01:   2  GR:COMPOSITE:rC:NONE:v1
RACEHM  .ohm.m        95 220 00 01:   3  RACEHM:COMPOSITE:rC:NONE:v1
RACELM  .ohm.m        00 524 01 00:   4  RACELM:COMPOSITE:rC:NONE:v1
RD      .ohm.m        00 000 00 00:   5  RD:COMPOSITE:rC:NONE:v1
RM      .ohm.m        00 000 00 00:   6  RM:COMPOSITE:rC:NONE:v1
ROP     .m/hr         00 000 00 00:   7  ROP:COMPOSITE:rC:NONE:v1
RPCEHM  .ohm.m        00 000 00 00:   8  RPCEHM:COMPOSITE:rC:NONE:v1
RPCELM  .ohm.m        00 000 00 00:   9  RPCELM:COMPOSITE:rC:NONE:v1
RT      .ohm.m        00 000 00 00:  10  RT:COMPOSITE:rC:NONE:v1

~Parameter Information
#MNEM.UNIT       Value           Description
#------------    -----           -----------
RUN .         1                 :Run number

~Other Information
PETROPHYSICAL INTERPRETATION: INPUT

# --- LOG MNEMONICS AND UNITS ---
#Depth     BS         GR         RACEHM     RACELM     RD         RM         ROP        RPCEHM     RPCELM     RT        
#M         inches     API        ohm.m      ohm.m      ohm.m      ohm.m      m/hr       ohm.m      ohm.m      ohm.m     

~A
# ...
   208.600     26.000      8.500      0.386      0.524    -999.25    -999.25    -999.25      0.296      0.356    -999.25
   208.700     26.000      8.800      0.434      0.534    -999.25    -999.25    -999.25      0.298      0.379    -999.25
   208.800     26.000      8.000      0.484      0.464    -999.25    -999.25    -999.25      0.319      0.357    -999.25
   208.900     26.000      7.600      0.448      0.459      0.352      0.293    -999.25      0.293      0.352      0.293
   209.000     26.000      8.200      0.532      0.425      0.335      0.952    -999.25      0.952      0.335      0.952
   209.100     26.000      8.500      0.490      0.493      0.578      0.789    -999.25      0.789      0.578      0.789
   209.200     26.000      8.300      0.511      0.466      0.577      0.809    -999.25      0.809      0.577      0.809
   209.300     26.000      9.100      0.604      0.511      0.407      0.432    -999.25      0.432      0.407      0.432
   209.400     26.000      9.100      0.516      0.483      0.343      0.881    -999.25      0.881      0.343      0.881
   209.500     26.000      9.800      0.565      0.583      0.442      0.413    -999.25      0.413      0.442      0.413
   209.600     26.000      9.600      0.557      0.588      0.468      0.341    -999.25      0.341      0.468      0.341
   209.700     26.000     10.500      0.475      0.547      0.434      0.356    -999.25      0.356      0.434      0.356
   209.800     26.000     11.900      0.493      0.596      0.445      0.356    -999.25      0.356      0.445      0.356
   209.900     26.000     14.200      0.602      0.601      0.428      0.388    -999.25      0.388      0.428      0.388
   210.000     26.000     15.600      0.417      0.614      0.467      0.325    -999.25      0.325      0.467      0.325
   210.100     26.000     16.400      0.505      0.624      0.474      0.388    -999.25      0.388      0.474      0.388
   210.200     26.000     16.900      0.402      0.751      0.851      0.390    -999.25      0.390      0.851      0.390
   210.300     26.000     16.600      0.525      0.681      0.508      0.345    -999.25      0.345      0.508      0.345
   210.400     26.000     14.600      0.505      0.628      0.470      0.379    -999.25      0.379      0.470      0.379
   210.500     26.000     13.600      0.498      0.663      0.447      0.464    -999.25      0.464      0.447      0.464
   210.600     26.000     14.400      0.421      0.784      0.475      0.370    -999.25      0.370      0.475      0.370
   210.700     26.000     15.400      0.422      0.690      0.460      0.358    -999.25      0.358      0.460      0.358
   210.800     26.000     16.900      0.444      0.720      0.487      0.403    -999.25      0.403      0.487      0.403
   210.900     26.000     17.300      0.515      0.721      0.514      0.360    -999.25      0.360      0.514      0.360
   211.000     26.000     18.000      0.572      0.796      0.531      0.504    -999.25      0.504      0.531      0.504
   211.100     26.000     18.200      0.639      0.719      0.551      0.613    -999.25      0.613      0.551      0.613
   211.200     26.000     17.000      0.637      0.744      0.576      0.414    -999.25      0.414      0.576      0.414
   211.300     26.000     15.500      0.756      0.785      0.557      0.369    -999.25      0.369      0.557      0.369
   211.400     26.000     13.900      0.734      0.807      0.545      0.312    -999.25      0.312      0.545      0.312
   211.500     26.000     13.100      0.745      0.851      0.529      0.482    -999.25      0.482      0.529      0.482
   211.600     26.000     12.100      0.686      0.854      0.503      0.279    -999.25      0.279      0.503      0.279
   211.700     26.000     12.100      0.634      0.846      0.488      0.238    -999.25      0.238      0.488      0.238
   211.800     26.000     10.600      0.592      0.825      0.470      0.240    -999.25      0.240      0.470      0.240
   211.900     26.000     10.900      0.577      0.751      0.476      0.246    -999.25      0.246      0.476      0.246
   212.000     26.000     10.900      0.510      0.648      0.506      0.393    -999.25      0.393      0.506      0.393
   212.100     26.000     10.300      0.540      0.713      0.629      0.664    -999.25      0.664      0.629      0.664
   212.200     26.000     10.700      0.589      0.697      0.671      0.847    -999.25      0.847      0.671      0.847
   212.300     26.000     11.200      0.573      0.656      0.638      0.915    -999.25      0.915      0.637      0.915
   212.400     26.000     11.200      0.624      0.684      0.664      0.867    -999.25      0.867      0.664      0.867
   212.500     26.000     10.800      0.578      0.709      0.653      0.818    -999.25      0.818      0.653      0.818
   212.600     26.000     11.200      0.595      0.744      0.623      0.793    -999.25      0.793      0.623      0.793
   212.700     26.000     11.100      0.542      0.744      0.614      0.617    -999.25      0.617      0.614      0.617
   212.800     26.000     10.700      0.633      0.713      0.618      0.562    -999.25      0.562      0.618      0.562
   212.900     26.000     11.100      0.660      0.728      0.642      0.813    -999.25      0.813      0.642      0.813
   213.000     26.000     10.000      0.622      0.747      0.684      0.715    -999.25      0.715      0.684      0.715
   213.100     26.000      9.800      0.675      0.810      0.689      0.823    -999.25      0.823      0.689      0.823
   213.200     26.000      9.600      0.749      0.737      0.761      0.925    -999.25      0.925      0.761      0.925
   213.300     26.000      9.500      0.666      0.766      0.828      1.084    -999.25      1.084      0.828      1.084
   213.400     26.000      9.800      0.649      0.748      0.715      1.034    -999.25      1.034      0.715      1.034
   213.500     26.000      9.900      0.630      0.809      0.658      0.685    -999.25      0.685      0.658      0.685
   213.600     26.000      9.900      0.561      0.745      0.552      0.517    -999.25      0.517      0.552      0.517
   213.700     26.000      9.900      0.555      0.825      0.511      0.368    -999.25      0.368      0.511      0.368
   213.800     26.000      9.200      0.521      0.892      0.440      0.296    -999.25      0.296      0.440      0.296
   213.900     26.000      8.400      0.473      0.886      0.446      0.278    -999.25      0.278      0.446      0.278
   214.000     26.000      8.000      0.484      0.875      0.464      0.303    -999.25      0.303      0.464      0.303
   214.100     26.000      8.400      0.563      0.917      0.445      0.309    -999.25      0.309      0.444      0.309
   214.200     26.000      8.200      0.544      0.964      0.453      0.302    -999.25      0.302      0.453      0.302
   214.300     26.000      7.800      0.584      0.863      0.531      0.398    -999.25      0.398      0.531      0.398
   214.400     26.000      7.900      0.644      0.956      0.526      0.434    -999.25      0.434      0.526      0.434
   214.500     26.000      7.700      0.794      1.005      0.536      0.307    -999.25      0.307      0.536      0.307
   214.600     26.000      8.300      0.677      0.987      0.563      0.269    -999.25      0.269      0.563      0.269
   214.700     26.000      9.300      0.709      0.964      0.576      0.335    -999.25      0.335      0.576      0.335
   214.800     26.000      9.700      0.698      0.968      0.530      0.357    -999.25      0.357      0.530      0.357
   214.900     26.000     10.300      0.663      0.987      0.512      0.327    -999.25      0.327      0.512      0.327
   215.000     26.000      9.900      0.594      1.010      0.492      0.313    -999.25      0.313      0.492      0.313
   215.100     26.000     10.100      0.569      0.917      0.505      0.297    -999.25      0.297      0.505      0.297
   215.200     26.000      9.100      0.549      0.940      0.481      0.344    -999.25      0.344      0.481      0.344
