~Version Information
VERS.                     2.0: CWLS log ASCII Standard Version 2.00
WRAP.                      NO: One line per depth step

~Well Information Block
#MNEM.UNIT                 Value                       Information
#------------              -----                       -----------
STRT.M                   3271.0000                    :START
STOP.M                   3631.9000                    :STOP
STEP.M                      0.1000                    :STEP
NULL.                     -999.25                     :NULL VALUE
COMP.         Statoil Petroleum                       :Company
WELL.         15/9-F-1                                :Well
FLD .         VOLVE                                   :Field
LOC .         Maersk Inspirer                         :Location
PROV.                                                 :Province
CNTY.                                                 :County
STATE.                                                 :State
CTRY.                                                 :Country
DATE.                                                 :Log Date
SRVC.                                                 :Service Company
UWI .                                                 :Unique Well Identifier
API .                                                 :API Number
LATI.         058 26' 29.907" N    DMS                :Latitude
LONG.         001 53' 14.708" E    DMS                :Longtitude
PD  .         MSL                                     :Permanent Datum
ELZ .M                 0.0000                         :Elev. Log Zero

~Curve Information
#MNEM   .UNIT             API CODE Curve Description
#------------             -------- -----------------
DEPTH   .M            00 001 00 00:   0  Depth
BVW     .V/V          00 000 00 00:   1  Bound Volume Water
COAL_FLAG.unitless    00 000 00 00:   2  Coal Flag
KLOGH   .MD           00 000 00 00:   3  Calculated Horizontal PERMEABILITY from logs
PHIF    .V/V          00 000 00 00:   4  Final porosity
SAND_FLAG.unitless    00 000 00 00:   5  Sand Flag
SW      .V/V          00 000 00 00:   6  Water Saturation (Archie)
VCARB   .V/V          00 000 00 00:   7  Volume of calcite; dolomite and siderite from log analysis; repo
VSH     .V/V          00 000 00 00:   8  (GR-15)/(250-15)

~Parameter Information
#MNEM.UNIT       Value           Description
#------------    -----           -----------
HLD .         Terms and Conditions.:Header Legal Disclaimer
RUN .         1                 :Run number

~Other Information
PETROPHYSICAL INTERPRETATION: OUTPUT

# --- LOG MNEMONICS AND UNITS ---
#Depth          BVW             COAL_FLAG       KLOGH           PHIF            SAND_FLAG       SW              VCARB           VSH            
#M              V/V             unitless        MD              V/V             unitless        V/V             V/V             V/V            

~A
# ...
      3450.2000          0.0642          0.0000          0.0204          0.0642          0.0000          1.0000          0.1236          0.3191
      3450.3000          0.0796          0.0000          0.0355          0.0796          0.0000          1.0000          0.0648          0.3283
      3450.4000          0.1080          0.0000          0.1026          0.1080          1.0000          1.0000          0.0000          0.3395
      3450.5000          0.1406          0.0000          0.5008          0.1448          1.0000          0.9714          0.0000          0.3230
      3450.6000          0.1763          0.0000          2.0959          0.1763          1.0000          1.0000          0.0000          0.2990
      3450.7000          0.1930          0.0000          4.0992          0.1930          1.0000          1.0000          0.0000          0.2985
      3450.8000          0.1955          0.0000          4.4248          0.1955          1.0000          1.0000          0.0000          0.3017
      3450.9000          0.1914          0.0000          3.8277          0.1914          1.0000          1.0000          0.0000          0.2993
      3451.0000          0.1865          0.0000          2.9957          0.1865          1.0000          1.0000          0.0000          0.3062
      3451.1000          0.1823          0.0000          2.6553          0.1823          1.0000          1.0000          0.0000          0.2996
      3451.2000          0.1778          0.0000          2.0963          0.1778          1.0000          1.0000          0.0000          0.3075
      3451.3000          0.1729          0.0000          1.3172          0.1729          1.0000          1.0000          0.0000          0.3463
      3451.4000          0.1686          0.0000          1.0663          0.1686          1.0000          1.0000          0.0000          0.3518
      3451.5000          0.1659          0.0000          1.1780          0.1659          1.0000          1.0000          0.0000          0.3218
      3451.6000          0.1649          0.0000          1.2356          0.1649          1.0000          1.0000          0.0000          0.3092
      3451.7000          0.1649          0.0000          1.1175          0.1649          1.0000          1.0000          0.0000          0.3238
      3451.8000          0.1653          0.0000          1.1099          0.1653          1.0000          1.0000          0.0000          0.3270
      3451.9000          0.1654          0.0000          1.0774          0.1654          1.0000          1.0000          0.0000          0.3316
      3452.0000          0.1664          0.0000          1.2082          0.1664          1.0000          1.0000          0.0000          0.3213
      3452.1000          0.1693          0.0000          1.3350          0.1708          1.0000          0.9910          0.0000          0.3323
      3452.2000          0.1713          0.0000          1.9129          0.1801          1.0000          0.9512          0.0000          0.3341
      3452.3000          0.1833          0.0000          2.8464          0.1918          1.0000          0.9557          0.0000          0.3444
      3452.4000          0.1989          0.0000          4.1933          0.1995          1.0000          0.9969          0.0000          0.3330
      3452.5000          0.1982          0.0000          4.7474          0.1982          1.0000          1.0000          0.0000          0.3074
      3452.6000          0.1890          0.0000          4.0667          0.1890          1.0000          1.0000          0.0000          0.2765
      3452.7000          0.1768          0.0000          3.1354          0.1768          1.0000          1.0000          0.0000          0.2435
      3452.8000          0.1646          0.0000          2.4719          0.1646          1.0000          1.0000          0.0000          0.2069
      3452.9000          0.1490          0.0000          1.6425          0.1490          1.0000          1.0000          0.0000          0.1755
      3453.0000          0.1287          0.0000          0.7957          0.1287          1.0000          1.0000          0.0790          0.1631
      3453.1000          0.1094          0.0000          0.3646          0.1094          1.0000          1.0000          0.1505          0.1639
      3453.2000          0.1022          0.0000          0.2598          0.1022          1.0000          1.0000          0.1688          0.1712
      3453.3000          0.1114          0.0000          0.3173          0.1114          1.0000          1.0000          0.1040          0.1954
      3453.4000          0.1302          0.0000          0.6494          0.1302          1.0000          1.0000          0.0321          0.2008
      3453.5000          0.1472          0.0000          1.1204          0.1472          1.0000          1.0000          0.0000          0.2204
      3453.6000          0.1551          0.0000          1.4842          0.1551          1.0000          1.0000          0.0000          0.2260
      3453.7000          0.1552          0.0000          1.4574          0.1552          1.0000          1.0000          0.0000          0.2292
      3453.8000          0.1534          0.0000          1.2701          0.1534          1.0000          1.0000          0.0000          0.2384
      3453.9000          0.1547          0.0000          1.3968          0.1547          1.0000          1.0000          0.0000          0.2322
      3454.0000          0.1595          0.0000          1.7224          0.1595          1.0000          1.0000          0.0000          0.2295
      3454.1000          0.1660          0.0000          2.6629          0.1660          1.0000          1.0000          0.0000          0.2044
      3454.2000          0.1734          0.0000          3.7734          0.1734          1.0000          1.0000          0.0000          0.1967
      3454.3000          0.1804          0.0000          4.7436          0.1804          1.0000          1.0000          0.0000          0.2042
      3454.4000          0.1830          0.0000          4.5168          0.1830          1.0000          1.0000          0.0000          0.2262
      3454.5000          0.1749          0.0000          1.8718          0.1749          1.0000          1.0000          0.0000          0.3071
      3454.6000          0.1552          0.0000          0.4397          0.1577          1.0000          0.9838          0.0000          0.4170
      3454.7000          0.1413          0.0000          0.2657          0.1413          1.0000          1.0000          0.0000          0.3945
      3454.8000          0.1356          0.0000          0.5159          0.1356          1.0000          1.0000          0.0000          0.2658
      3454.9000          0.1428          0.0000          1.1458          0.1428          1.0000          1.0000          0.0000          0.1918
      3455.0000          0.1581          0.0000          2.8049          0.1581          1.0000          1.0000          0.0000          0.1513
      3455.1000          0.1744          0.0000          5.8604          0.1744          1.0000          1.0000          0.0000          0.1390
      3455.2000          0.1873          0.0000          9.4910          0.1873          1.0000          1.0000          0.0000          0.1440
      3455.3000          0.1945          0.0000         10.0873          0.1945          1.0000          1.0000          0.0000          0.1767
      3455.4000          0.1944          0.0000          7.9129          0.1944          1.0000          1.0000          0.0000          0.2116
      3455.5000          0.1852          0.0000          4.0512          0.1852          1.0000          1.0000          0.0000          0.2549
      3455.6000          0.1620          0.0000          1.8671          0.1697          1.0000          0.9547          0.0000          0.2770
      3455.7000          0.1542          0.0000          1.1386          0.1542          1.0000          1.0000          0.0000          0.2586
