~Version Information
VERS.                     2.0: CWLS log ASCII Standard Version 2.00
WRAP.                      NO: One line per depth step

~Well Information Block
#MNEM.UNIT                 Value                       Information
#------------              -----                       -----------
STRT.M                   3271.0000                    :START
STOP.M                   3631.9000                    :STOP
STEP.M                      0.1000                    :STEP
NULL.                     -999.25                     :NULL VALUE
COMP.         Statoil Petroleum                       :Company
WELL.         15/9-F-1                                :Well
FLD .         VOLVE                                   :Field
LOC .         Maersk Inspirer                         :Location
PROV.                                                 :Province
CNTY.                                                 :County
STATE.                                                 :State
CTRY.                                                 :Country
DATE.                                                 :Log Date
SRVC.                                                 :Service Company
UWI .                                                 :Unique Well Identifier
API .                                                 :API Number
LATI.         058 26' 29.907" N    DMS                :Latitude
LONG.         001 53' 14.708" E    DMS                :Longtitude
PD  .         MSL                                     :Permanent Datum
ELZ .M                 0.0000                         :Elev. Log Zero

~Curve Information
#MNEM   .UNIT             API CODE Curve Description
#------------             -------- -----------------
DEPTH   .M            00 001 00 00:   0  Depth
BVW     .V/V          00 000 00 00:   1  Bound Volume Water
COAL_FLAG.unitless    00 000 00 00:   2  Coal Flag
KLOGH   .MD           00 000 00 00:   3  Calculated Horizontal PERMEABILITY from logs
PHIF    .V/V          00 000 00 00:   4  Final porosity
SAND_FLAG.unitless    00 000 00 00:   5  Sand Flag
SW      .V/V          00 000 00 00:   6  Water Saturation (Archie)
VCARB   .V/V          00 000 00 00:   7  Volume of calcite; dolomite and siderite from log analysis; repo
VSH     .V/V          00 000 00 00:   8  (GR-15)/(250-15)

~Parameter Information
#MNEM.UNIT       Value           Description
#------------    -----           -----------
HLD .         Terms and Conditions.:Header Legal Disclaimer
RUN .         1                 :Run number

~Other Information
PETROPHYSICAL INTERPRETATION: OUTPUT

# --- LOG MNEMONICS AND UNITS ---
#Depth          BVW             COAL_FLAG       KLOGH           PHIF            SAND_FLAG       SW              VCARB           VSH            
#M              V/V             unitless        MD              V/V             unitless        V/V             V/V             V/V            

~A
# ...
      3562.2000          0.0373          0.0000          0.0010          0.0373          0.0000          1.0000          0.0000          0.7962
      3562.3000          0.0354          0.0000          0.0010          0.0354          0.0000          1.0000          0.0000          0.8072
      3562.4000          0.0325          0.0000          0.0010          0.0325          0.0000          1.0000          0.0000          0.7998
      3562.5000          0.0301          0.0000          0.0010          0.0301          0.0000          1.0000          0.0000          0.7978
      3562.6000          0.0290          0.0000          0.0010          0.0290          0.0000          1.0000          0.0000          0.8075
      3562.7000          0.0293          0.0000          0.0010          0.0293          0.0000          1.0000          0.0000          0.7973
      3562.8000          0.0302          0.0000          0.0010          0.0302          0.0000          1.0000          0.0000          0.7642
      3562.9000          0.0307          0.0000          0.0010          0.0307          0.0000          1.0000          0.0000          0.7742
      3563.0000          0.0297          0.0000          0.0010          0.0297          0.0000          1.0000          0.0000          0.7697
      3563.1000          0.0269          0.0000          0.0010          0.0269          0.0000          1.0000          0.0000          0.7545
      3563.2000          0.0233          0.0000          0.0010          0.0233          0.0000          1.0000          0.0000          0.7438
      3563.3000          0.0210          0.0000          0.0010          0.0210          0.0000          1.0000          0.0000          0.7566
      3563.4000          0.0224          0.0000          0.0010          0.0224          0.0000          1.0000          0.0000          0.7648
      3563.5000          0.0270          0.0000          0.0010          0.0270          0.0000          1.0000          0.0000          0.7781
      3563.6000          0.0320          0.0000          0.0010          0.0320          0.0000          1.0000          0.0000          0.7925
      3563.7000          0.0341          0.0000          0.0010          0.0341          0.0000          1.0000          0.0000          0.7980
      3563.8000          0.0324          0.0000          0.0010          0.0324          0.0000          1.0000          0.0000          0.7895
      3563.9000          0.0288          0.0000          0.0010          0.0288          0.0000          1.0000          0.0000          0.7818
      3564.0000          0.0264          0.0000          0.0010          0.0264          0.0000          1.0000          0.0000          0.7714
      3564.1000          0.0269          0.0000          0.0010          0.0269          0.0000          1.0000          0.0000          0.8032
      3564.2000          0.0294          0.0000          0.0010          0.0294          0.0000          1.0000          0.0000          0.8134
      3564.3000          0.0313          0.0000          0.0010          0.0313          0.0000          1.0000          0.0000          0.8027
      3564.4000          0.0313          0.0000          0.0010          0.0313          0.0000          1.0000          0.0000          0.7626
      3564.5000          0.0307          0.0000          0.0010          0.0307          0.0000          1.0000          0.0000          0.7464
      3564.6000          0.0311          0.0000          0.0010          0.0311          0.0000          1.0000          0.0000          0.7671
      3564.7000          0.0324          0.0000          0.0010          0.0324          0.0000          1.0000          0.0000          0.8079
      3564.8000          0.0339          0.0000          0.0010          0.0339          0.0000          1.0000          0.0000          0.8231
      3564.9000          0.0349          0.0000          0.0010          0.0349          0.0000          1.0000          0.0000          0.8643
      3565.0000          0.0350          0.0000          0.0010          0.0350          0.0000          1.0000          0.0000          0.8610
      3565.1000          0.0345          0.0000          0.0010          0.0345          0.0000          1.0000          0.0000          0.8632
      3565.2000          0.0335          0.0000          0.0010          0.0335          0.0000          1.0000          0.0000          0.8627
      3565.3000          0.0331          0.0000          0.0010          0.0331          0.0000          1.0000          0.0000          0.8641
      3565.4000          0.0333          0.0000          0.0010          0.0333          0.0000          1.0000          0.0000          0.8516
      3565.5000          0.0336          0.0000          0.0010          0.0336          0.0000          1.0000          0.0000          0.8173
      3565.6000          0.0329          0.0000          0.0010          0.0329          0.0000          1.0000          0.0000          0.8044
      3565.7000          0.0313          0.0000          0.0010          0.0313          0.0000          1.0000          0.0000          0.8012
      3565.8000          0.0300          0.0000          0.0010          0.0300          0.0000          1.0000          0.0000          0.8014
      3565.9000          0.0298          0.0000          0.0010          0.0298          0.0000          1.0000          0.0000          0.8167
      3566.0000          0.0300          0.0000          0.0010          0.0300          0.0000          1.0000          0.0000          0.8225
      3566.1000          0.0297          0.0000          0.0010          0.0297          0.0000          1.0000          0.0000          0.8372
      3566.2000          0.0289          0.0000          0.0010          0.0289          0.0000          1.0000          0.0000          0.7999
      3566.3000          0.0289          0.0000          0.0010          0.0289          0.0000          1.0000          0.0000          0.8052
      3566.4000          0.0297          0.0000          0.0010          0.0297          0.0000          1.0000          0.0000          0.7981
      3566.5000          0.0306          0.0000          0.0010          0.0306          0.0000          1.0000          0.0000          0.7654
      3566.6000          0.0313          0.0000          0.0010          0.0313          0.0000          1.0000          0.0000          0.7458
      3566.7000          0.0316          0.0000          0.0010          0.0316          0.0000          1.0000          0.0000          0.7605
      3566.8000          0.0318          0.0000          0.0010          0.0318          0.0000          1.0000          0.0000          0.7864
      3566.9000          0.0321          0.0000          0.0010          0.0321          0.0000          1.0000          0.0000          0.8097
      3567.0000          0.0328          0.0000          0.0010          0.0328          0.0000          1.0000          0.0000          0.8231
      3567.1000          0.0341          0.0000          0.0010          0.0341          0.0000          1.0000          0.0000          0.8244
      3567.2000          0.0353          0.0000          0.0010          0.0353          0.0000          1.0000          0.0000          0.7968
      3567.3000          0.0354          0.0000          0.0010          0.0354          0.0000          1.0000          0.0000          0.7783
      3567.4000          0.0341          0.0000          0.0010          0.0341          0.0000          1.0000          0.0000          0.7463
      3567.5000          0.0326          0.0000          0.0010          0.0326          0.0000          1.0000          0.0000          0.7453
      3567.6000          0.0319          0.0000          0.0010          0.0319          0.0000          1.0000          0.0000          0.7597
      3567.7000          0.0329          0.0000          0.0010          0.0329          0.0000          1.0000          0.0000          0.7528
