~Version Information
VERS.                     2.0: CWLS log ASCII Standard Version 2.00
WRAP.                      NO: One line per depth step

~Well Information Block
#MNEM.UNIT                 Value                       Information
#------------              -----                       -----------
STRT.M                    3575.000                    :START
STOP.M                    3761.800                    :STOP
STEP.M                       0.100                    :STEP
NULL.                     -999.25                     :NULL VALUE
COMP.         Statoil Petroleum AS                    :Company
WELL.         15/9-F-11 A                             :Well
FLD .         VOLVE                                   :Field
LOC .         Maersk Inspirer                         :Location
PROV.                                                 :Province
CNTY.                                                 :County
STATE.                                                 :State
CTRY.         Norway                                  :Country
DATE.                                                 :Log Date
SRVC.                                                 :Service Company
UWI .                                                 :Unique Well Identifier
API .                                                 :API Number
LATI.         058 26' 29.956" N    DMS                :Latitude
LONG.         001 53' 14.866" E    DMS                :Longtitude
PD  .         MSL                                     :Permanent Datum
EDF .M            54.900                              :Elevations D.F.
EGL .M           -91.000                              :Elevations G.L.
ELZ .M            54.900                              :Elev. Log Zero
LMF .         DF                                      :Log Measured From

~Curve Information
#MNEM   .UNIT             API CODE Curve Description
#------------             -------- -----------------
DEPTH   .M            00 001 00 00:   0  Depth
BVW     .v/v          00 000 00 00:   1  BVW:CPI:rC:NONE:v1
CARB_FLAG.UNKNOWN     00 000 00 00:   2  CARB_FLAG:CPI:rC:NONE:v1
COAL_FLAG.UNKNOWN     00 000 00 00:   3  COAL_FLAG:CPI:rC:NONE:v1
KLOGH   .mD           00 000 00 00:   4  KLOGH:CPI:rC:NONE:v1
PHIF    .v/v          00 000 00 00:   5  PHIF:CPI:rC:NONE:v1
SAND_FLAG.UNKNOWN     00 000 00 00:   6  SAND_FLAG:CPI:rC:NONE:v1
SW      .v/v          00 000 00 00:   7  SW:CPI:rC:NONE:v1
VSH     .v/v          00 000 00 00:   8  VSH:CPI:rC:NONE:v1

~Parameter Information
#MNEM.UNIT       Value           Description
#------------    -----           -----------
RUN .         1                 :Run number

~Other Information
PETROPHYSICAL_INTERPRETATION: OUTPUT

# --- LOG MNEMONICS AND UNITS ---
#Depth     BVW        CARB_FLAG  COAL_FLAG  KLOGH      PHIF       SAND_FLAG  SW         VSH       
#M         v/v        UNKNOWN    UNKNOWN    mD         v/v        UNKNOWN    v/v        v/v       

~A
# ...
  3688.400      0.074      0.000      0.000    158.075      0.239      1.000      0.311      0.190
  3688.500      0.075      0.000      0.000    130.858      0.238      1.000      0.314      0.199
  3688.600      0.075      0.000      0.000    148.347      0.235      1.000      0.318      0.190
  3688.700      0.075      0.000      0.000    147.991      0.234      1.000      0.318      0.189
  3688.800      0.074      0.000      0.000    125.872      0.235      1.000      0.316      0.198
  3688.900      0.073      0.000      0.000    130.258      0.236      1.000      0.310      0.197
  3689.000      0.072      0.000      0.000    116.062      0.238      1.000      0.305      0.204
  3689.100      0.072      0.000      0.000    136.882      0.238      1.000      0.303      0.197
  3689.200      0.072      0.000      0.000    177.539      0.238      1.000      0.303      0.184
  3689.300      0.072      0.000      0.000    169.227      0.237      1.000      0.303      0.186
  3689.400      0.071      0.000      0.000    196.857      0.237      1.000      0.300      0.178
  3689.500      0.071      0.000      0.000    185.689      0.238      1.000      0.299      0.181
  3689.600      0.071      0.000      0.000    218.852      0.238      1.000      0.297      0.174
  3689.700      0.071      0.000      0.000    271.168      0.238      1.000      0.296      0.164
  3689.800      0.070      0.000      0.000    289.750      0.238      1.000      0.296      0.160
  3689.900      0.071      0.000      0.000    271.849      0.238      1.000      0.296      0.163
  3690.000      0.071      0.000      0.000    277.588      0.237      1.000      0.298      0.161
  3690.100      0.070      0.000      0.000    247.791      0.234      1.000      0.300      0.165
  3690.200      0.070      0.000      0.000    210.121      0.230      1.000      0.304      0.169
  3690.300      0.069      0.000      0.000    171.886      0.224      1.000      0.310      0.173
  3690.400      0.069      0.000      0.000    159.076      0.218      1.000      0.317      0.171
  3690.500      0.068      0.000      0.000    151.682      0.212      1.000      0.324      0.168
  3690.600      0.068      0.000      0.000    154.166      0.206      1.000      0.330      0.162
  3690.700      0.067      0.000      0.000    130.948      0.200      1.000      0.336      0.165
  3690.800      0.067      0.000      0.000    128.068      0.197      1.000      0.340      0.163
  3690.900      0.067      0.000      0.000    155.262      0.195      1.000      0.341      0.152
  3691.000      0.067      0.000      0.000    133.966      0.197      1.000      0.339      0.161
  3691.100      0.067      0.000      0.000    114.731      0.201      1.000      0.335      0.172
  3691.200      0.068      0.000      0.000    148.668      0.205      1.000      0.330      0.163
  3691.300      0.068      0.000      0.000    152.469      0.209      1.000      0.326      0.166
  3691.400      0.069      0.000      0.000    146.151      0.214      1.000      0.321      0.172
  3691.500      0.069      0.000      0.000    176.831      0.216      1.000      0.320      0.164
  3691.600      0.069      0.000      0.000    199.246      0.218      1.000      0.318      0.160
  3691.700      0.070      0.000      0.000    209.124      0.221      1.000      0.316      0.161
  3691.800      0.071      0.000      0.000    187.456      0.224      1.000      0.315      0.169
  3691.900      0.071      0.000      0.000    205.550      0.227      1.000      0.313      0.167
  3692.000      0.071      0.000      0.000    228.766      0.230      1.000      0.310      0.165
  3692.100      0.072      0.000      0.000    237.869      0.233      1.000      0.307      0.165
  3692.200      0.072      0.000      0.000    255.345      0.234      1.000      0.306      0.163
  3692.300      0.072      0.000      0.000    241.993      0.235      1.000      0.306      0.166
  3692.400      0.072      0.000      0.000    226.473      0.236      1.000      0.306      0.171
  3692.500      0.072      0.000      0.000    236.179      0.236      1.000      0.307      0.168
  3692.600      0.072      0.000      0.000    263.053      0.235      1.000      0.308      0.162
  3692.700      0.072      0.000      0.000    272.380      0.236      1.000      0.306      0.162
  3692.800      0.072      0.000      0.000    274.729      0.238      1.000      0.305      0.162
  3692.900      0.073      0.000      0.000    313.863      0.240      1.000      0.304      0.158
  3693.000      0.073      0.000      0.000    226.331      0.239      1.000      0.306      0.173
  3693.100      0.073      0.000      0.000    213.462      0.237      1.000      0.310      0.174
  3693.200      0.074      0.000      0.000    209.798      0.237      1.000      0.310      0.175
  3693.300      0.073      0.000      0.000    225.752      0.234      1.000      0.314      0.169
  3693.400      0.074      0.000      0.000    271.565      0.235      1.000      0.313      0.161
  3693.500      0.074      0.000      0.000    273.517      0.236      1.000      0.313      0.162
  3693.600      0.074      0.000      0.000    333.908      0.238      1.000      0.312      0.154
  3693.700      0.075      0.000      0.000    389.093      0.241      1.000      0.310      0.148
  3693.800      0.075      0.000      0.000    322.465      0.243      1.000      0.309      0.159
  3693.900      0.075      0.000      0.000    322.398      0.243      1.000      0.309      0.160
  3694.000      0.075      0.000      0.000    318.936      0.243      1.000      0.310      0.160
  3694.100      0.076      0.000      0.000    276.484      0.243      1.000      0.312      0.167
  3694.200      0.076      0.000      0.000    226.130      0.243      1.000      0.313      0.176
  3694.300      0.076      0.000      0.000    207.419      0.242      1.000      0.314      0.180
  3694.400      0.076      0.000      0.000    220.286      0.243      1.000      0.313      0.178
  3694.500      0.076      0.000      0.000    288.872      0.243      1.000      0.312      0.165
  3694.600      0.076      0.000      0.000    303.021      0.244      1.000      0.312      0.163
  3694.700      0.076      0.000      0.000    347.107      0.245      1.000      0.312      0.158
  3694.800      0.077      0.000      0.000    327.533      0.246      1.000      0.312      0.161
  3694.900      0.077      0.000      0.000    300.854      0.246      1.000      0.314      0.165
  3695.000      0.077      0.000      0.000    352.315      0.244      1.000      0.316      0.156
  3695.100      0.077      0.000      0.000    347.836      0.244      1.000      0.317      0.157
  3695.200      0.077      0.000      0.000    356.768      0.243      1.000      0.319      0.154
  3695.300      0.078      0.000      0.000    289.502      0.242      1.000      0.321      0.164
  3695.400      0.078      0.000      0.000    294.281      0.242      1.000      0.322      0.163
  3695.500      0.078      0.000      0.000    296.127      0.243      1.000      0.322      0.163
  3695.600      0.079      0.000      0.000    325.570      0.244      1.000      0.323      0.160
  3695.700      0.079      0.000      0.000    381.783      0.245      1.000      0.324      0.153
  3695.800      0.080      0.000      0.000    337.698      0.244      1.000      0.327      0.158
  3695.900      0.080      0.000      0.000    347.494      0.242      1.000      0.330      0.155
  3696.000      0.080      0.000      0.000    384.425      0.241      1.000      0.332      0.149
  3696.100      0.080      0.000      0.000    416.759      0.242      1.000      0.332      0.146
  3696.200      0.083      0.000      0.000    478.599      0.244      1.000      0.341      0.141
  3696.300      0.083      0.000      0.000    419.733      0.245      1.000      0.341      0.149
  3696.400      0.084      0.000      0.000    456.750      0.247      1.000      0.340      0.146
