~Version Information
VERS.                     2.0: CWLS log ASCII Standard Version 2.00
WRAP.                      NO: One line per depth step

~Well Information Block
#MNEM.UNIT                 Value                       Information
#------------              -----                       -----------
STRT.M                    3575.000                    :START
STOP.M                    3761.800                    :STOP
STEP.M                       0.100                    :STEP
NULL.                     -999.25                     :NULL VALUE
COMP.         Statoil Petroleum AS                    :Company
WELL.         15/9-F-11 A                             :Well
FLD .         VOLVE                                   :Field
LOC .         Maersk Inspirer                         :Location
PROV.                                                 :Province
CNTY.                                                 :County
STATE.                                                 :State
CTRY.         Norway                                  :Country
DATE.                                                 :Log Date
SRVC.                                                 :Service Company
UWI .                                                 :Unique Well Identifier
API .                                                 :API Number
LATI.         058 26' 29.956" N    DMS                :Latitude
LONG.         001 53' 14.866" E    DMS                :Longtitude
PD  .         MSL                                     :Permanent Datum
EDF .M            54.900                              :Elevations D.F.
EGL .M           -91.000                              :Elevations G.L.
ELZ .M            54.900                              :Elev. Log Zero
LMF .         DF                                      :Log Measured From

~Curve Information
#MNEM   .UNIT             API CODE Curve Description
#------------             -------- -----------------
DEPTH   .M            00 001 00 00:   0  Depth
BVW     .v/v          00 000 00 00:   1  BVW:CPI:rC:NONE:v1
CARB_FLAG.UNKNOWN     00 000 00 00:   2  CARB_FLAG:CPI:rC:NONE:v1
COAL_FLAG.UNKNOWN     00 000 00 00:   3  COAL_FLAG:CPI:rC:NONE:v1
KLOGH   .mD           00 000 00 00:   4  KLOGH:CPI:rC:NONE:v1
PHIF    .v/v          00 000 00 00:   5  PHIF:CPI:rC:NONE:v1
SAND_FLAG.UNKNOWN     00 000 00 00:   6  SAND_FLAG:CPI:rC:NONE:v1
SW      .v/v          00 000 00 00:   7  SW:CPI:rC:NONE:v1
VSH     .v/v          00 000 00 00:   8  VSH:CPI:rC:NONE:v1

~Parameter Information
#MNEM.UNIT       Value           Description
#------------    -----           -----------
RUN .         1                 :Run number

~Other Information
PETROPHYSICAL_INTERPRETATION: OUTPUT

# --- LOG MNEMONICS AND UNITS ---
#Depth     BVW        CARB_FLAG  COAL_FLAG  KLOGH      PHIF       SAND_FLAG  SW         VSH       
#M         v/v        UNKNOWN    UNKNOWN    mD         v/v        UNKNOWN    v/v        v/v       

~A
# ...
  3583.100    -999.25      1.000      0.000    -999.25    -999.25      0.000    -999.25      0.884
  3583.200    -999.25      1.000      0.000    -999.25    -999.25      0.000    -999.25      0.858
  3583.300      0.010      1.000      0.000      0.001      0.010      0.000      1.000      0.840
  3583.400      0.028      1.000      0.000      0.001      0.028      0.000      1.000      0.796
  3583.500      0.042      0.000      0.000      0.001      0.042      0.000      1.000      0.779
  3583.600      0.051      0.000      0.000      0.001      0.051      0.000      1.000      0.775
  3583.700      0.057      0.000      0.000      0.001      0.057      0.000      1.000      0.761
  3583.800      0.062      0.000      0.000      0.001      0.062      0.000      1.000      0.750
  3583.900      0.068      0.000      0.000      0.001      0.068      0.000      1.000      0.749
  3584.000      0.071      0.000      0.000      0.001      0.071      0.000      1.000      0.725
  3584.100      0.069      0.000      0.000      0.001      0.069      0.000      1.000      0.724
  3584.200      0.059      0.000      0.000      0.001      0.059      0.000      1.000      0.786
  3584.300      0.039      0.000      0.000      0.001      0.039      0.000      1.000      0.818
  3584.400      0.014      0.000      0.000      0.001      0.014      0.000      1.000      0.869
  3584.500    -999.25      0.000      0.000    -999.25    -999.25      0.000    -999.25      0.935
  3584.600    -999.25      0.000      0.000    -999.25    -999.25      0.000    -999.25      0.968
  3584.700      0.003      0.000      0.000      0.001      0.003      0.000      1.000      0.998
  3584.800      0.033      0.000      0.000      0.001      0.033      0.000      1.000      1.000
  3584.900      0.065      0.000      0.000      0.001      0.065      0.000      1.000      1.000
  3585.000      0.086      0.000      0.000      0.001      0.086      0.000      1.000      1.000
  3585.100      0.097      0.000      0.000      0.001      0.097      0.000      1.000      0.928
  3585.200      0.101      0.000      0.000      0.001      0.101      0.000      1.000      0.822
  3585.300      0.103      0.000      0.000      0.001      0.103      0.000      1.000      0.752
  3585.400      0.103      0.000      0.000      0.001      0.103      0.000      1.000      0.714
  3585.500      0.104      0.000      0.000      0.001      0.104      0.000      1.000      0.656
  3585.600      0.105      0.000      0.000      0.002      0.105      0.000      1.000      0.623
  3585.700      0.106      0.000      0.000      0.003      0.106      0.000      1.000      0.593
  3585.800      0.107      0.000      0.000      0.005      0.107      0.000      1.000      0.574
  3585.900      0.107      0.000      0.000      0.006      0.107      0.000      1.000      0.565
  3586.000      0.106      0.000      0.000      0.006      0.106      0.000      1.000      0.563
  3586.100      0.106      0.000      0.000      0.006      0.106      0.000      1.000      0.566
  3586.200      0.110      0.000      0.000      0.004      0.110      0.000      1.000      0.585
  3586.300      0.118      0.000      0.000      0.007      0.118      0.000      1.000      0.564
  3586.400      0.128      0.000      0.000      0.010      0.128      0.000      1.000      0.558
  3586.500      0.136      0.000      0.000      0.012      0.136      0.000      1.000      0.556
  3586.600      0.139      0.000      0.000      0.025      0.139      0.000      1.000      0.523
  3586.700      0.135      0.000      0.000      0.043      0.135      0.000      1.000      0.494
  3586.800      0.125      0.000      0.000      0.036      0.125      0.000      1.000      0.493
  3586.900      0.112      0.000      0.000      0.031      0.112      0.000      1.000      0.490
  3587.000      0.101      0.000      0.000      0.047      0.101      0.000      1.000      0.460
  3587.100      0.098      0.000      0.000      0.065      0.098      0.000      1.000      0.441
  3587.200      0.100      0.000      0.000      0.110      0.100      0.000      1.000      0.418
  3587.300      0.100      0.000      0.000      0.310      0.100      0.000      1.000      0.368
  3587.400      0.092      0.000      0.000      0.644      0.092      0.000      1.000      0.326
  3587.500      0.080      0.000      0.000      0.678      0.080      0.000      1.000      0.312
  3587.600      0.069      0.000      0.000      0.716      0.069      0.000      1.000      0.300
  3587.700      0.065      0.000      0.000      0.684      0.065      0.000      1.000      0.298
  3587.800      0.063      0.000      0.000      0.830      0.063      0.000      1.000      0.287
  3587.900      0.060      0.000      0.000      0.517      0.060      0.000      1.000      0.308
  3588.000      0.056      0.000      0.000      0.463      0.056      0.000      1.000      0.310
  3588.100      0.054      0.000      0.000      0.680      0.054      0.000      1.000      0.289
  3588.200      0.054      0.000      0.000      0.864      0.054      0.000      1.000      0.278
  3588.300      0.056      0.000      0.000      0.823      0.056      0.000      1.000      0.281
  3588.400      0.060      0.000      0.000      0.841      0.060      0.000      1.000      0.284
  3588.500      0.068      0.000      0.000      1.111      0.068      0.000      1.000      0.277
  3588.600      0.080      0.000      0.000      1.159      0.080      0.000      1.000      0.286
  3588.700      0.095      0.000      0.000      1.873      0.095      0.000      1.000      0.277
  3588.800      0.109      0.000      0.000      2.502      0.109      0.000      1.000      0.275
  3588.900      0.116      0.000      0.000      2.968      0.116      0.000      1.000      0.273
  3589.000      0.118      0.000      0.000      3.685      0.118      0.000      1.000      0.264
  3589.100      0.116      0.000      0.000      2.569      0.116      0.000      1.000      0.280
  3589.200      0.113      0.000      0.000      1.991      0.113      0.000      1.000      0.290
  3589.300      0.109      0.000      0.000      1.952      0.109      0.000      1.000      0.287
  3589.400      0.102      0.000      0.000      2.178      0.102      0.000      1.000      0.275
  3589.500      0.090      0.000      0.000      2.215      0.090      0.000      1.000      0.264
  3589.600      0.074      0.000      0.000      1.371      0.074      0.000      1.000      0.272
  3589.700      0.056      0.000      0.000      0.839      0.056      0.000      1.000      0.281
  3589.800      0.042      0.000      0.000      0.511      0.042      0.000      1.000      0.292
  3589.900      0.031      0.000      0.000      0.296      0.031      0.000      1.000      0.308
  3590.000      0.020      0.000      0.000      0.151      0.020      0.000      1.000      0.332
  3590.100      0.008      0.000      0.000      0.057      0.008      0.000      1.000      0.368
  3590.200    -999.25      1.000      0.000    -999.25    -999.25      0.000    -999.25      0.363
  3590.300    -999.25      1.000      0.000    -999.25    -999.25      0.000    -999.25      0.353
  3590.400    -999.25      1.000      0.000    -999.25    -999.25      0.000    -999.25      0.328
  3590.500    -999.25      1.000      0.000    -999.25    -999.25      0.000    -999.25      0.299
  3590.600    -999.25      1.000      0.000    -999.25    -999.25      0.000    -999.25      0.272
  3590.700    -999.25      1.000      0.000    -999.25    -999.25      0.000    -999.25      0.235
  3590.800    -999.25      1.000      0.000    -999.25    -999.25      0.000    -999.25      0.229
  3590.900    -999.25      1.000      0.000    -999.25    -999.25      0.000    -999.25      0.207
  3591.000    -999.25      1.000      0.000    -999.25    -999.25      0.000    -999.25      0.229
  3591.100    -999.25      1.000      0.000    -999.25    -999.25      0.000    -999.25      0.246
