~Version Information
VERS.                     2.0: CWLS log ASCII Standard Version 2.00
WRAP.                      NO: One line per depth step

~Well Information Block
#MNEM.UNIT                 Value                       Information
#------------              -----                       -----------
STRT.M                    4334.700                    :START
STOP.M                    4561.700                    :STOP
STEP.M                       0.100                    :STEP
NULL.                     -999.25                     :NULL VALUE
COMP.         Statoil Petroleum AS                    :Company
WELL.         15/9-F-11 T2                            :Well
FLD .         VOLVE                                   :Field
LOC .                                                 :Location
PROV.                                                 :Province
CNTY.                                                 :County
STATE.                                                 :State
CTRY.         Norway                                  :Country
DATE.                                                 :Log Date
SRVC.                                                 :Service Company
UWI .                                                 :Unique Well Identifier
API .                                                 :API Number
PD  .         MSL                                     :Permanent Datum
EDF .M            54.900                              :Elevations D.F.
EGL .M           -91.000                              :Elevations G.L.
ELZ .M            54.900                              :Elev. Log Zero
LMF .         DF                                      :Log Measured From

~Curve Information
#MNEM   .UNIT             API CODE Curve Description
#------------             -------- -----------------
DEPTH   .M            00 001 00 00:   0  Depth
BVW     .v/v          00 000 00 00:   1  BVW:CPI:rC:NONE:v1
CARB_FLAG.unitless    00 000 00 00:   2  CARB_FLAG:CPI:rC:NONE:v1
COAL_FLAG.unitless    00 000 00 00:   3  COAL_FLAG:CPI:rC:NONE:v1
KLOGH   .mD           00 000 00 00:   4  KLOGH:CPI:rC:NONE:v1
PHIF    .v/v          00 000 00 00:   5  PHIF:CPI:rC:NONE:v1
SAND_FLAG.unitless    00 000 00 00:   6  SAND_FLAG:CPI:rC:NONE:v1
SW      .v/v          00 000 00 00:   7  SW:CPI:rC:NONE:v1
VSH     .v/v          00 000 00 00:   8  VSH:CPI:rC:NONE:v1

~Parameter Information
#MNEM.UNIT       Value           Description
#------------    -----           -----------
RUN .         1                 :Run number

~Other Information
PETROPHYSICAL INTERPRETATION: OUTPUT

# --- LOG MNEMONICS AND UNITS ---
#Depth     BVW        CARB_FLAG  COAL_FLAG  KLOGH      PHIF       SAND_FLAG  SW         VSH       
#M         v/v        unitless   unitless   mD         v/v        unitless   v/v        v/v       

~A
# ...
  4480.500      0.198      0.000      0.000    645.629      0.198      1.000      1.000      0.086
  4480.600      0.199      0.000      0.000    571.667      0.199      1.000      1.000      0.093
  4480.700      0.199      0.000      0.000    545.270      0.199      1.000      1.000      0.095
  4480.800      0.198      0.000      0.000    488.979      0.198      1.000      1.000      0.099
  4480.900      0.195      0.000      0.000    445.500      0.195      1.000      1.000      0.101
  4481.000      0.190      0.000      0.000    360.814      0.190      1.000      1.000      0.107
  4481.100      0.187      0.000      0.000    304.502      0.187      1.000      1.000      0.112
  4481.200      0.186      0.000      0.000    289.307      0.186      1.000      1.000      0.114
  4481.300      0.189      0.000      0.000    371.187      0.189      1.000      1.000      0.105
  4481.400      0.191      0.000      0.000    405.459      0.191      1.000      1.000      0.102
  4481.500      0.189      0.000      0.000    497.894      0.189      1.000      1.000      0.090
  4481.600      0.183      0.000      0.000    470.608      0.183      1.000      1.000      0.088
  4481.700      0.174      0.000      0.000    408.231      0.174      1.000      1.000      0.087
  4481.800      0.164      0.000      0.000    306.656      0.164      1.000      1.000      0.092
  4481.900      0.141      0.000      0.000    225.172      0.156      1.000      0.905      0.099
  4482.000      0.139      0.000      0.000    242.691      0.153      1.000      0.906      0.093
  4482.100      0.135      0.000      0.000    259.504      0.149      1.000      0.908      0.087
  4482.200      0.127      0.000      0.000    217.285      0.139      1.000      0.910      0.086
  4482.300      0.112      0.000      0.000    152.715      0.123      1.000      0.911      0.089
  4482.400      0.106      0.000      0.000     96.782      0.106      1.000      1.000      0.096
  4482.500      0.099      0.000      0.000     72.794      0.099      0.000      1.000      0.103
  4482.600      0.103      0.000      0.000     72.561      0.103      1.000      1.000      0.107
  4482.700      0.116      0.000      0.000     92.058      0.116      1.000      1.000      0.107
  4482.800      0.136      0.000      0.000    142.173      0.136      1.000      1.000      0.104
  4482.900      0.142      0.000      0.000    257.895      0.160      1.000      0.892      0.096
  4483.000      0.158      0.000      0.000    363.071      0.177      1.000      0.889      0.095
  4483.100      0.157      0.000      0.000    374.244      0.177      1.000      0.887      0.093
  4483.200      0.141      0.000      0.000    258.169      0.159      1.000      0.885      0.095
  4483.300      0.135      0.000      0.000    179.217      0.137      1.000      0.985      0.093
  4483.400      0.124      0.000      0.000    144.335      0.124      1.000      1.000      0.092
  4483.500      0.128      0.000      0.000    156.506      0.128      1.000      1.000      0.092
  4483.600      0.147      0.000      0.000    225.331      0.147      1.000      1.000      0.091
  4483.700      0.169      0.000      0.000    379.852      0.169      1.000      1.000      0.085
  4483.800      0.177      0.000      0.000    457.635      0.184      1.000      0.961      0.090
  4483.900      0.170      0.000      0.000    472.758      0.190      1.000      0.896      0.094
  4484.000      0.159      0.000      0.000    489.471      0.189      1.000      0.839      0.091
  4484.100      0.167      0.000      0.000    475.050      0.187      1.000      0.895      0.091
  4484.200      0.186      0.000      0.000    432.289      0.186      1.000      1.000      0.094
  4484.300      0.185      0.000      0.000    422.589      0.185      1.000      1.000      0.095
  4484.400      0.179      0.000      0.000    386.560      0.186      1.000      0.963      0.100
  4484.500      0.167      0.000      0.000    382.952      0.187      1.000      0.894      0.101
  4484.600      0.168      0.000      0.000    355.942      0.186      1.000      0.904      0.104
  4484.700      0.170      0.000      0.000    159.705      0.179      1.000      0.950      0.137
  4484.800      0.149      0.000      0.000     66.919      0.169      1.000      0.883      0.169
  4484.900      0.135      0.000      0.000     34.354      0.159      1.000      0.851      0.193
  4485.000      0.128      0.000      0.000     19.940      0.152      1.000      0.840      0.213
  4485.100      0.135      0.000      0.000     18.577      0.145      1.000      0.932      0.210
  4485.200      0.139      0.000      0.000     25.785      0.139      1.000      1.000      0.189
  4485.300      0.138      0.000      0.000     22.892      0.138      1.000      1.000      0.193
  4485.400      0.139      0.000      0.000     13.180      0.139      1.000      1.000      0.222
  4485.500      0.139      0.000      0.000     11.975      0.142      1.000      0.978      0.228
  4485.600      0.139      0.000      0.000     15.640      0.145      1.000      0.958      0.218
  4485.700      0.142      0.000      0.000     18.170      0.147      1.000      0.963      0.213
  4485.800      0.142      0.000      0.000     20.017      0.149      1.000      0.955      0.210
  4485.900      0.141      0.000      0.000     18.225      0.146      1.000      0.962      0.212
  4486.000      0.137      0.000      0.000     14.137      0.139      1.000      0.986      0.218
  4486.100      0.129      0.000      0.000     11.963      0.130      1.000      0.994      0.218
  4486.200      0.120      0.000      0.000     10.853      0.120      1.000      1.000      0.214
  4486.300      0.113      0.000      0.000      9.708      0.113      1.000      1.000      0.213
  4486.400      0.111      0.000      0.000      6.049      0.111      1.000      1.000      0.234
  4486.500      0.113      0.000      0.000      4.629      0.113      1.000      1.000      0.249
  4486.600      0.120      0.000      0.000      5.550      0.120      1.000      1.000      0.246
  4486.700      0.131      0.000      0.000      9.074      0.131      1.000      1.000      0.232
  4486.800      0.143      0.000      0.000     12.087      0.143      1.000      1.000      0.229
  4486.900      0.153      0.000      0.000     17.119      0.153      1.000      1.000      0.221
  4487.000      0.155      0.000      0.000     19.932      0.160      1.000      0.973      0.220
  4487.100      0.152      0.000      0.000     22.456      0.165      1.000      0.924      0.219
  4487.200      0.156      0.000      0.000     33.903      0.171      1.000      0.913      0.205
  4487.300      0.167      0.000      0.000     49.620      0.179      1.000      0.930      0.193
  4487.400      0.182      0.000      0.000     53.143      0.187      1.000      0.970      0.197
  4487.500      0.192      0.000      0.000     62.186      0.193      1.000      0.995      0.195
  4487.600      0.196      0.000      0.000     65.836      0.196      1.000      1.000      0.195
  4487.700      0.197      0.000      0.000     65.841      0.197      1.000      1.000      0.195
  4487.800      0.195      0.000      0.000     74.820      0.195      1.000      1.000      0.188
  4487.900      0.194      0.000      0.000     71.907      0.194      1.000      1.000      0.188
  4488.000      0.194      0.000      0.000     84.398      0.194      1.000      1.000      0.181
  4488.100      0.197      0.000      0.000    105.190      0.197      1.000      1.000      0.173
  4488.200      0.201      0.000      0.000     97.417      0.201      1.000      1.000      0.180
  4488.300      0.205      0.000      0.000    110.190      0.205      1.000      1.000      0.178
  4488.400      0.207      0.000      0.000    121.841      0.207      1.000      1.000      0.175
  4488.500      0.207      0.000      0.000    123.871      0.207      1.000      1.000      0.174
