~Version Information
VERS.                     2.0: CWLS log ASCII Standard Version 2.00
WRAP.                      NO: One line per depth step

~Well Information Block
#MNEM       .UNIT          Value                       Information
#-------------------------------------------------------------------------
STRT        .M             3102.102                    :START
STOP        .M             3505.8096                   :STOP
STEP        .M             0.1524                      :STEP
NULL        .              -999.25                     :NULL VALUE
COMP        .              STATOILHYDRO                :COMPANY
WELL        .              15/9-F-12                   :WELL
FLD         .              VOLVE                       :FIELD
LOC         .              UNKNOWN                     :LOCATION
CNTY        .              UNKNOWN                     :COUNTY
STAT        .              UNKNOWN                     :STATE
CTRY        .              Norway                      :COUNTRY
SRVC        .              UNKNOWN                     :SERVICE COMPANY
DATE        .              UNKNOWN                     :LOG DATE
UWI         .              NO 15/9-F-12                :UNIQUE WELL ID
XCOORD      .              435050.170000               :SURFACE X
YCOORD      .              6478574.700000              :SURFACE Y
LAT         .              58.441713                   :LATITUDE
LON         .              1.887480                    :LONGITUDE
ELEV        .M             54.9000                     :SURFACE ELEV
ELEV_TYPE   .              KB                          :ELEV TYPE

~Curve Information
#MNEM       .UNIT             API CODE : Curve Description
#-------------------------------------------------------------------------
DEPTH       .M                UNKNOWN  : Measured Dept
BVW         .v/v_decimal      UNKNOWN  : BVW:UNKNOWN:rC:NONE:v1
KLOGH       .mD               UNKNOWN  : KLOGH:UNKNOWN:rC:NONE:v1
PHIF        .v/v_decimal      UNKNOWN  : PHIF:UNKNOWN:rC:NONE:v1
SW          .v/v_decimal      UNKNOWN  : SW:UNKNOWN:rC:NONE:v1
VSH         .v/v_decimal      UNKNOWN  : VSH:UNKNOWN:rC:NONE:v1
# --- LOG MNEMONICS AND UNITS ---
#Depth     BVW        KLOGH      PHIF       SW         VSH       
#M         v/v_decima mD         v/v_decima v/v_decima v/v_decima
~A
# ...
 3418.1796 0.12370000 0.07079999 0.12370000          1 0.48429998
  3418.332 0.12210000 0.06819999 0.12210000          1 0.48010000
 3418.4844 0.12039999 0.06560000 0.12039999          1 0.47589999
 3418.6368 0.12169999 0.06840000 0.12169999          1 0.47749999
 3418.7892 0.12340000 0.07199999 0.12340000          1 0.47979998
 3418.9416      0.125 0.07580000      0.125          1 0.48210000
  3419.094 0.12569999 0.07800000 0.12569999          1 0.48159998
 3419.2464 0.12569999 0.07909999 0.12569999          1 0.47949999
 3419.3988 0.12569999 0.08030000 0.12569999          1 0.47740000
 3419.5512 0.12510000 0.07680000 0.12510000          1 0.48050001
 3419.7036 0.12349999 0.06549999 0.12349999          1 0.49410000
  3419.856 0.12179999 0.05579999 0.12179999          1 0.50760000
 3420.0084 0.12009999 0.04729999 0.12009999          1 0.52189999
 3420.1608 0.11850000 0.03660000 0.11850000          1 0.54919999
 3420.3132 0.11680000 0.02840000 0.11680000          1 0.57649999
 3420.4656 0.11509999 0.02199999 0.11509999          1 0.60379999
  3420.618 0.11479999 0.02089999 0.11479999          1 0.60869997
 3420.7704 0.11479999 0.02119999 0.11479999          1 0.60710000
 3420.9228 0.11479999 0.02140000 0.11479999          1 0.60549998
 3421.0752 0.11559999 0.02390000 0.11559999          1 0.59420001
 3421.2276 0.11720000 0.02960000 0.11720000          1 0.57289999
   3421.38 0.11890000 0.03660000 0.11890000          1 0.55169999
 3421.5324 0.11949999 0.04089999 0.11949999          1 0.53930002
 3421.6848 0.11620000 0.03099999 0.11620000          1 0.56000000
 3421.8372 0.11280000 0.02349999 0.11280000          1 0.58060002
 3421.9896 0.10949999 0.01789999 0.10949999          1 0.60130000
  3422.142 0.11079999 0.01649999 0.11079999          1 0.62019997
 3422.2944 0.11249999 0.01549999 0.11249999          1 0.63899999
 3422.4468 0.11420000 0.01460000 0.11420000          1 0.65780001
 3422.5992 0.11370000 0.01520000 0.11370000          1 0.64859998
 3422.7516 0.11200000 0.01679999 0.11200000          1 0.62430000
  3422.904 0.11029999 0.01860000 0.11029999          1 0.60000002
 3423.0564 0.10809999 0.01879999 0.10809999          1 0.58499997
 3423.2088 0.10469999 0.01640000 0.10469999          1 0.58579999
 3423.3612 0.10140000 0.01429999 0.10140000          1 0.58670002
 3423.5136 0.09820000 0.01260000 0.09820000          1 0.58639997
  3423.666 0.09650000 0.01279999 0.09650000          1 0.57450002
 3423.8184 0.09489999 0.01300000 0.09489999          1 0.56260001
 3423.9708 0.09319999 0.01319999 0.09319999          1 0.55070000
 3424.1232 0.09560000 0.01379999 0.09560000          1 0.55739998
 3424.2756 0.09889999 0.01460000 0.09889999          1 0.56859999
  3424.428 0.10230000 0.01549999 0.10230000          1 0.57980000
 3424.5804 0.10379999 0.01659999 0.10379999          1 0.57849997
 3424.7328 0.10379999 0.01810000 0.10379999          1 0.56590002
 3424.8852 0.10379999 0.01979999 0.10379999          1 0.55339998
 3425.0376 0.10419999 0.02140000 0.10419999          1 0.54439997
   3425.19 0.10589999 0.02260000 0.10589999          1 0.54619997
 3425.3424 0.10760000 0.02390000 0.10760000          1 0.54799997
 3425.4948 0.10920000 0.02520000 0.10920000          1 0.54979997
 3425.6472 0.10450000 0.02129999 0.10450000          1 0.54610002
 3425.7996 0.09950000 0.01799999 0.09950000          1 0.54220002
  3425.952 0.09449999 0.01510000 0.09449999          1 0.53829997
 3426.1044 0.09290000 0.01439999 0.09290000          1 0.53649997
 3426.2568 0.09290000 0.01439999 0.09290000          1 0.53560000
 3426.4092 0.09290000 0.01449999 0.09290000          1 0.53469997
 3426.5616 0.09149999 0.01300000 0.09149999          1 0.54250001
  3426.714 0.08820000 0.00989999 0.08820000          1 0.56339997
 3426.8664 0.08489999 0.00749999 0.08489999          1 0.58420002
 3427.0188 0.08280000 0.00620000 0.08280000          1 0.60030001
 3427.1712 0.08950000 0.00899999 0.08950000          1 0.58329999
 3427.3236 0.09610000 0.01329999 0.09610000          1 0.56629997
  3427.476 0.09950000 0.01950000 0.10279999 0.96829998 0.54930001
 3427.6284 0.09960000 0.01720000 0.09960000          1 0.54890000
 3427.7808 0.09459999 0.01389999 0.09459999          1 0.55159997
 3427.9332 0.08959999 0.01109999 0.08959999          1 0.55430001
 3428.0856 0.08929999 0.00980000 0.08929999          1 0.57080000
  3428.238 0.09260000 0.00930000 0.09260000          1 0.59820002
 3428.3904 0.09600000 0.00879999 0.09600000          1 0.62550002
 3428.5428 0.09790000 0.00850000 0.09790000          1 0.64050000
 3428.6952 0.09619999 0.00899999 0.09619999          1 0.62389999
 3428.8476 0.09459999 0.00939999 0.09459999          1 0.60720002
      3429 0.09290000 0.00989999 0.09290000          1 0.59049999
 3429.1524 0.09290000 0.01130000 0.09290000          1 0.57050001
 3429.3048 0.09290000 0.01300000 0.09290000          1 0.55049997
 3429.4572 0.09290000 0.01499999 0.09290000          1 0.53049999
 3429.6096 0.09409999 0.01539999 0.09409999          1 0.53289997
  3429.762 0.09579999 0.01530000 0.09579999          1 0.54390001
 3429.9144 0.09740000 0.01520000 0.09740000          1 0.55489999
 3430.0668 0.09839999 0.01530000 0.09839999          1 0.55900001
 3430.2192 0.09839999 0.01579999 0.09839999          1 0.55419999
 3430.3716 0.09839999 0.01630000 0.09839999          1 0.54949998
  3430.524 0.09809999 0.01649999 0.09809999          1 0.54629999
 3430.6764 0.09640000 0.01489999 0.09640000          1 0.55199998
 3430.8288 0.09480000 0.01339999 0.09480000          1 0.55760002
 3430.9812 0.09309999 0.01200000 0.09309999          1 0.56319999
 3431.1336 0.09000000 0.01219999 0.09000000          1 0.54309999
  3431.286 0.08659999 0.01260000 0.08659999          1 0.51940000
 3431.4384 0.08330000 0.01300000 0.08330000          1 0.49570000
 3431.5908 0.08299999 0.01329999 0.08299999          1 0.48949998
 3431.7432 0.08460000 0.01370000 0.08460000          1 0.49509999
 3431.8956 0.08630000 0.01410000 0.08630000          1 0.50080001
  3432.048 0.09009999 0.01610000 0.09009999          1 0.50370001
 3432.2004 0.09839999 0.02290000 0.09839999          1 0.50069999
 3432.3528 0.10509999 0.03260000 0.10670000 0.98489999 0.49770000
 3432.5052 0.10499999 0.04619999 0.11490000 0.91360002 0.49500000
 3432.6576 0.10119999 0.05409999 0.11990000 0.84350001 0.50110000
   3432.81 0.09769999 0.06340000 0.12489999 0.78219997 0.50709998
 3432.9624 0.09470000 0.27840000 0.16290000 0.58149999 0.51319998
 3433.1148 0.09359999 0.26949998 0.16539999 0.56580001 0.53240001
 3433.2672 0.09300000 0.25189998 0.16779999 0.55460000 0.55589997
 3433.4196 0.09239999 0.05930000 0.13570000 0.68070000 0.57950001
  3433.572 0.09260000 0.05550000 0.13580000 0.68190002 0.58960002
 3433.7244 0.09369999 0.05370000 0.13420000 0.69840002 0.58480000
 3433.8768 0.09480000 0.05189999 0.13249999 0.71569997 0.57999998
 3434.0292 0.09570000 0.04780000 0.13050000 0.73299998 0.58039999
 3434.1816 0.09510000 0.03590000 0.12720000 0.74800002 0.60280001
  3434.334 0.09459999 0.02690000 0.12380000 0.76380002 0.62510001
 3434.4864 0.09409999 0.02019999 0.12049999 0.78049999 0.64749997
 3434.6388 0.09740000 0.01879999 0.12020000 0.80989998 0.65619999
 3434.7912 0.10149999 0.01779999 0.12020000 0.84429997 0.66360002
 3434.9436 0.10620000 0.01689999 0.12020000 0.88340002 0.67100000
  3435.096 0.11069999 0.01759999 0.12340000 0.89700001 0.68389999
 3435.2484 0.11509999 0.01920000 0.12839999 0.89649999 0.69999998
 3435.4008 0.12009999 0.02099999 0.13339999 0.90030002 0.71619999
 3435.5532 0.12399999 0.02060000 0.13429999 0.92369997 0.72420001
 3435.7056 0.12510000 0.01649999 0.12759999 0.98000001 0.71729999
  3435.858 0.12099999 0.01329999 0.12099999          1 0.71030002
 3436.0104 0.11450000 0.01070000 0.11450000          1 0.70480000
 3436.1628 0.11119999 0.00850000 0.11119999          1 0.71899998
 3436.3152 0.10790000 0.00669999 0.10790000          1 0.73309999
 3436.4676 0.10450000 0.00529999 0.10450000          1 0.74730002
   3436.62 0.10379999 0.00510000 0.10379999          1 0.74919998
