~Version Information
VERS.                     2.0: CWLS log ASCII Standard Version 2.00
WRAP.                      NO: One line per depth step

~Well Information Block
#MNEM.UNIT                 Value                       Information
#------------              -----                       -----------
STRT.M                    3575.000                    :START
STOP.M                    3761.800                    :STOP
STEP.M                       0.100                    :STEP
NULL.                     -999.25                     :NULL VALUE
COMP.         Statoil Petroleum AS                    :Company
WELL.         15/9-F-11 A                             :Well
FLD .         VOLVE                                   :Field
LOC .         Maersk Inspirer                         :Location
PROV.                                                 :Province
CNTY.                                                 :County
STATE.                                                 :State
CTRY.         Norway                                  :Country
DATE.                                                 :Log Date
SRVC.                                                 :Service Company
UWI .                                                 :Unique Well Identifier
API .                                                 :API Number
LATI.         058 26' 29.956" N    DMS                :Latitude
LONG.         001 53' 14.866" E    DMS                :Longtitude
PD  .         MSL                                     :Permanent Datum
EDF .M            54.900                              :Elevations D.F.
EGL .M           -91.000                              :Elevations G.L.
ELZ .M            54.900                              :Elev. Log Zero
LMF .         DF                                      :Log Measured From

~Curve Information
#MNEM   .UNIT             API CODE Curve Description
#------------             -------- -----------------
DEPTH   .M            00 001 00 00:   0  Depth
BVW     .v/v          00 000 00 00:   1  BVW:CPI:rC:NONE:v1
CARB_FLAG.UNKNOWN     00 000 00 00:   2  CARB_FLAG:CPI:rC:NONE:v1
COAL_FLAG.UNKNOWN     00 000 00 00:   3  COAL_FLAG:CPI:rC:NONE:v1
KLOGH   .mD           00 000 00 00:   4  KLOGH:CPI:rC:NONE:v1
PHIF    .v/v          00 000 00 00:   5  PHIF:CPI:rC:NONE:v1
SAND_FLAG.UNKNOWN     00 000 00 00:   6  SAND_FLAG:CPI:rC:NONE:v1
SW      .v/v          00 000 00 00:   7  SW:CPI:rC:NONE:v1
VSH     .v/v          00 000 00 00:   8  VSH:CPI:rC:NONE:v1

~Parameter Information
#MNEM.UNIT       Value           Description
#------------    -----           -----------
RUN .         1                 :Run number

~Other Information
PETROPHYSICAL_INTERPRETATION: OUTPUT

# --- LOG MNEMONICS AND UNITS ---
#Depth     BVW        CARB_FLAG  COAL_FLAG  KLOGH      PHIF       SAND_FLAG  SW         VSH       
#M         v/v        UNKNOWN    UNKNOWN    mD         v/v        UNKNOWN    v/v        v/v       

~A
# ...
  3728.900      0.104      0.000      0.000      0.100      0.104      0.000      1.000      0.669
  3729.000      0.101      0.000      0.000      0.081      0.101      0.000      1.000      0.667
  3729.100      0.097      0.000      0.000      0.068      0.097      0.000      1.000      0.636
  3729.200      0.092      0.000      0.000      0.051      0.092      0.000      1.000      0.613
  3729.300      0.085      0.000      0.000      0.031      0.085      0.000      1.000      0.624
  3729.400      0.079      0.000      0.000      0.017      0.079      0.000      1.000      0.643
  3729.500      0.071      0.000      0.000      0.009      0.071      0.000      1.000      0.649
  3729.600      0.061      0.000      0.000      0.005      0.061      0.000      1.000      0.632
  3729.700      0.046      1.000      0.000      0.002      0.046      0.000      1.000      0.635
  3729.800      0.028      1.000      0.000      0.001      0.028      0.000      1.000      0.624
  3729.900      0.009      1.000      0.000      0.001      0.009      0.000      1.000      0.626
  3730.000    -999.25      1.000      0.000    -999.25    -999.25      0.000    -999.25      0.586
  3730.100    -999.25      1.000      0.000    -999.25    -999.25      0.000    -999.25      0.545
  3730.200    -999.25      1.000      0.000    -999.25    -999.25      0.000    -999.25      0.510
  3730.300    -999.25      1.000      0.000    -999.25    -999.25      0.000    -999.25      0.451
  3730.400      0.007      0.000      0.000      0.001      0.007      0.000      1.000      0.413
  3730.500      0.014      0.000      0.000      0.001      0.014      0.000      1.000      0.397
  3730.600      0.020      0.000      0.000      0.001      0.020      0.000      1.000      0.387
  3730.700      0.025      0.000      0.000      0.001      0.025      0.000      1.000      0.376
  3730.800      0.028      0.000      0.000      0.001      0.028      0.000      1.000      0.381
  3730.900      0.027      0.000      0.000      0.001      0.027      0.000      1.000      0.402
  3731.000      0.024      0.000      0.000      0.001      0.024      0.000      1.000      0.415
  3731.100      0.019      0.000      0.000      0.001      0.019      0.000      1.000      0.410
  3731.200      0.013      0.000      0.000      0.001      0.013      0.000      1.000      0.419
  3731.300      0.005      0.000      0.000      0.001      0.005      0.000      1.000      0.444
  3731.400    -999.25      1.000      0.000    -999.25    -999.25      0.000    -999.25      0.430
  3731.500    -999.25      1.000      0.000    -999.25    -999.25      0.000    -999.25      0.413
  3731.600    -999.25      1.000      0.000    -999.25    -999.25      0.000    -999.25      0.392
  3731.700    -999.25      1.000      0.000    -999.25    -999.25      0.000    -999.25      0.385
  3731.800    -999.25      1.000      0.000    -999.25    -999.25      0.000    -999.25      0.371
  3731.900      0.012      1.000      0.000      0.001      0.012      0.000      1.000      0.355
  3732.000      0.031      0.000      0.000      0.002      0.031      0.000      1.000      0.341
  3732.100      0.046      0.000      0.000      0.006      0.046      0.000      1.000      0.356
  3732.200      0.058      0.000      0.000      0.012      0.058      0.000      1.000      0.379
  3732.300      0.066      0.000      0.000      0.021      0.066      0.000      1.000      0.390
  3732.400      0.073      0.000      0.000      0.037      0.074      0.000      0.996      0.398
  3732.500      0.077      0.000      0.000      0.082      0.085      0.000      0.913      0.400
  3732.600      0.084      0.000      0.000      0.256      0.100      1.000      0.843      0.398
  3732.700      0.088      0.000      0.000      0.950      0.118      1.000      0.747      0.396
  3732.800      0.092      0.000      0.000      3.214      0.134      1.000      0.687      0.391
  3732.900      0.107      0.000      0.000      7.051      0.146      1.000      0.737      0.405
  3733.000      0.124      0.000      0.000     10.522      0.151      1.000      0.820      0.410
  3733.100      0.134      0.000      0.000     11.586      0.153      1.000      0.876      0.414
  3733.200      0.136      0.000      0.000      9.228      0.152      1.000      0.895      0.454
  3733.300      0.133      0.000      0.000      7.927      0.151      1.000      0.883      0.463
  3733.400      0.132      0.000      0.000      6.319      0.148      1.000      0.887      0.472
  3733.500      0.136      0.000      0.000      4.280      0.144      1.000      0.940      0.494
  3733.600      0.140      0.000      0.000      2.574      0.140      0.000      0.997      0.537
  3733.700      0.138      0.000      0.000      1.860      0.138      0.000      1.000      0.569
  3733.800      0.138      0.000      0.000      1.660      0.138      0.000      1.000      0.604
  3733.900      0.138      0.000      0.000      2.062      0.142      0.000      0.974      0.609
  3734.000      0.136      0.000      0.000      2.453      0.146      0.000      0.936      0.636
  3734.100      0.134      0.000      0.000      2.880      0.149      0.000      0.902      0.651
  3734.200      0.134      0.000      0.000      3.571      0.151      0.000      0.889      0.636
  3734.300      0.139      0.000      0.000      4.496      0.153      0.000      0.906      0.625
  3734.400      0.141      0.000      0.000      6.308      0.157      0.000      0.900      0.614
  3734.500      0.142      0.000      0.000     10.293      0.163      0.000      0.874      0.595
  3734.600      0.144      0.000      0.000     21.271      0.169      0.000      0.851      0.541
  3734.700      0.146      0.000      0.000     43.447      0.175      1.000      0.831      0.486
  3734.800      0.152      0.000      0.000     69.981      0.179      1.000      0.846      0.450
  3734.900      0.159      0.000      0.000     83.618      0.181      1.000      0.876      0.434
  3735.000      0.164      0.000      0.000     80.384      0.181      1.000      0.905      0.450
  3735.100      0.168      0.000      0.000    106.240      0.184      1.000      0.911      0.432
  3735.200      0.170      0.000      0.000    203.149      0.191      1.000      0.893      0.401
  3735.300      0.172      0.000      0.000    442.406      0.201      1.000      0.856      0.388
  3735.400      0.172      0.000      0.000    812.561      0.209      1.000      0.825      0.390
  3735.500      0.172      0.000      0.000   1051.422      0.213      1.000      0.808      0.396
  3735.600      0.172      0.000      0.000    924.683      0.212      1.000      0.814      0.402
  3735.700      0.185      0.000      0.000    635.624      0.206      1.000      0.895      0.402
  3735.800      0.197      0.000      0.000    384.728      0.200      1.000      0.982      0.407
  3735.900      0.194      0.000      0.000    242.672      0.194      1.000      1.000      0.410
  3736.000      0.190      0.000      0.000    173.336      0.190      1.000      1.000      0.415
  3736.100      0.188      0.000      0.000    149.735      0.188      1.000      1.000      0.413
  3736.200      0.188      0.000      0.000    157.423      0.188      1.000      1.000      0.403
  3736.300      0.183      0.000      0.000    196.707      0.190      1.000      0.964      0.392
  3736.400      0.181      0.000      0.000    302.629      0.194      1.000      0.931      0.372
  3736.500      0.181      0.000      0.000    482.160      0.201      1.000      0.904      0.368
  3736.600      0.186      0.000      0.000    677.614      0.206      1.000      0.904      0.376
  3736.700      0.194      0.000      0.000    845.463      0.208      1.000      0.930      0.367
  3736.800    -999.25      0.000      0.000    -999.25    -999.25    -999.25    -999.25      0.361
  3736.900    -999.25      0.000      0.000    -999.25    -999.25    -999.25    -999.25      0.354
