~Version Information
VERS.                     2.0: CWLS log ASCII Standard Version 2.00
WRAP.                      NO: One line per depth step

~Well Information Block
#MNEM.UNIT                 Value                       Information
#------------              -----                       -----------
STRT.M                    3575.000                    :START
STOP.M                    3761.800                    :STOP
STEP.M                       0.100                    :STEP
NULL.                     -999.25                     :NULL VALUE
COMP.         Statoil Petroleum AS                    :Company
WELL.         15/9-F-11 A                             :Well
FLD .         VOLVE                                   :Field
LOC .         Maersk Inspirer                         :Location
PROV.                                                 :Province
CNTY.                                                 :County
STATE.                                                 :State
CTRY.         Norway                                  :Country
DATE.                                                 :Log Date
SRVC.                                                 :Service Company
UWI .                                                 :Unique Well Identifier
API .                                                 :API Number
LATI.         058 26' 29.956" N    DMS                :Latitude
LONG.         001 53' 14.866" E    DMS                :Longtitude
PD  .         MSL                                     :Permanent Datum
EDF .M            54.900                              :Elevations D.F.
EGL .M           -91.000                              :Elevations G.L.
ELZ .M            54.900                              :Elev. Log Zero
LMF .         DF                                      :Log Measured From

~Curve Information
#MNEM   .UNIT             API CODE Curve Description
#------------             -------- -----------------
DEPTH   .M            00 001 00 00:   0  Depth
BVW     .v/v          00 000 00 00:   1  BVW:CPI:rC:NONE:v1
CARB_FLAG.UNKNOWN     00 000 00 00:   2  CARB_FLAG:CPI:rC:NONE:v1
COAL_FLAG.UNKNOWN     00 000 00 00:   3  COAL_FLAG:CPI:rC:NONE:v1
KLOGH   .mD           00 000 00 00:   4  KLOGH:CPI:rC:NONE:v1
PHIF    .v/v          00 000 00 00:   5  PHIF:CPI:rC:NONE:v1
SAND_FLAG.UNKNOWN     00 000 00 00:   6  SAND_FLAG:CPI:rC:NONE:v1
SW      .v/v          00 000 00 00:   7  SW:CPI:rC:NONE:v1
VSH     .v/v          00 000 00 00:   8  VSH:CPI:rC:NONE:v1

~Parameter Information
#MNEM.UNIT       Value           Description
#------------    -----           -----------
RUN .         1                 :Run number

~Other Information
PETROPHYSICAL_INTERPRETATION: OUTPUT

# --- LOG MNEMONICS AND UNITS ---
#Depth     BVW        CARB_FLAG  COAL_FLAG  KLOGH      PHIF       SAND_FLAG  SW         VSH       
#M         v/v        UNKNOWN    UNKNOWN    mD         v/v        UNKNOWN    v/v        v/v       

~A
# ...
  3607.400      0.088      0.000      0.000     11.299      0.198      1.000      0.447      0.281
  3607.500      0.099      0.000      0.000     13.401      0.211      1.000      0.467      0.285
  3607.600      0.105      0.000      0.000     17.135      0.225      1.000      0.469      0.285
  3607.700      0.110      0.000      0.000     19.735      0.233      1.000      0.474      0.285
  3607.800      0.113      0.000      0.000     21.375      0.237      1.000      0.476      0.285
  3607.900      0.114      0.000      0.000     26.677      0.240      1.000      0.477      0.277
  3608.000      0.110      0.000      0.000     26.469      0.242      1.000      0.455      0.279
  3608.100      0.110      0.000      0.000     25.790      0.244      1.000      0.449      0.283
  3608.200      0.114      0.000      0.000     23.206      0.242      1.000      0.472      0.285
  3608.300      0.124      0.000      0.000     18.978      0.235      1.000      0.528      0.289
  3608.400      0.131      0.000      0.000      8.437      0.226      1.000      0.580      0.320
  3608.500      0.130      0.000      0.000      4.011      0.219      1.000      0.595      0.350
  3608.600      0.128      0.000      0.000      2.297      0.216      1.000      0.591      0.374
  3608.700      0.142      0.000      0.000      1.853      0.219      1.000      0.648      0.387
  3608.800      0.162      0.000      0.000      2.511      0.224      1.000      0.722      0.377
  3608.900      0.162      0.000      0.000      2.318      0.229      1.000      0.710      0.385
  3609.000      0.144      0.000      0.000      0.060      0.230      0.000      0.626      0.562
  3609.100      0.133      0.000      0.000      0.063      0.228      0.000      0.583      0.558
  3609.200      0.136      0.000      0.000      0.047      0.221      0.000      0.616      0.566
  3609.300      0.138      0.000      0.000      0.058      0.212      0.000      0.653      0.548
  3609.400      0.128      0.000      0.000      0.027      0.157      0.000      0.817      0.535
  3609.500      0.121      0.000      0.000      0.024      0.132      0.000      0.920      0.519
  3609.600      0.105      0.000      0.000      0.016      0.105      0.000      1.000      0.516
  3609.700      0.080      0.000      0.000      0.014      0.080      0.000      1.000      0.500
  3609.800      0.059      0.000      0.000      0.012      0.059      0.000      1.000      0.488
  3609.900      0.046      0.000      0.000      0.006      0.046      0.000      1.000      0.507
  3610.000      0.044      0.000      0.000      0.003      0.044      0.000      1.000      0.536
  3610.100      0.055      0.000      0.000      0.003      0.055      0.000      1.000      0.556
  3610.200      0.075      0.000      0.000      0.002      0.075      0.000      1.000      0.598
  3610.300      0.097      0.000      0.000      0.002      0.097      0.000      1.000      0.613
  3610.400      0.110      0.000      0.000      0.002      0.116      0.000      0.947      0.624
  3610.500      0.101      0.000      0.000      0.002      0.129      0.000      0.787      0.637
  3610.600      0.101      0.000      0.000      0.002      0.136      0.000      0.739      0.655
  3610.700      0.098      0.000      0.000      0.001      0.140      0.000      0.704      0.678
  3610.800      0.085      0.000      0.000      0.002      0.141      0.000      0.599      0.655
  3610.900      0.072      0.000      0.000      0.002      0.141      0.000      0.514      0.638
  3611.000      0.062      0.000      0.000      0.003      0.135      0.000      0.459      0.620
  3611.100      0.073      0.000      0.000      0.005      0.123      0.000      0.595      0.589
  3611.200      0.076      0.000      0.000      0.004      0.105      0.000      0.722      0.578
  3611.300      0.069      0.000      0.000      0.001      0.086      0.000      0.802      0.620
  3611.400      0.052      0.000      0.000      0.000      0.072      0.000      0.717      0.672
  3611.500      0.038      0.000      0.000      0.000      0.069      0.000      0.545      0.736
  3611.600      0.030      0.000      0.000      0.000      0.077      0.000      0.394      0.791
  3611.700      0.028      0.000      0.000      0.000      0.089      0.000      0.310      0.785
  3611.800      0.022      0.000      0.000      0.000      0.101      0.000      0.215      0.767
  3611.900      0.022      0.000      0.000      0.000      0.111      0.000      0.198      0.706
  3612.000      0.022      0.000      0.000      0.003      0.118      0.000      0.184      0.604
  3612.100      0.022      0.000      0.000      0.033      0.126      0.000      0.171      0.499
  3612.200      0.022      0.000      0.000      0.195      0.134      0.000      0.161      0.420
  3612.300      0.022      0.000      0.000      0.535      0.138      0.000      0.156      0.375
  3612.400      0.022      0.000      0.000      0.026      0.134      0.000      0.163      0.517
  3612.500      0.023      0.000      0.000      0.028      0.124      0.000      0.188      0.505
  3612.600      0.022      0.000      0.000      0.223      0.111      0.000      0.196      0.393
  3612.700      0.022      0.000      0.000      1.446      0.100      0.000      0.215      0.294
  3612.800      0.022      0.000      0.000      9.366      0.096      0.000      0.229      0.200
  3612.900      0.023      0.000      0.000     38.995      0.099      0.000      0.228      0.133
  3613.000      0.024      0.000      0.000    113.959      0.110      1.000      0.219      0.091
  3613.100      0.026      0.000      0.000    743.946      0.161      1.000      0.165      0.046
  3613.200      0.026      0.000      0.000   1214.754      0.171      1.000      0.155      0.032
  3613.300      0.026      0.000      0.000   1671.006      0.182      1.000      0.142      0.026
  3613.400      0.026      0.000      0.000   2393.070      0.190      1.000      0.138      0.016
  3613.500      0.028      0.000      0.000   2934.975      0.197      1.000      0.144      0.012
  3613.600      0.030      0.000      0.000   3334.153      0.202      1.000      0.147      0.010
  3613.700      0.030      0.000      0.000   3149.906      0.208      1.000      0.144      0.019
  3613.800      0.031      0.000      0.000   3655.986      0.213      1.000      0.144      0.016
  3613.900      0.032      0.000      0.000   4345.949      0.216      1.000      0.147      0.010
  3614.000      0.032      0.000      0.000   4294.014      0.218      1.000      0.148      0.012
  3614.100      0.033      0.000      0.000   4231.437      0.217      1.000      0.153      0.012
  3614.200      0.037      0.000      0.000   3982.949      0.214      1.000      0.171      0.013
  3614.300      0.038      0.000      0.000   3763.505      0.211      1.000      0.180      0.012
  3614.400      0.035      0.000      0.000   3619.543      0.208      1.000      0.166      0.012
  3614.500      0.032      0.000      0.000   3518.153      0.208      1.000      0.155      0.013
  3614.600      0.038      0.000      0.000   3146.123      0.210      1.000      0.179      0.020
  3614.700      0.038      0.000      0.000   3081.720      0.213      1.000      0.180      0.023
  3614.800      0.035      0.000      0.000   3421.717      0.214      1.000      0.163      0.020
  3614.900      0.033      0.000      0.000   3213.114      0.216      1.000      0.153      0.025
  3615.000      0.032      0.000      0.000   3011.274      0.215      1.000      0.147      0.027
  3615.100      0.032      0.000      0.000   2659.247      0.214      1.000      0.149      0.032
  3615.200      0.038      0.000      0.000   2556.404      0.213      1.000      0.177      0.033
  3615.300      0.042      0.000      0.000   2785.674      0.212      1.000      0.199      0.028
  3615.400      0.045      0.000      0.000   2828.227      0.212      1.000      0.211      0.027
