~Version Information
VERS.                     2.0: CWLS log ASCII Standard Version 2.00
WRAP.                      NO: One line per depth step

~Well Information Block
#MNEM.UNIT                 Value                       Information
#------------              -----                       -----------
STRT.M                   3205.0000                    :START
STOP.M                   4093.8000                    :STOP
STEP.M                      0.1000                    :STEP
NULL.                     -999.25                     :NULL VALUE
COMP.         Statoil Petroleum                       :Company
WELL.         15/9-F-1 C                              :Well
FLD .         VOLVE                                   :Field
LOC .         Maersk Inspirer                         :Location
PROV.                                                 :Province
CNTY.                                                 :County
STATE.                                                 :State
CTRY.                                                 :Country
DATE.                                                 :Log Date
SRVC.                                                 :Service Company
UWI .                                                 :Unique Well Identifier
API .                                                 :API Number
LATI.         058 26' 29.907" N    DMS                :Latitude
LONG.         001 53' 14.708" E    DMS                :Longtitude
PD  .         MSL                                     :Permanent Datum
EDF .M                54.9000                         :Elevations D.F.
EGL .M               -91.0000                         :Elevations G.L.
ELZ .M                54.9000                         :Elev. Log Zero
LMF .         DF                                      :Log Measured From

~Curve Information
#MNEM   .UNIT             API CODE Curve Description
#------------             -------- -----------------
DEPTH   .M            00 001 00 00:   0  Depth
BADDATA_FLAG.unitless 00 000 00 00:   1  Bad Data Flag
BVW     .v/v          00 000 00 00:   2  Bulk Volume Water
COAL_FLAG.unitless    00 000 00 00:   3  Coal Flag
KLOGH   .mD           00 000 00 00:   4  Permeability
PHIF    .v/v          00 000 00 00:   5  Final Porosity
SAND_FLAG.unitless    00 000 00 00:   6  Sand Flag
SW      .v/v          00 000 00 00:   7  Water Saturation
VCARB   .v/v          00 000 00 00:   8  VCARB
VSH     .v/v          00 000 00 00:   9  Volume of Shale

~Parameter Information
#MNEM.UNIT       Value           Description
#------------    -----           -----------
RUN .         1                 :Run number

~Other Information
PETROPHYSICAL INTERPRETATION: OUTPUT

# --- LOG MNEMONICS AND UNITS ---
#Depth          BADDATA_FLAG    BVW             COAL_FLAG       KLOGH           PHIF            SAND_FLAG       SW              VCARB           VSH            
#M              unitless        v/v             unitless        mD              v/v             unitless        v/v             v/v             v/v            

~A
# ...
      3840.0000          0.0000          0.0242          0.0000          4.9288          0.1617          1.0000          0.1499          0.0000          0.2890
      3840.1000          0.0000          0.0241          0.0000          4.3083          0.1564          1.0000          0.1540          0.0000          0.2908
      3840.2000          0.0000          0.0239          0.0000          4.5556          0.1524          1.0000          0.1569          0.0000          0.2845
      3840.3000          0.0000          0.0239          0.0000          4.2563          0.1518          1.0000          0.1575          0.0000          0.2872
      3840.4000          0.0000          0.0237          0.0000          4.5105          0.1470          1.0000          0.1612          0.0000          0.2802
      3840.5000          0.0000          0.0235          0.0000          4.4737          0.1421          1.0000          0.1654          0.0000          0.2763
      3840.6000          0.0000          0.0234          0.0000          3.7926          0.1381          1.0000          0.1693          0.0000          0.2807
      3840.7000          0.0000          0.0234          0.0000          2.8064          0.1355          1.0000          0.1725          0.0000          0.2929
      3840.8000          0.0000          0.0233          0.0000          2.7295          0.1326          1.0000          0.1753          0.0000          0.2917
      3840.9000          0.0000          0.0232          0.0000          2.6106          0.1314          1.0000          0.1766          0.0000          0.2927
      3841.0000          0.0000          0.0232          0.0000          3.3230          0.1317          1.0000          0.1757          0.0000          0.2814
      3841.1000          0.0000          0.0237          0.0000          2.6038          0.1314          1.0000          0.1802          0.0000          0.2928
      3841.2000          0.0000          0.0236          0.0000          3.0246          0.1316          1.0000          0.1797          0.0000          0.2858
      3841.3000          0.0000          0.0237          0.0000          2.9883          0.1325          1.0000          0.1787          0.0000          0.2872
      3841.4000          0.0000          0.0237          0.0000          3.3965          0.1345          1.0000          0.1765          0.0000          0.2828
      3841.5000          0.0000          0.0238          0.0000          3.7234          0.1378          1.0000          0.1731          0.0000          0.2813
      3841.6000          0.0000          0.0240          0.0000          4.1846          0.1419          1.0000          0.1690          0.0000          0.2793
      3841.7000          0.0000          0.0242          0.0000          4.1681          0.1459          1.0000          0.1656          0.0000          0.2830
      3841.8000          0.0000          0.0242          0.0000          4.5355          0.1488          1.0000          0.1630          0.0000          0.2815
      3841.9000          0.0000          0.0244          0.0000          3.7378          0.1502          1.0000          0.1622          0.0000          0.2921
      3842.0000          0.0000          0.0255          0.0000          3.2860          0.1501          1.0000          0.1699          0.0000          0.2983
      3842.1000          0.0000          0.0267          0.0000          3.7473          0.1488          1.0000          0.1796          0.0000          0.2908
      3842.2000          0.0000          0.0283          0.0000          3.3530          0.1471          1.0000          0.1921          0.0000          0.2946
      3842.3000          0.0000          0.0303          0.0000          2.0949          0.1463          1.0000          0.2073          0.0000          0.3166
      3842.4000          0.0000          0.0330          0.0000          1.7652          0.1476          1.0000          0.2235          0.0000          0.3260
      3842.5000          0.0000          0.0406          0.0000          1.5872          0.1510          1.0000          0.2692          0.0000          0.3341
      3842.6000          0.0000          0.0434          0.0000          1.3841          0.1535          1.0000          0.2829          0.0000          0.3430
      3842.7000          0.0000          0.0454          0.0000          1.4370          0.1572          1.0000          0.2891          0.0000          0.3444
      3842.8000          0.0000          0.0474          0.0000          1.7844          0.1575          1.0000          0.3012          0.0000          0.3343
      3842.9000          0.0000          0.0474          0.0000          2.1498          0.1554          1.0000          0.3051          0.0000          0.3235
      3843.0000          0.0000          0.0473          0.0000          1.8170          0.1507          1.0000          0.3137          0.0000          0.3274
      3843.1000          0.0000          0.0462          0.0000          1.5145          0.1428          1.0000          0.3239          0.0000          0.3291
      3843.2000          0.0000          0.0453          0.0000          1.7710          0.1319          1.0000          0.3433          0.0000          0.3119
      3843.3000          0.0000          0.0442          0.0000          1.1224          0.1193          1.0000          0.3707          0.0000          0.3227
      3843.4000          0.0000          0.0426          0.0000          1.5112          0.1057          1.0000          0.4028          0.0161          0.2963
      3843.5000          0.0000          0.0405          0.0000          1.4780          0.0949          0.0000          0.4270          0.0582          0.2877
      3843.6000          0.0000          0.0380          0.0000          1.0382          0.0852          0.0000          0.4457          0.0802          0.2962
      3843.7000          0.0000          0.0373          0.0000          0.9868          0.0788          0.0000          0.4730          0.1047          0.2929
      3843.8000          0.0000          0.0357          0.0000          0.8156          0.0594          0.0000          0.6001          0.1660          0.2967
      3843.9000          0.0000          0.0357          0.0000          0.6246          0.0583          0.0000          0.6116          0.1627          0.3025
      3844.0000          0.0000          0.0314          0.0000          0.3332          0.0572          0.0000          0.5485          0.1752          0.2955
      3844.1000          0.0000          0.0260          0.0000          0.3072          0.0561          0.0000          0.4629          0.1772          0.2969
      3844.2000          0.0000          0.0220          0.0000          0.3215          0.0550          0.0000          0.3991          0.1839          0.2948
      3844.3000          0.0000          0.0196          0.0000          0.3018          0.0539          0.0000          0.3630          0.1839          0.2978
      3844.4000          0.0000          0.0177          0.0000          0.5234          0.0528          0.0000          0.3345          0.1848          0.3002
      3844.5000          0.0000          0.0177          0.0000          0.6026          0.0561          0.0000          0.3147          0.1775          0.2968
      3844.6000          0.0000          0.0176          0.0000          0.8057          0.0594          0.0000          0.2967          0.1778          0.2871
      3844.7000          0.0000          0.0180          0.0000          0.6971          0.0670          0.0000          0.2688          0.1370          0.2992
      3844.8000          0.0000          0.0182          0.0000          0.6259          0.0721          0.0000          0.2523          0.1092          0.3089
      3844.9000          0.0000          0.0181          0.0000          0.6771          0.0749          0.0000          0.2425          0.1015          0.3076
