~Version Information
VERS.                     2.0: CWLS log ASCII Standard Version 2.00
WRAP.                      NO: One line per depth step

~Well Information Block
#MNEM       .UNIT          Value                       Information
#-------------------------------------------------------------------------
STRT        .M             3102.102                    :START
STOP        .M             3505.8096                   :STOP
STEP        .M             0.1524                      :STEP
NULL        .              -999.25                     :NULL VALUE
COMP        .              STATOILHYDRO                :COMPANY
WELL        .              15/9-F-12                   :WELL
FLD         .              VOLVE                       :FIELD
LOC         .              UNKNOWN                     :LOCATION
CNTY        .              UNKNOWN                     :COUNTY
STAT        .              UNKNOWN                     :STATE
CTRY        .              Norway                      :COUNTRY
SRVC        .              UNKNOWN                     :SERVICE COMPANY
DATE        .              UNKNOWN                     :LOG DATE
UWI         .              NO 15/9-F-12                :UNIQUE WELL ID
XCOORD      .              435050.170000               :SURFACE X
YCOORD      .              6478574.700000              :SURFACE Y
LAT         .              58.441713                   :LATITUDE
LON         .              1.887480                    :LONGITUDE
ELEV        .M             54.9000                     :SURFACE ELEV
ELEV_TYPE   .              KB                          :ELEV TYPE

~Curve Information
#MNEM       .UNIT             API CODE : Curve Description
#-------------------------------------------------------------------------
DEPTH       .M                UNKNOWN  : Measured Dept
BVW         .v/v_decimal      UNKNOWN  : BVW:UNKNOWN:rC:NONE:v1
KLOGH       .mD               UNKNOWN  : KLOGH:UNKNOWN:rC:NONE:v1
PHIF        .v/v_decimal      UNKNOWN  : PHIF:UNKNOWN:rC:NONE:v1
SW          .v/v_decimal      UNKNOWN  : SW:UNKNOWN:rC:NONE:v1
VSH         .v/v_decimal      UNKNOWN  : VSH:UNKNOWN:rC:NONE:v1
# --- LOG MNEMONICS AND UNITS ---
#Depth     BVW        KLOGH      PHIF       SW         VSH       
#M         v/v_decima mD         v/v_decima v/v_decima v/v_decima
~A
# ...
 3176.4732 0.03660000 0.23870000 0.27180001 0.13470000 0.53289997
 3176.6256 0.03669999 0.20849999 0.26969999 0.13600000 0.53759998
  3176.778 0.03669999 0.17139999 0.26669999 0.13779999 0.54439997
 3176.9304 0.03680000 0.14090000 0.26359999 0.13969999 0.55110001
 3177.0828 0.03669999 0.13529999 0.26190000 0.14030000 0.55159997
 3177.2352 0.03649999 0.14810000 0.26129999 0.13979999 0.54670000
 3177.3876 0.03640000 0.16220000 0.26080000 0.13940000 0.54180002
   3177.54 0.03570000 0.17839999 0.26069998 0.13709999 0.53710001
 3177.6924 0.03409999 0.19920000 0.26219999 0.13009999 0.53310000
 3177.8448 0.03269999 0.22239999 0.26359999 0.12409999 0.52910000
 3177.9972 0.03150000 0.24830000 0.26510000 0.11879999 0.52509999
 3178.1496 0.03299999 0.25900000 0.26330000 0.12530000 0.52149999
  3178.302 0.03489999 0.26980000 0.26150000 0.13339999 0.51789999
 3178.4544 0.03720000 0.28099998 0.25960001 0.14339999 0.51429998
 3178.6068 0.03860000 0.34020000 0.25279998 0.15270000 0.49889999
 3178.7592 0.03950000 0.43900001 0.24379999 0.16210000 0.47859999
 3178.9116 0.04050000 0.56650000 0.23479999 0.17270000 0.45829999
  3179.064 0.04280000 0.57499998 0.22439999 0.19059999 0.44839999
 3179.2164 0.04780000 0.41870000 0.21230000 0.22509999 0.45289999
 3179.3688 0.05620000 0.30480000 0.20020000 0.28060001 0.45750001
 3179.5212 0.05970000 0.22490000 0.18950000 0.31479999 0.46270000
 3179.6736 0.03579999 0.17990000 0.18809999 0.19030000 0.47220000
  3179.826 0.02879999 0.14390000 0.18670000 0.15399999 0.48170000
 3179.9784 0.02500000 0.11509999 0.18529999 0.13470000 0.49120000
 3180.1308 0.02720000 0.04560000 0.17370000 0.15649999 0.52560001
 3180.2832 0.03220000 0.01610000 0.16050000 0.20069999 0.56410002
 3180.4356 0.04369999 0.00570000 0.14730000 0.29690000 0.60259997
  3180.588 0.06069999 0.00310000 0.14929999 0.40659999 0.63340002
 3180.7404 0.06849999 0.00240000 0.16230000 0.42190000 0.65850001
 3180.8928 0.07970000 0.00179999 0.17530000 0.45469999 0.68370002
 3181.0452 0.07729999 0.00170000 0.18680000 0.41400000 0.69489997
 3181.1976 0.05649999 0.00310000 0.19460000 0.29049998 0.67330002
   3181.35 0.04749999 0.00570000 0.20239999 0.23479999 0.65160000
 3181.5024 0.04210000 0.01020000 0.21009999 0.20029999 0.63029998
 3181.6548 0.03770000 0.01119999 0.21559999 0.17499999 0.63069999
 3181.8072 0.03469999 0.01229999 0.22110000 0.15680000 0.63109999
 3181.9596 0.03240000 0.01350000 0.22669999 0.14280000 0.63139998
  3182.112 0.03200000 0.01940000 0.22959999 0.13920000 0.61650002
 3182.2644 0.03209999 0.03079999 0.23160000 0.13879999 0.59589999
 3182.4168 0.03229999 0.04890000 0.23360000 0.13840000 0.57539999
 3182.5692 0.03189999 0.09610000 0.23469999 0.13600000 0.54390001
 3182.7216 0.03089999 0.24369999 0.23499999 0.13140000 0.49919998
  3182.874 0.02989999 0.61809998 0.23520000 0.12720000 0.45449998
 3183.0264 0.02879999 1.70249998 0.23600000 0.12189999 0.40639999
 3183.1788 0.02669999 6.94829988 0.23999999 0.11119999 0.34200000
 3183.3312 0.02500000 28.3570995 0.24400000 0.10249999 0.27770000
 3183.4836 0.02360000 115.730003 0.24799999 0.09510000 0.21340000
  3183.636 0.02329999 169.012893 0.24789999 0.09399999 0.19499999
 3183.7884 0.02319999 218.059005 0.24719999 0.09359999 0.18219999
 3183.9408 0.02300000 281.337707 0.24660000 0.09319999 0.16930000
 3184.0932 0.02270000 223.225204 0.24330000 0.09329999 0.17749999
 3184.2456 0.02229999 130.060302 0.23819999 0.09369999 0.19900000
  3184.398 0.02199999 75.7786026 0.23309999 0.09430000 0.22059999
 3184.5504 0.02229999 38.6971015 0.22939999 0.09740000 0.24979999
 3184.7028 0.02449999 15.1324996 0.22859999 0.10710000 0.29440000
 3184.8552 0.02740000 5.91750001 0.22789999 0.12039999 0.33899998
 3185.0076 0.03130000 2.51189994 0.22740000 0.13750000 0.37990000
   3185.16 0.02590000 5.09119987 0.23270000 0.11140000 0.35049998
 3185.3124 0.02280000 10.3186998 0.23800000 0.09579999 0.32109999
 3185.4648 0.02070000 20.9137992 0.24330000 0.08500000 0.29179999
 3185.6172 0.02019999 29.9972991 0.24930000 0.08089999 0.27970001
 3185.7696 0.01999999 38.7820014 0.25560000 0.07840000 0.27289998
  3185.922 0.01989999 50.1394996 0.26179999 0.07609999 0.26600000
 3186.0744 0.01950000 60.6820983 0.26320001 0.07419999 0.25799998
 3186.2268 0.01889999 68.5308990 0.25949999 0.07270000 0.24889999
 3186.3792 0.01830000 77.3949966 0.25580000 0.07140000 0.23970000
 3186.5316 0.01769999 96.8599014 0.25330001 0.06979999 0.22669999
  3186.684 0.01710000 179.509597 0.25560000 0.06679999 0.19900000
 3186.8364 0.01649999 332.684112 0.25780001 0.06400000 0.17120000
 3186.9888 0.01600000 616.560485 0.26010000 0.06150000 0.14339999
 3187.1412 0.01539999 609.294799 0.25360000 0.06069999 0.13819999
 3187.2936 0.01480000 572.819824 0.24639999 0.06010000 0.13480000
  3187.446 0.01429999 538.528076 0.23919999 0.05970000 0.13140000
 3187.5984 0.01379999 607.786682 0.23899999 0.05759999 0.12530000
 3187.7508 0.01329999 758.297302 0.24259999 0.05490000 0.11779999
 3187.9032 0.01290000 946.081726 0.24609999 0.05240000 0.11029999
 3188.0556 0.01250000 1089.33300 0.24879999 0.05040000 0.10589999
  3188.208 0.01219999 1090.69897 0.24979999 0.04890000 0.10679999
 3188.3604 0.01190000 1092.06896 0.25090000 0.04760000 0.10769999
 3188.5128 0.01169999 1084.21105 0.25189998 0.04630000 0.10890000
 3188.6652 0.01130000 981.378112 0.25270000 0.04490000 0.11439999
 3188.8176 0.01099999 888.297912 0.25339999 0.04360000 0.11990000
   3188.97 0.01080000 804.046386 0.25420001 0.04239999 0.12540000
 3189.1224 0.01070000 851.582702 0.25490000 0.04190000 0.12319999
 3189.2748 0.01059999 937.333007 0.25549998 0.04160000 0.11909999
 3189.4272 0.01059999 1031.71801 0.25619998 0.04129999 0.11509999
 3189.5796 0.01049999 1052.36096 0.25639998 0.04100000 0.11429999
  3189.732 0.01049999 1001.22198 0.25619998 0.04080000 0.11659999
 3189.8844 0.01040000 952.566223 0.25600001 0.04060000 0.11879999
 3190.0368 0.01030000 913.205627 0.25470000 0.04050000 0.11959999
 3190.1892 0.01009999 896.675415 0.24969999 0.04039999 0.11609999
 3190.3416 0.00989999 880.444274 0.24480000 0.04050000 0.11259999
  3190.494 0.00970000 864.506774 0.23980000 0.04050000 0.10909999
 3190.6464 0.00980000 986.703613 0.24549999 0.03990000 0.10769999
 3190.7988 0.00989999 1133.13793 0.25159999 0.03920000 0.10649999
 3190.9512 0.00989999 1301.30297 0.25769999 0.03860000 0.10520000
 3191.1036 0.00989999 1310.86096 0.25850000 0.03830000 0.10559999
  3191.256 0.00980000 1241.43505 0.25699999 0.03799999 0.10689999
 3191.4084 0.00970000 1175.68701 0.25540000 0.03779999 0.10809999
 3191.5608 0.00960000 1126.42504 0.25450000 0.03770000 0.10939999
 3191.7132 0.00960000 1098.27294 0.25459998 0.03759999 0.11069999
 3191.8656 0.00960000 1070.82495 0.25470000 0.03759999 0.11200000
  3192.018 0.00960000 1046.89599 0.25479999 0.03750000 0.11320000
 3192.1704 0.00960000 1044.42602 0.25490000 0.03779999 0.11330000
 3192.3228 0.00970000 1041.96105 0.25490000 0.03799999 0.11349999
 3192.4752 0.00980000 1039.50097 0.25490000 0.03819999 0.11360000
 3192.6276 0.00980000 906.054626 0.25400000 0.03860000 0.11949999
   3192.78 0.00989999 769.282592 0.25299999 0.03900000 0.12639999
 3192.9324 0.00989999 653.156921 0.25189998 0.03950000 0.13339999
 3193.0848 0.00999999 634.281677 0.25130000 0.03990000 0.13420000
 3193.2372 0.01009999 685.565429 0.25090000 0.04019999 0.13009999
 3193.3896 0.01020000 740.995422 0.25060001 0.04060000 0.12610000
  3193.542 0.01030000 754.678710 0.24869999 0.04120000 0.12359999
 3193.6944 0.01030000 657.414123 0.24289999 0.04239999      0.125
 3193.8468 0.01030000 572.684997 0.23700000 0.04369999 0.12639999
 3193.9992 0.01040000 498.876190 0.23109999 0.04500000 0.12790000
 3194.1516 0.01040000 520.890380 0.23100000 0.04490000 0.12569999
  3194.304 0.01040000 544.396118 0.23090000 0.04479999 0.12340000
 3194.4564 0.01030000 568.962402 0.23080000 0.04479999 0.12120000
 3194.6088 0.01030000 516.862487 0.21999999 0.04699999 0.11630000
 3194.7612 0.01030000 443.885009 0.20499999 0.05040000 0.11029999
 3194.9136 0.01030000 381.211486 0.18999999 0.05449999 0.10440000
