~Version Information
VERS.                     2.0: CWLS log ASCII Standard Version 2.00
WRAP.                      NO: One line per depth step

~Well Information Block
#MNEM.UNIT                 Value                       Information
#------------              -----                       -----------
STRT.M                     188.500                    :START
STOP.M                     346.700                    :STOP
STEP.M                       0.100                    :STEP
NULL.                     -999.25                     :NULL VALUE
COMP.         STATOIL PETRPOLEUM AS                   :Company
WELL.         15/9-F-11                               :Well
FLD .         VOLVE                                   :Field
LOC .         Maersk Inspirer                         :Location
PROV.                                                 :Province
CNTY.                                                 :County
STATE.                                                 :State
CTRY.         Norway                                  :Country
DATE.                                                 :Log Date
SRVC.                                                 :Service Company
UWI .                                                 :Unique Well Identifier
API .                                                 :API Number
LATI.         058 26' 29.960" N    DMS                :Latitude
LONG.         001 53' 14.870" E    DMS                :Longtitude
PD  .         MSL                                     :Permanent Datum
EDF .M            54.900                              :Elevations D.F.
EGL .M           -91.000                              :Elevations G.L.
WD  .M           -91.000                              :Water Depth
ELZ .M            54.900                              :Elev. Log Zero

~Curve Information
#MNEM   .UNIT             API CODE Curve Description
#------------             -------- -----------------
DEPTH   .M            00 001 00 00:   0  Depth
BS      .inches       00 000 00 00:   1  BS:COMPOSITE:rC:NONE:v1
GR      .API          30 150 01 01:   2  GR:COMPOSITE:rC:NONE:v1
RACEHM  .ohm.m        95 220 00 01:   3  RACEHM:COMPOSITE:rC:NONE:v1
RACELM  .ohm.m        00 524 01 00:   4  RACELM:COMPOSITE:rC:NONE:v1
RD      .ohm.m        00 000 00 00:   5  RD:COMPOSITE:rC:NONE:v1
RM      .ohm.m        00 000 00 00:   6  RM:COMPOSITE:rC:NONE:v1
ROP     .m/hr         00 000 00 00:   7  ROP:COMPOSITE:rC:NONE:v1
RPCEHM  .ohm.m        00 000 00 00:   8  RPCEHM:COMPOSITE:rC:NONE:v1
RPCELM  .ohm.m        00 000 00 00:   9  RPCELM:COMPOSITE:rC:NONE:v1
RT      .ohm.m        00 000 00 00:  10  RT:COMPOSITE:rC:NONE:v1

~Parameter Information
#MNEM.UNIT       Value           Description
#------------    -----           -----------
RUN .         1                 :Run number

~Other Information
PETROPHYSICAL INTERPRETATION: INPUT

# --- LOG MNEMONICS AND UNITS ---
#Depth     BS         GR         RACEHM     RACELM     RD         RM         ROP        RPCEHM     RPCELM     RT        
#M         inches     API        ohm.m      ohm.m      ohm.m      ohm.m      m/hr       ohm.m      ohm.m      ohm.m     

~A
# ...
   309.100     26.000      9.000      0.540      0.613      0.561      0.525     67.966      0.525      0.561      0.525
   309.200     26.000      8.200      0.546      0.619      0.564      0.533     68.384      0.533      0.564      0.533
   309.300     26.000      8.200      0.560      0.615      0.553      0.515     68.803      0.515      0.553      0.515
   309.400     26.000      9.200      0.574      0.612      0.542      0.497     68.771      0.497      0.542      0.497
   309.500     26.000      8.900      0.587      0.609      0.530      0.479     68.738      0.479      0.530      0.479
   309.600     26.000      9.400      0.557      0.603      0.512      0.466     68.705      0.466      0.512      0.466
   309.700     26.000      7.600      0.526      0.597      0.493      0.452     68.672      0.452      0.493      0.452
   309.800     26.000      7.000      0.524      0.604      0.490      0.431     68.640      0.431      0.490      0.431
   309.900     26.000      6.800      0.521      0.611      0.486      0.409     68.607      0.409      0.486      0.409
   310.000     26.000      7.200      0.518      0.618      0.483      0.388     68.637      0.388      0.483      0.388
   310.100     26.000      6.600      0.503      0.612      0.488      0.394     68.667      0.394      0.488      0.394
   310.200     26.000      6.300      0.489      0.606      0.494      0.401     68.698      0.401      0.494      0.401
   310.300     26.000      5.900      0.474      0.599      0.499      0.407     68.678      0.407      0.499      0.407
   310.400     26.000      6.400      0.482      0.589      0.525      0.452     68.659      0.452      0.525      0.452
   310.500     26.000      5.700      0.490      0.578      0.551      0.497     68.640      0.497      0.551      0.497
   310.600     26.000      4.800      0.498      0.567      0.577      0.542     68.675      0.542      0.577      0.542
   310.700     26.000      4.300      0.503      0.586      0.599      0.793     68.711      0.793      0.599      0.793
   310.800     26.000      5.300      0.498      0.598      0.584      0.743     68.746      0.743      0.584      0.743
   310.900     26.000      5.600      0.501      0.595      0.588      0.753     68.732      0.753      0.588      0.753
   311.000     26.000      4.000      0.512      0.598      0.614      0.845     68.718      0.845      0.614      0.845
   311.100     26.000      3.900      0.537      0.613      0.636      0.824     68.703      0.824      0.636      0.824
   311.200     26.000      4.400      0.559      0.627      0.647      0.838     68.675      0.838      0.647      0.838
   311.300     26.000      4.200      0.578      0.636      0.651      0.823     68.647      0.823      0.651      0.823
   311.400     26.000      3.800      0.587      0.630      0.654      0.781     68.619      0.781      0.654      0.781
   311.500     26.000      3.900      0.595      0.651      0.676      0.808     68.683      0.808      0.676      0.808
   311.600     26.000      3.800      0.604      0.653      0.690      0.819     68.747      0.819      0.690      0.819
   311.700     26.000      4.000      0.613      0.651      0.674      0.800     68.810      0.800      0.674      0.800
   311.800     26.000      3.800      0.614      0.668      0.657      0.740     68.796      0.740      0.657      0.740
   311.900     26.000      3.000      0.618      0.674      0.661      0.679     68.781      0.679      0.661      0.679
   312.000     26.000      3.200      0.615      0.665      0.658      0.673     68.767      0.673      0.658      0.673
   312.100     26.000      3.500      0.619      0.675      0.660      0.683     68.753      0.683      0.660      0.683
   312.200     26.000      2.900      0.624      0.680      0.638      0.690     68.739      0.690      0.638      0.690
   312.300     26.000      2.200      0.616      0.703      0.664      0.655     68.725      0.655      0.664      0.655
   312.400     26.000      2.400      0.629      0.716      0.649      0.646     68.758      0.646      0.650      0.646
   312.500     26.000      2.600      0.621      0.711      0.638      0.587     68.791      0.587      0.638      0.587
   312.600     26.000      2.400      0.638      0.729      0.635      0.562     68.824      0.562      0.635      0.562
   312.700     26.000      2.600      0.654      0.746      0.632      0.537     68.780      0.537      0.632      0.537
   312.800     26.000      2.500      0.686      0.760      0.634      0.532     68.735      0.532      0.634      0.532
   312.900     26.000      3.000      0.683      0.764      0.649      0.563     68.691      0.563      0.649      0.563
   313.000     26.000      4.100      0.670      0.755      0.650      0.588     68.721      0.588      0.650      0.588
   313.100     26.000      3.700      0.649      0.755      0.655      0.625     68.752      0.625      0.655      0.625
   313.200     26.000      4.600      0.622      0.748      0.662      0.636     68.782      0.636      0.662      0.636
   313.300     26.000      4.300      0.597      0.754      0.668      0.647     68.756      0.647      0.668      0.647
   313.400     26.000      3.700      0.578      0.750      0.672      0.679     68.730      0.679      0.672      0.679
   313.500     26.000      3.900      0.550      0.731      0.661      0.707     68.705      0.707      0.661      0.707
   313.600     26.000      4.500      0.539      0.722      0.637      0.666     68.690      0.666      0.637      0.666
   313.700     26.000      5.300      0.531      0.720      0.610      0.635     68.676      0.635      0.610      0.635
   313.800     26.000      5.800      0.521      0.709      0.588      0.562     68.661      0.562      0.588      0.562
   313.900     26.000      5.200      0.517      0.706      0.575      0.535     68.711      0.535      0.575      0.535
   314.000     26.000      4.700      0.528      0.685      0.564      0.552     68.760      0.552      0.564      0.552
   314.100     26.000      4.500      0.508      0.659      0.568      0.645     68.810      0.645      0.568      0.645
   314.200     26.000      4.500      0.480      0.625      0.570      0.815     68.795      0.815      0.570      0.815
   314.300     26.000      4.600      0.450      0.603      0.567      0.860     68.781      0.859      0.567      0.860
   314.400     26.000      3.800      0.426      0.608      0.562      0.875     68.767      0.875      0.562      0.875
   314.500     26.000      3.200      0.422      0.592      0.557      0.869     68.735      0.869      0.557      0.869
   314.600     26.000      2.900      0.416      0.606      0.556      0.813     68.702      0.813      0.556      0.813
   314.700     26.000      2.500      0.417      0.591      0.552      0.743     68.670      0.743      0.552      0.743
   314.800     26.000      2.800      0.414      0.597      0.536      0.639     68.689      0.640      0.536      0.639
   314.900     26.000      2.300      0.405      0.602      0.508      0.630     68.707      0.630      0.508      0.630
   315.000     26.000      2.700      0.412      0.609      0.480      0.536     68.726      0.536      0.481      0.536
   315.100     26.000      3.600      0.428      0.625      0.462      0.436     68.884      0.436      0.462      0.436
   315.200     26.000      3.400      0.439      0.623      0.451      0.392     69.043      0.392      0.451      0.392
   315.300     26.000      3.500      0.427      0.626      0.437      0.372     69.201      0.372      0.437      0.372
   315.400     26.000      5.000      0.419      0.612      0.430      0.356     69.509      0.356      0.430      0.356
   315.500     26.000      4.700      0.398      0.601      0.419      0.354     69.817      0.354      0.419      0.354
   315.600     26.000      3.900      0.387      0.597      0.410      0.351     70.125      0.351      0.410      0.351
   315.700     26.000      3.400      0.369      0.588      0.399      0.352     70.324      0.352      0.400      0.352
