~Version Information
VERS.                     2.0: CWLS log ASCII Standard Version 2.00
WRAP.                      NO: One line per depth step

~Well Information Block
#MNEM.UNIT                 Value                       Information
#------------              -----                       -----------
STRT.M                   3358.0000                    :START
STOP.M                   3681.9000                    :STOP
STEP.M                      0.1000                    :STEP
NULL.                     -999.25                     :NULL VALUE
COMP.         Statoil Petroleum AS                    :Company
WELL.         15/9-F-1 A                              :Well
FLD .         VOLVE                                   :Field
LOC .         Maersk Inspirer                         :Location
PROV.                                                 :Province
CNTY.         Unused                                  :County
STATE.                                                 :State
CTRY.                                                 :Country
DATE.                                                 :Log Date
SRVC.                                                 :Service Company
UWI .                                                 :Unique Well Identifier
API .                                                 :API Number
LATI.         058 26' 29.907" N    DMS                :Latitude
LONG.         001 53' 14.708" E    DMS                :Longtitude
PD  .         MSL                                     :Permanent Datum
ELZ .M                 0.0000                         :Elev. Log Zero

~Curve Information
#MNEM   .UNIT             API CODE Curve Description
#------------             -------- -----------------
DEPTH   .M            00 001 00 00:   0  Depth
BVW     .V/V          00 000 00 00:   1  Bound Volume Water
COAL_FLAG.unitless    00 000 00 00:   2  Coal Flag
KLOGH   .mD           00 000 00 00:   3  Calculated Horizontal PERMEABILITY from logs
PHIF    .V/V          00 000 00 00:   4  Final porosity
SAND_FLAG.unitless    00 000 00 00:   5  Sand Flag
SW      .V/V          00 000 00 00:   6  Water Saturation (Archie)
VCARB   .V/V          00 000 00 00:   7  IFC(CARB_FLAG>0.5,1-VSH, VCARB)
VSH     .V/V          00 000 00 00:   8  Volume of Shale

~Parameter Information
#MNEM.UNIT       Value           Description
#------------    -----           -----------
HLD .         Terms and Conditions.:Header Legal Disclaimer
RUN .         1                 :Run number

~Other Information
PETROPHYSICAL INTERPRETATION: OUTPUT

# --- LOG MNEMONICS AND UNITS ---
#Depth          BVW             COAL_FLAG       KLOGH           PHIF            SAND_FLAG       SW              VCARB           VSH            
#M              V/V             unitless        mD              V/V             unitless        V/V             V/V             V/V            

~A
# ...
      3470.0000          0.0754          0.0000          1.8993          0.0831          0.0000          0.9072          0.1218          0.2651
      3470.1000          0.0626          0.0000          1.0776          0.0626          0.0000          1.0000          0.1829          0.2742
      3470.2000          0.0444          0.0000          0.5819          0.0444          0.0000          1.0000          0.2312          0.2878
      3470.3000          0.0297          0.0000          0.4442          0.0297          0.0000          1.0000          0.2865          0.2878
      3470.4000          0.0200          0.0000          0.3129          0.0200          0.0000          1.0000          0.3118          0.2961
      3470.5000          0.0200          0.0000          0.2341          0.0200          0.0000          1.0000          0.2914          0.3101
      3470.6000          0.0200          0.0000          0.1972          0.0200          0.0000          1.0000          0.2795          0.3183
      3470.7000          0.0200          0.0000          0.3131          0.0200          0.0000          1.0000          0.3119          0.2960
      3470.8000          0.0243          0.0000          0.7599          0.0243          0.0000          1.0000          0.3540          0.2571
      3470.9000          0.0486          0.0000          1.6615          0.0486          0.0000          1.0000          0.2812          0.2409
      3471.0000          0.0724          0.0000          3.5994          0.0724          0.0000          1.0000          0.2114          0.2248
      3471.1000          0.0922          0.0000          5.3449          0.0922          0.0000          1.0000          0.1398          0.2233
      3471.2000          0.1072          0.0000          5.0824          0.1072          1.0000          1.0000          0.0689          0.2391
      3471.3000          0.1160          0.0000          5.8383          0.1160          1.0000          1.0000          0.0384          0.2402
      3471.4000          0.1175          0.0000          6.4885          0.1175          1.0000          1.0000          0.0374          0.2364
      3471.5000          0.1117          0.0000          6.4174          0.1117          1.0000          1.0000          0.0615          0.2318
      3471.6000          0.1032          0.0000          5.7252          0.1032          1.0000          1.0000          0.0930          0.2298
      3471.7000          0.0977          0.0000          6.0062          0.0977          0.0000          1.0000          0.1207          0.2226
      3471.8000          0.0978          0.0000          5.1566          0.0978          0.0000          1.0000          0.1117          0.2300
      3471.9000          0.1020          0.0000          3.3724          0.1020          1.0000          1.0000          0.0699          0.2542
      3472.0000          0.1059          0.0000          3.2856          0.1059          1.0000          1.0000          0.0519          0.2590
      3472.1000          0.1055          0.0000          2.4581          0.1065          1.0000          0.9903          0.0354          0.2735
      3472.2000          0.1019          0.0000          1.9916          0.1031          1.0000          0.9876          0.0390          0.2807
      3472.3000          0.0982          0.0000          1.7895          0.0984          0.0000          0.9980          0.0531          0.2816
      3472.4000          0.0962          0.0000          1.7777          0.0962          0.0000          1.0000          0.0617          0.2800
      3472.5000          0.0989          0.0000          1.8820          0.0989          0.0000          1.0000          0.0537          0.2796
      3472.6000          0.1057          0.0000          1.4196          0.1057          1.0000          1.0000          0.0136          0.2992
      3472.7000          0.1120          0.0000          1.7293          0.1124          1.0000          0.9966          0.0000          0.2957
      3472.8000          0.1142          0.0000          1.7230          0.1142          1.0000          1.0000          0.0000          0.2975
      3472.9000          0.1082          0.0000          1.3864          0.1082          1.0000          1.0000          0.0031          0.3026
      3473.0000          0.0931          0.0000          2.0508          0.0931          0.0000          1.0000          0.0822          0.2703
      3473.1000          0.0683          0.0000          2.3616          0.0683          0.0000          1.0000          0.2043          0.2415
      3473.2000          0.0385          0.0000          2.2285          0.0385          0.0000          1.0000          0.3575          0.2178
      3473.3000          0.0200          0.0000          1.6426          0.0200          0.0000          1.0000          0.4400          0.2161
      3473.4000          0.0200          0.0000          1.4871          0.0200          0.0000          1.0000          0.4317          0.2208
      3473.5000          0.0200          0.0000          1.2409          0.0200          0.0000          1.0000          0.4169          0.2296
      3473.6000          0.0200          0.0000          0.6606          0.0200          0.0000          1.0000          0.3672          0.2600
      3473.7000          0.0200          0.0000          0.3817          0.0200          0.0000          1.0000          0.3262          0.2865
      3473.8000          0.0200          0.0000          0.3597          0.0200          0.0000          1.0000          0.3218          0.2893
      3473.9000          0.0200          0.0000          0.3216          0.0200          0.0000          1.0000          0.3138          0.2947
      3474.0000          0.0295          0.0000          0.5733          0.0295          0.0000          1.0000          0.3054          0.2753
      3474.1000          0.0523          0.0000          0.7127          0.0523          0.0000          1.0000          0.2061          0.2850
      3474.2000          0.0693          0.0000          0.8448          0.0693          0.0000          1.0000          0.1376          0.2920
      3474.3000          0.0822          0.0000          1.4787          0.0822          0.0000          1.0000          0.1117          0.2764
      3474.4000          0.0950          0.0000          1.5473          0.0950          0.0000          1.0000          0.0597          0.2856
      3474.5000          0.1097          0.0000          1.8810          0.1097          1.0000          1.0000          0.0108          0.2892
      3474.6000          0.1238          0.0000          1.4320          0.1238          1.0000          1.0000          0.0000          0.3150
      3474.7000          0.1341          0.0000          1.4330          0.1341          1.0000          1.0000          0.0000          0.3241
      3474.8000          0.1413          0.0000          1.9141          0.1413          1.0000          1.0000          0.0000          0.3165
      3474.9000          0.1474          0.0000          2.2012          0.1474          1.0000          1.0000          0.0000          0.3152
      3475.0000          0.1548          0.0000          3.6065          0.1548          1.0000          1.0000          0.0000          0.2979
      3475.1000          0.1633          0.0000          3.6048          0.1633          1.0000          1.0000          0.0000          0.3055
      3475.2000          0.1671          0.0000          2.5432          0.1711          1.0000          0.9765          0.0000          0.3293
      3475.3000          0.1636          0.0000          2.4663          0.1762          1.0000          0.9288          0.0000          0.3353
      3475.4000          0.1615          0.0000          1.2907          0.1769          1.0000          0.9131          0.0000          0.3672
      3475.5000          0.1593          0.0000          1.1500          0.1731          1.0000          0.9198          0.0000          0.3694
