~Version Information
VERS.                     2.0: CWLS log ASCII Standard Version 2.00
WRAP.                      NO: One line per depth step

~Well Information Block
#MNEM.UNIT                 Value                       Information
#------------              -----                       -----------
STRT.M                   3204.0000                    :START
STOP.M                   3464.9000                    :STOP
STEP.M                      0.1000                    :STEP
NULL.                     -999.25                     :NULL VALUE
COMP.         Statoil Petroleum                       :Company
WELL.         15/9-F-1 B                              :Well
FLD .         VOLVE                                   :Field
LOC .         Maersk Inspirer                         :Location
PROV.                                                 :Province
CNTY.                                                 :County
STATE.                                                 :State
CTRY.                                                 :Country
DATE.                                                 :Log Date
SRVC.                                                 :Service Company
UWI .                                                 :Unique Well Identifier
API .                                                 :API Number
LATI.         058 26' 29.907" N    DMS                :Latitude
LONG.         001 53' 14.708" E    DMS                :Longtitude
PD  .         MSL                                     :Permanent Datum
ELZ .M                 0.0000                         :Elev. Log Zero

~Curve Information
#MNEM   .UNIT             API CODE Curve Description
#------------             -------- -----------------
DEPTH   .M            00 001 00 00:   0  Depth
BVW     .V/V          00 000 00 00:   1  Bulk Volume Water
CARB_FLAG.V/V         00 000 00 00:   2  Carbonate Flag
COAL_FLAG.UNITLESS    00 000 00 00:   3  Coal flag
KLOGH   .mD           00 000 00 00:   4  Calculated Horizontal PERMEABILITY from logs
PHIF    .V/V          00 000 00 00:   5  Final Porosity
SAND_FLAG.UNITLESS    00 000 00 00:   6  Sand Flag
SW      .V/V          00 000 00 00:   7  Water Saturation
VCARB   .V/V          00 000 00 00:   8  VCARB
VSH     .V/V          00 000 00 00:   9  Volume of Shale

~Parameter Information
#MNEM.UNIT       Value           Description
#------------    -----           -----------
HLD .         Terms and Conditions.:Header Legal Disclaimer
RUN .         1                 :Run number

~Other Information
PETROPHYSICAL INTERPRETATION: OUTPUT

# --- LOG MNEMONICS AND UNITS ---
#Depth          BVW             CARB_FLAG       COAL_FLAG       KLOGH           PHIF            SAND_FLAG       SW              VCARB           VSH            
#M              V/V             V/V             UNITLESS        mD              V/V             UNITLESS        V/V             V/V             V/V            

~A
# ...
      3254.0000          0.0696          0.0000          0.0000       1050.8398          0.2159          1.0000          0.3226          0.0000          0.0784
      3254.1000          0.0709          0.0000          0.0000        866.2505          0.2156          1.0000          0.3288          0.0000          0.0874
      3254.2000          0.0725          0.0000          0.0000        709.4969          0.2156          1.0000          0.3363          0.0000          0.0971
      3254.3000          0.0759          0.0000          0.0000        577.2983          0.2171          1.0000          0.3495          0.0000          0.1084
      3254.4000          0.0771          0.0000          0.0000        490.2997          0.2246          1.0000          0.3434          0.0000          0.1229
      3254.5000          0.0778          0.0000          0.0000        618.6083          0.2357          1.0000          0.3301          0.0000          0.1216
      3254.6000          0.0787          0.0000          0.0000        741.0285          0.2488          1.0000          0.3164          0.0000          0.1245
      3254.7000          0.0788          0.0000          0.0000        681.2120          0.2579          1.0000          0.3054          0.0000          0.1367
      3254.8000          0.0779          0.0000          0.0000        625.5970          0.2619          1.0000          0.2973          0.0000          0.1443
      3254.9000          0.0758          0.0000          0.0000        603.3958          0.2627          1.0000          0.2887          0.0000          0.1467
      3255.0000          0.0745          0.0000          0.0000        702.8771          0.2626          1.0000          0.2837          0.0000          0.1394
      3255.1000          0.0744          0.0000          0.0000        634.5213          0.2645          1.0000          0.2812          0.0000          0.1460
      3255.2000          0.0740          0.0000          0.0000        643.8530          0.2661          1.0000          0.2781          0.0000          0.1467
      3255.3000          0.0741          0.0000          0.0000        720.0672          0.2675          1.0000          0.2770          0.0000          0.1425
      3255.4000          0.0760          0.0000          0.0000        593.8491          0.2719          1.0000          0.2795          0.0000          0.1557
      3255.5000          0.0804          0.0000          0.0000        549.3143          0.2726          1.0000          0.2949          0.0000          0.1601
      3255.6000          0.0853          0.0000          0.0000        453.2156          0.2720          1.0000          0.3137          0.0000          0.1689
      3255.7000          0.0897          0.0000          0.0000        248.3044          0.2639          1.0000          0.3401          0.0000          0.1906
      3255.8000          0.0911          0.0000          0.0000        177.6548          0.2481          1.0000          0.3674          0.0000          0.1928
      3255.9000          0.0997          0.0000          0.0000         75.0951          0.2240          1.0000          0.4452          0.0000          0.2129
      3256.0000          0.1161          0.0000          0.0000         23.8018          0.1968          1.0000          0.5900          0.0000          0.2442
      3256.1000          0.1212          0.0000          0.0000          6.3613          0.1703          1.0000          0.7117          0.0000          0.2844
      3256.2000          0.1108          0.0000          0.0000          0.7373          0.1108          1.0000          1.0000          0.0000          0.3354
      3256.3000          0.0982          0.0000          0.0000          0.2583          0.0982          0.0000          1.0000          0.0000          0.3748
      3256.4000          0.1094          0.0000          0.0000          0.2436          0.1094          1.0000          1.0000          0.0000          0.3876
      3256.5000          0.1200          0.0000          0.0000          0.3852          0.1410          1.0000          0.8511          0.0000          0.3936
      3256.6000          0.1211          0.0000          0.0000          1.9208          0.2021          1.0000          0.5989          0.0000          0.3704
      3256.7000          0.1017          0.0000          0.0000         12.6991          0.2215          1.0000          0.4591          0.0000          0.2964
      3256.8000          0.0793          0.0000          0.0000         88.4962          0.2325          1.0000          0.3409          0.0000          0.2126
      3256.9000          0.0759          0.0000          0.0000        204.2209          0.2367          1.0000          0.3209          0.0000          0.1759
      3257.0000          0.0761          0.0000          0.0000        291.9331          0.2371          1.0000          0.3209          0.0000          0.1591
      3257.1000          0.0767          0.0000          0.0000        377.3211          0.2363          1.0000          0.3246          0.0000          0.1459
      3257.2000          0.0795          0.0000          0.0000        391.8541          0.2343          1.0000          0.3391          0.0000          0.1424
      3257.3000          0.0901          0.0000          0.0000        256.3432          0.2291          1.0000          0.3931          0.0000          0.1582
      3257.4000          0.1041          0.0000          0.0000        175.4712          0.2188          1.0000          0.4757          0.0000          0.1673
      3257.5000          0.1108          0.0000          0.0000         73.9091          0.2013          1.0000          0.5506          0.0000          0.1935
      3257.6000          0.1208          0.0000          0.0000         24.2603          0.1854          1.0000          0.6516          0.0000          0.2331
      3257.7000          0.1173          0.0000          0.0000          2.7924          0.1325          1.0000          0.8856          0.0000          0.2904
      3257.8000          0.1075          0.0000          0.0000          1.0658          0.1075          1.0000          1.0000          0.0000          0.3147
      3257.9000          0.0831          0.0000          0.0000          0.6584          0.0831          0.0000          1.0000          0.0660          0.3163
      3258.0000          0.0596          0.0000          0.0000          0.8455          0.0596          0.0000          1.0000          0.1821          0.2833
      3258.1000          0.0406          0.0000          0.0000          1.3832          0.0406          0.0000          1.0000          0.3102          0.2427
      3258.2000          0.0286          0.0000          0.0000          1.4497          0.0286          0.0000          1.0000          0.3799          0.2298
      3258.3000          0.0225          0.0000          0.0000          1.8126          0.0225          0.0000          1.0000          0.4336          0.2135
      3258.4000          0.0211          0.0000          0.0000          1.2491          0.0211          0.0000          1.0000          0.4109          0.2303
      3258.5000          0.0239          0.0000          0.0000          0.5733          0.0239          0.0000          1.0000          0.3350          0.2703
      3258.6000          0.0285          0.0000          0.0000          0.2902          0.0285          0.0000          1.0000          0.2634          0.3073
      3258.7000          0.0321          0.0000          0.0000          0.1747          0.0321          0.0000          1.0000          0.2136          0.3349
      3258.8000          0.0354          0.0000          0.0000          0.2479          0.0354          0.0000          1.0000          0.2197          0.3210
      3258.9000          0.0430          0.0000          0.0000          0.3128          0.0430          0.0000          1.0000          0.1986          0.3165
