~Version Information
VERS.                     2.0: CWLS log ASCII Standard Version 2.00
WRAP.                      NO: One line per depth step

~Well Information Block
#MNEM.UNIT                 Value                       Information
#------------              -----                       -----------
STRT.M                   3465.0000                    :START
STOP.M                   4684.7000                    :STOP
STEP.M                      0.1000                    :STEP
NULL.                     -999.25                     :NULL VALUE
COMP.         STATOIL PETROLEUM AS                    :Company
WELL.         15/9-F-15 D                             :Well
FLD .         VOLVE                                   :Field
LOC .                                                 :Location
PROV.                                                 :Province
CNTY.         MAERSK INSPIRER                         :County
STATE.                                                 :State
CTRY.         NORWAY                                  :Country
DATE.                                                 :Log Date
SRVC.                                                 :Service Company
UWI .                                                 :Unique Well Identifier
API .                                                 :API Number
LATI.         058 26' 29.706" N    DMS                :Latitude
LONG.         001 53' 15.149" E    DMS                :Longtitude
PD  .         MSL                                     :Permanent Datum
EDF .M                54.9000                         :Elevations D.F.
EGL .M               -91.0000                         :Elevations G.L.
ELZ .M                54.9000                         :Elev. Log Zero
LMF .         DF                                      :Log Measured From
MP  .         DF                                      :Drill Measured From

~Curve Information
#MNEM   .UNIT             API CODE Curve Description
#------------             -------- -----------------
DEPTH   .M            00 001 00 00:   0  Depth
BVW     .v/v          00 000 00 00:   1  BVW:CPI:rC:0001:v1
COAL_FLAG.unitless    00 000 00 00:   2  COAL_FLAG:CPI:rC:0001:v1
KLOGH   .mD           00 000 00 00:   3  KLOGH:CPI:rC:0001:v1
PHIF    .v/v          00 000 00 00:   4  PHIF:CPI:rC:0001:v1
SAND_FLAG.unitless    00 000 00 00:   5  SAND_FLAG:CPI:rC:0001:v1
SW      .v/v          00 000 00 00:   6  SW:CPI:rC:0001:v1
VCARB   .v/v          00 000 00 00:   7  VCARB:CPI:rC:0001:v1
VSH     .v/v          00 000 00 00:   8  VSH:CPI:rC:0001:v1

~Parameter Information
#MNEM.UNIT       Value           Description
#------------    -----           -----------
RUN .         .                 :Run Number

~Other Information
PETROPHYSICAL INTERPRETATION: OUTPUT

# --- LOG MNEMONICS AND UNITS ---
#Depth          BVW             COAL_FLAG       KLOGH           PHIF            SAND_FLAG       SW              VCARB           VSH            
#M              v/v             unitless        mD              v/v             unitless        v/v             v/v             v/v            

~A
# ...
      3941.0000          0.0658          0.0000          0.0176          0.1203          0.0000          0.5471          0.0000          0.5242
      3941.1000          0.0680          0.0000          0.0123          0.1215          0.0000          0.5595          0.0000          0.5423
      3941.2000          0.0690          0.0000          0.0103          0.1219          0.0000          0.5662          0.0000          0.5512
      3941.3000          0.0730          0.0000          0.0092          0.1199          0.0000          0.6091          0.0000          0.5553
      3941.4000          0.0745          0.0000          0.0192          0.1146          0.0000          0.6500          0.0000          0.5148
      3941.5000          0.0742          0.0000          0.0171          0.1078          0.0000          0.6885          0.0000          0.5144
      3941.6000          0.0741          0.0000          0.0135          0.1031          0.0000          0.7188          0.0000          0.5216
      3941.7000          0.0741          0.0000          0.0162          0.1028          0.0000          0.7212          0.0000          0.5126
      3941.8000          0.0737          0.0000          0.0246          0.1053          0.0000          0.6994          0.0000          0.4947
      3941.9000          0.0746          0.0000          0.0237          0.1068          0.0000          0.6983          0.0000          0.4977
      3942.0000          0.0764          0.0000          0.0199          0.1054          0.0000          0.7246          0.0000          0.5049
      3942.1000          0.0771          0.0000          0.0178          0.1014          0.0000          0.7605          0.0000          0.5067
      3942.2000          0.0781          0.0000          0.0198          0.0959          0.0000          0.8138          0.0000          0.4969
      3942.3000          0.0815          0.0000          0.0179          0.0902          0.0000          0.9038          0.0000          0.4965
      3942.4000          0.0794          0.0000          0.0078          0.0851          0.0000          0.9321          0.0000          0.5320
      3942.5000          0.0768          0.0000          0.0068          0.0824          0.0000          0.9318          0.0000          0.5361
      3942.6000          0.0758          0.0000          0.0062          0.0831          0.0000          0.9121          0.0000          0.5416
      3942.7000          0.0770          0.0000          0.0051          0.0867          0.0000          0.8875          0.0000          0.5545
      3942.8000          0.0789          0.0000          0.0033          0.0910          0.0000          0.8671          0.0000          0.5783
      3942.9000          0.0810          0.0000          0.0027          0.0931          0.0000          0.8699          0.0000          0.5899
      3943.0000          0.0830          0.0000          0.0025          0.0929          0.0000          0.8933          0.0000          0.5936
      3943.1000          0.0839          0.0000          0.0024          0.0925          0.0000          0.9077          0.0000          0.5961
      3943.2000          0.0858          0.0000          0.0028          0.0937          0.0000          0.9163          0.0000          0.5884
      3943.3000          0.0871          0.0000          0.0042          0.0971          0.0000          0.8976          0.0000          0.5724
      3943.4000          0.0877          0.0000          0.0051          0.1018          0.0000          0.8621          0.0000          0.5672
      3943.5000          0.0891          0.0000          0.0034          0.1069          0.0000          0.8330          0.0000          0.5916
      3943.6000          0.0883          0.0000          0.0078          0.1126          0.0000          0.7844          0.0000          0.5564
      3943.7000          0.0884          0.0000          0.0091          0.1182          0.0000          0.7476          0.0000          0.5541
      3943.8000          0.0885          0.0000          0.0086          0.1222          0.0000          0.7240          0.0000          0.5602
      3943.9000          0.0887          0.0000          0.0062          0.1228          0.0000          0.7226          0.0000          0.5765
      3944.0000          0.0892          0.0000          0.0071          0.1205          0.0000          0.7409          0.0000          0.5683
      3944.1000          0.0892          0.0000          0.0068          0.1172          0.0000          0.7611          0.0000          0.5675
      3944.2000          0.0899          0.0000          0.0065          0.1154          0.0000          0.7788          0.0000          0.5678
      3944.3000          0.0898          0.0000          0.0061          0.1159          0.0000          0.7749          0.0000          0.5716
      3944.4000          0.0893          0.0000          0.0089          0.1181          0.0000          0.7565          0.0000          0.5550
      3944.5000          0.0890          0.0000          0.0106          0.1208          0.0000          0.7368          0.0000          0.5492
      3944.6000          0.0895          0.0000          0.0120          0.1230          0.0000          0.7276          0.0000          0.5450
      3944.7000          0.0900          0.0000          0.0122          0.1233          0.0000          0.7300          0.0000          0.5444
      3944.8000          0.0914          0.0000          0.0134          0.1221          0.0000          0.7487          0.0000          0.5389
      3944.9000          0.0925          0.0000          0.0143          0.1197          0.0000          0.7728          0.0000          0.5337
      3945.0000          0.0925          0.0000          0.0113          0.1171          0.0000          0.7897          0.0000          0.5426
      3945.1000          0.0924          0.0000          0.0093          0.1147          0.0000          0.8059          0.0000          0.5496
      3945.2000          0.0923          0.0000          0.0082          0.1120          0.0000          0.8238          0.0000          0.5533
      3945.3000          0.0919          0.0000          0.0082          0.1090          0.0000          0.8430          0.0000          0.5509
      3945.4000          0.0916          0.0000          0.0075          0.1059          0.0000          0.8646          0.0000          0.5523
      3945.5000          0.0911          0.0000          0.0070          0.1035          0.0000          0.8799          0.0000          0.5534
      3945.6000          0.0916          0.0000          0.0049          0.1026          0.0000          0.8928          0.0000          0.5703
      3945.7000          0.0919          0.0000          0.0044          0.1024          0.0000          0.8976          0.0000          0.5756
      3945.8000          0.0919          0.0000          0.0053          0.1018          0.0000          0.9034          0.0000          0.5656
      3945.9000          0.0917          0.0000          0.0064          0.1002          0.0000          0.9154          0.0000          0.5552
      3946.0000          0.0917          0.0000          0.0044          0.0984          0.0000          0.9320          0.0000          0.5716
      3946.1000          0.0915          0.0000          0.0042          0.0975          0.0000          0.9388          0.0000          0.5728
      3946.2000          0.0913          0.0000          0.0048          0.0975          0.0000          0.9362          0.0000          0.5664
      3946.3000          0.0906          0.0000          0.0058          0.0980          0.0000          0.9244          0.0000          0.5575
      3946.4000          0.0903          0.0000          0.0058          0.0986          0.0000          0.9157          0.0000          0.5587
      3946.5000          0.0902          0.0000          0.0040          0.0986          0.0000          0.9150          0.0000          0.5764
