~Version Information
VERS.                     2.0: CWLS log ASCII Standard Version 2.00
WRAP.                      NO: One line per depth step

~Well Information Block
#MNEM.UNIT                 Value                       Information
#------------              -----                       -----------
STRT.M                    3575.000                    :START
STOP.M                    3761.800                    :STOP
STEP.M                       0.100                    :STEP
NULL.                     -999.25                     :NULL VALUE
COMP.         Statoil Petroleum AS                    :Company
WELL.         15/9-F-11 A                             :Well
FLD .         VOLVE                                   :Field
LOC .         Maersk Inspirer                         :Location
PROV.                                                 :Province
CNTY.                                                 :County
STATE.                                                 :State
CTRY.         Norway                                  :Country
DATE.                                                 :Log Date
SRVC.                                                 :Service Company
UWI .                                                 :Unique Well Identifier
API .                                                 :API Number
LATI.         058 26' 29.956" N    DMS                :Latitude
LONG.         001 53' 14.866" E    DMS                :Longtitude
PD  .         MSL                                     :Permanent Datum
EDF .M            54.900                              :Elevations D.F.
EGL .M           -91.000                              :Elevations G.L.
ELZ .M            54.900                              :Elev. Log Zero
LMF .         DF                                      :Log Measured From

~Curve Information
#MNEM   .UNIT             API CODE Curve Description
#------------             -------- -----------------
DEPTH   .M            00 001 00 00:   0  Depth
BVW     .v/v          00 000 00 00:   1  BVW:CPI:rC:NONE:v1
CARB_FLAG.UNKNOWN     00 000 00 00:   2  CARB_FLAG:CPI:rC:NONE:v1
COAL_FLAG.UNKNOWN     00 000 00 00:   3  COAL_FLAG:CPI:rC:NONE:v1
KLOGH   .mD           00 000 00 00:   4  KLOGH:CPI:rC:NONE:v1
PHIF    .v/v          00 000 00 00:   5  PHIF:CPI:rC:NONE:v1
SAND_FLAG.UNKNOWN     00 000 00 00:   6  SAND_FLAG:CPI:rC:NONE:v1
SW      .v/v          00 000 00 00:   7  SW:CPI:rC:NONE:v1
VSH     .v/v          00 000 00 00:   8  VSH:CPI:rC:NONE:v1

~Parameter Information
#MNEM.UNIT       Value           Description
#------------    -----           -----------
RUN .         1                 :Run number

~Other Information
PETROPHYSICAL_INTERPRETATION: OUTPUT

# --- LOG MNEMONICS AND UNITS ---
#Depth     BVW        CARB_FLAG  COAL_FLAG  KLOGH      PHIF       SAND_FLAG  SW         VSH       
#M         v/v        UNKNOWN    UNKNOWN    mD         v/v        UNKNOWN    v/v        v/v       

~A
# ...
  3623.600      0.045      0.000      0.000   1798.967      0.226      1.000      0.197      0.062
  3623.700      0.036      0.000      0.000   1917.074      0.225      1.000      0.159      0.058
  3623.800      0.034      0.000      0.000   1787.000      0.225      1.000      0.153      0.061
  3623.900      0.036      0.000      0.000   1948.864      0.227      1.000      0.158      0.058
  3624.000      0.037      0.000      0.000   2141.024      0.230      1.000      0.160      0.057
  3624.100      0.038      0.000      0.000   2185.006      0.232      1.000      0.162      0.057
  3624.200      0.038      0.000      0.000   2161.206      0.232      1.000      0.163      0.058
  3624.300      0.037      0.000      0.000   2070.394      0.230      1.000      0.162      0.058
  3624.400      0.036      0.000      0.000   1815.370      0.228      1.000      0.157      0.063
  3624.500      0.034      0.000      0.000   1945.663      0.227      1.000      0.149      0.058
  3624.600      0.035      0.000      0.000   1805.656      0.226      1.000      0.154      0.061
  3624.700      0.036      0.000      0.000   1863.693      0.227      1.000      0.157      0.060
  3624.800      0.036      0.000      0.000   2062.145      0.228      1.000      0.157      0.056
  3624.900      0.036      0.000      0.000   2079.795      0.228      1.000      0.155      0.057
  3625.000      0.035      0.000      0.000   2355.371      0.228      1.000      0.153      0.051
  3625.100      0.035      0.000      0.000   2384.967      0.229      1.000      0.155      0.050
  3625.200      0.036      0.000      0.000   2089.536      0.230      1.000      0.157      0.058
  3625.300      0.037      0.000      0.000   1997.663      0.235      1.000      0.156      0.064
  3625.400      0.037      0.000      0.000   2387.827      0.238      1.000      0.156      0.059
  3625.500      0.037      0.000      0.000   2690.331      0.242      1.000      0.154      0.056
  3625.600      0.036      0.000      0.000   2855.602      0.244      1.000      0.146      0.055
  3625.700      0.032      0.000      0.000   2226.615      0.245      1.000      0.130      0.068
  3625.800      0.020      0.000      0.000   1659.225      0.243      1.000      0.081      0.081
  3625.900      0.020      0.000      0.000   1560.166      0.239      1.000      0.081      0.080
  3626.000      0.060      0.000      0.000   1450.814      0.234      1.000      0.259      0.079
  3626.100      0.079      0.000      0.000   1178.145      0.227      1.000      0.348      0.083
  3626.200      0.081      0.000      0.000   1088.569      0.221      1.000      0.366      0.081
  3626.300      0.076      0.000      0.000   1034.863      0.216      1.000      0.352      0.079
  3626.400      0.055      0.000      0.000   1122.094      0.214      1.000      0.256      0.074
  3626.500      0.038      0.000      0.000   1347.345      0.216      1.000      0.177      0.066
  3626.600      0.040      0.000      0.000   1512.061      0.218      1.000      0.183      0.062
  3626.700      0.040      0.000      0.000   1292.085      0.216      1.000      0.186      0.068
  3626.800      0.047      0.000      0.000   1000.056      0.207      1.000      0.224      0.073
  3626.900      0.058      0.000      0.000    630.564      0.191      1.000      0.305      0.081
  3627.000      0.062      0.000      0.000    386.382      0.168      1.000      0.371      0.084
  3627.100      0.061      0.000      0.000    243.085      0.142      1.000      0.430      0.084
  3627.200      0.056      0.000      0.000    153.413      0.122      1.000      0.456      0.088
  3627.300      0.050      1.000      0.000    109.811      0.113      0.000      0.441      0.095
  3627.400      0.046      1.000      0.000     75.162      0.110      0.000      0.418      0.112
  3627.500      0.053      1.000      0.000     51.573      0.116      0.000      0.462      0.135
  3627.600      0.069      1.000      0.000     25.966      0.124      0.000      0.558      0.175
  3627.700      0.089      1.000      0.000     20.073      0.130      0.000      0.686      0.193
  3627.800      0.098      1.000      0.000     10.908      0.131      0.000      0.745      0.224
  3627.900      0.095      1.000      0.000      5.006      0.131      0.000      0.726      0.261
  3628.000      0.090      1.000      0.000      5.157      0.131      0.000      0.692      0.259
  3628.100      0.091      0.000      0.000      5.300      0.129      1.000      0.707      0.257
  3628.200      0.096      0.000      0.000      5.613      0.130      1.000      0.736      0.254
  3628.300      0.101      0.000      0.000      5.693      0.132      1.000      0.763      0.256
  3628.400      0.101      0.000      0.000      7.911      0.137      1.000      0.738      0.244
  3628.500      0.092      0.000      0.000     13.433      0.142      1.000      0.647      0.223
  3628.600      0.083      0.000      0.000     26.136      0.146      1.000      0.570      0.195
  3628.700      0.077      0.000      0.000     52.756      0.154      1.000      0.499      0.168
  3628.800      0.070      0.000      0.000    110.393      0.165      1.000      0.426      0.141
  3628.900      0.071      0.000      0.000    179.896      0.177      1.000      0.399      0.129
  3629.000      0.072      0.000      0.000    182.646      0.188      1.000      0.384      0.138
  3629.100      0.071      0.000      0.000    127.422      0.191      1.000      0.370      0.158
  3629.200      0.068      0.000      0.000     55.712      0.186      1.000      0.368      0.194
  3629.300      0.066      0.000      0.000     28.987      0.176      1.000      0.376      0.216
  3629.400      0.076      0.000      0.000     15.359      0.161      1.000      0.470      0.233
  3629.500      0.093      0.000      0.000      2.827      0.095      0.000      0.974      0.257
  3629.600      0.060      0.000      0.000      0.993      0.060      0.000      1.000      0.276
  3629.700      0.033      0.000      0.000      0.550      0.033      0.000      1.000      0.280
  3629.800      0.023      0.000      0.000      0.549      0.023      0.000      1.000      0.272
  3629.900      0.034      0.000      0.000      0.678      0.034      0.000      1.000      0.272
  3630.000      0.062      0.000      0.000      1.690      0.062      0.000      1.000      0.252
  3630.100      0.083      0.000      0.000      4.770      0.094      0.000      0.881      0.230
  3630.200      0.090      0.000      0.000     10.451      0.122      1.000      0.742      0.217
  3630.300      0.086      0.000      0.000     38.938      0.170      1.000      0.504      0.197
  3630.400      0.079      0.000      0.000     52.188      0.178      1.000      0.442      0.190
  3630.500      0.085      0.000      0.000     46.226      0.180      1.000      0.474      0.197
  3630.600      0.103      0.000      0.000     34.324      0.177      1.000      0.582      0.209
  3630.700      0.100      0.000      0.000     23.177      0.170      1.000      0.591      0.221
  3630.800      0.091      0.000      0.000     16.823      0.162      1.000      0.564      0.230
  3630.900      0.090      0.000      0.000      6.838      0.122      1.000      0.735      0.238
  3631.000      0.103      0.000      0.000      6.472      0.118      1.000      0.874      0.237
  3631.100      0.101      0.000      0.000      8.530      0.122      1.000      0.826      0.227
  3631.200      0.083      0.000      0.000     13.235      0.134      1.000      0.623      0.216
  3631.300      0.071      0.000      0.000     20.554      0.151      1.000      0.470      0.210
  3631.400      0.074      0.000      0.000     69.507      0.201      1.000      0.366      0.196
  3631.500      0.077      0.000      0.000    109.690      0.216      1.000      0.356      0.187
  3631.600      0.077      0.000      0.000    155.315      0.232      1.000      0.333      0.185
