~Version Information
VERS.                     2.0: CWLS log ASCII Standard Version 2.00
WRAP.                      NO: One line per depth step

~Well Information Block
#MNEM.UNIT                 Value                       Information
#------------              -----                       -----------
STRT.M                     188.500                    :START
STOP.M                     346.700                    :STOP
STEP.M                       0.100                    :STEP
NULL.                     -999.25                     :NULL VALUE
COMP.         STATOIL PETRPOLEUM AS                   :Company
WELL.         15/9-F-11                               :Well
FLD .         VOLVE                                   :Field
LOC .         Maersk Inspirer                         :Location
PROV.                                                 :Province
CNTY.                                                 :County
STATE.                                                 :State
CTRY.         Norway                                  :Country
DATE.                                                 :Log Date
SRVC.                                                 :Service Company
UWI .                                                 :Unique Well Identifier
API .                                                 :API Number
LATI.         058 26' 29.960" N    DMS                :Latitude
LONG.         001 53' 14.870" E    DMS                :Longtitude
PD  .         MSL                                     :Permanent Datum
EDF .M            54.900                              :Elevations D.F.
EGL .M           -91.000                              :Elevations G.L.
WD  .M           -91.000                              :Water Depth
ELZ .M            54.900                              :Elev. Log Zero

~Curve Information
#MNEM   .UNIT             API CODE Curve Description
#------------             -------- -----------------
DEPTH   .M            00 001 00 00:   0  Depth
BS      .inches       00 000 00 00:   1  BS:COMPOSITE:rC:NONE:v1
GR      .API          30 150 01 01:   2  GR:COMPOSITE:rC:NONE:v1
RACEHM  .ohm.m        95 220 00 01:   3  RACEHM:COMPOSITE:rC:NONE:v1
RACELM  .ohm.m        00 524 01 00:   4  RACELM:COMPOSITE:rC:NONE:v1
RD      .ohm.m        00 000 00 00:   5  RD:COMPOSITE:rC:NONE:v1
RM      .ohm.m        00 000 00 00:   6  RM:COMPOSITE:rC:NONE:v1
ROP     .m/hr         00 000 00 00:   7  ROP:COMPOSITE:rC:NONE:v1
RPCEHM  .ohm.m        00 000 00 00:   8  RPCEHM:COMPOSITE:rC:NONE:v1
RPCELM  .ohm.m        00 000 00 00:   9  RPCELM:COMPOSITE:rC:NONE:v1
RT      .ohm.m        00 000 00 00:  10  RT:COMPOSITE:rC:NONE:v1

~Parameter Information
#MNEM.UNIT       Value           Description
#------------    -----           -----------
RUN .         1                 :Run number

~Other Information
PETROPHYSICAL INTERPRETATION: INPUT

# --- LOG MNEMONICS AND UNITS ---
#Depth     BS         GR         RACEHM     RACELM     RD         RM         ROP        RPCEHM     RPCELM     RT        
#M         inches     API        ohm.m      ohm.m      ohm.m      ohm.m      m/hr       ohm.m      ohm.m      ohm.m     

~A
# ...
   282.300     26.000     46.500      0.954      0.902      0.887      0.888      7.437      0.888      0.887      0.888
   282.400     26.000     46.000      0.933      0.906      0.948      0.886      9.059      0.886      0.948      0.886
   282.500     26.000     46.400      0.950      0.893      0.938      0.923     10.681      0.923      0.938      0.923
   282.600     26.000     47.900      0.924      0.888      0.930      0.961     12.303      0.961      0.930      0.961
   282.700     26.000     47.500      0.953      0.886      0.919      0.920     13.869      0.920      0.919      0.920
   282.800     26.000     43.000      0.919      0.898      0.915      1.005     15.435      1.005      0.915      1.005
   282.900     26.000     40.400      0.929      0.888      0.888      0.929     17.001      0.929      0.888      0.929
   283.000     26.000     37.800      0.901      0.893      0.912      0.917     17.313      0.917      0.912      0.917
   283.100     26.000     34.100      0.915      0.879      0.903      0.979     17.625      0.979      0.903      0.979
   283.200     26.000     37.700      0.880      0.878      0.914      0.940     17.937      0.940      0.914      0.940
   283.300     26.000     37.000      0.881      0.886      0.922      0.987     19.289      0.987      0.922      0.987
   283.400     26.000     36.700      0.877      0.874      0.919      0.928     20.641      0.928      0.919      0.928
   283.500     26.000     37.800      0.892      0.869      0.894      0.988     21.993      0.988      0.894      0.988
   283.600     26.000     37.100      0.907      0.863      0.869      1.048     23.622      1.048      0.869      1.048
   283.700     26.000     37.100      0.882      0.861      0.890      0.981     25.251      0.981      0.890      0.981
   283.800     26.000     37.300      0.859      0.848      0.880      0.991     26.880      0.991      0.880      0.991
   283.900     26.000     36.400      0.863      0.851      0.878      0.984     27.988      0.984      0.878      0.984
   284.000     26.000     37.300      0.866      0.853      0.876      0.977     29.095      0.977      0.876      0.977
   284.100     26.000     37.300      0.869      0.849      0.879      0.952     30.202      0.952      0.879      0.952
   284.200     26.000     35.600      0.884      0.846      0.891      0.959     30.950      0.959      0.891      0.959
   284.300     26.000     40.500      0.890      0.848      0.901      0.979     31.698      0.979      0.901      0.979
   284.400     26.000     41.500      0.896      0.849      0.912      0.998     32.447      0.998      0.912      0.998
   284.500     26.000     36.200      0.922      0.861      0.930      1.051     32.959      1.051      0.930      1.051
   284.600     26.000     36.800      0.928      0.865      0.946      1.036     33.472      1.036      0.946      1.036
   284.700     26.000     38.200      0.934      0.869      0.962      1.022     33.985      1.022      0.962      1.022
   284.800     26.000     39.200      0.967      0.878      0.972      1.091     34.186      1.091      0.972      1.091
   284.900     26.000     38.900      0.971      0.890      0.992      1.079     34.388      1.079      0.992      1.079
   285.000     26.000     37.700      0.967      0.896      0.985      1.070     34.589      1.070      0.985      1.070
   285.100     26.000     36.500      0.962      0.903      0.977      1.061     34.295      1.061      0.977      1.061
   285.200     26.000     39.000      0.958      0.910      0.969      1.053     34.000      1.053      0.970      1.053
   285.300     26.000     36.800      0.945      0.892      0.961      1.028     33.706      1.028      0.961      1.028
   285.400     26.000     35.600      0.941      0.889      0.925      1.008     33.471      1.008      0.925      1.008
   285.500     26.000     35.000      0.956      0.890      0.912      0.987     33.235      0.987      0.912      0.987
   285.600     26.000     33.300      0.971      0.890      0.899      0.967     33.000      0.967      0.899      0.967
   285.700     26.000     31.800      0.942      0.880      0.901      0.903     32.900      0.903      0.901      0.903
   285.800     26.000     34.300      0.924      0.888      0.910      0.924     32.800      0.924      0.910      0.924
   285.900     26.000     36.400      0.906      0.896      0.919      0.944     32.700      0.944      0.919      0.944
   286.000     26.000     38.800      0.884      0.889      0.931      0.938     30.484      0.938      0.931      0.938
   286.100     26.000     37.800      0.912      0.887      0.920      1.002     28.269      1.002      0.920      1.002
   286.200     26.000     36.700      0.894      0.891      0.912      0.974     26.054      0.974      0.912      0.974
   286.300     26.000     31.400      0.877      0.895      0.904      0.946     24.625      0.946      0.904      0.946
   286.400     26.000     31.400      0.878      0.908      0.877      0.943     23.195      0.943      0.877      0.943
   286.500     26.000     35.900      0.881      0.883      0.871      0.931     21.766      0.931      0.871      0.931
   286.600     26.000     35.500      0.884      0.859      0.864      0.919     20.874      0.919      0.864      0.919
   286.700     26.000     34.900      0.858      0.871      0.883      0.905     19.981      0.905      0.883      0.905
   286.800     26.000     33.200      0.853      0.872      0.887      0.923     19.089      0.923      0.887      0.923
   286.900     26.000     33.200      0.849      0.872      0.891      0.941     19.420      0.941      0.891      0.941
   287.000     26.000     35.000      0.854      0.868      0.888      0.932     19.750      0.932      0.888      0.932
   287.100     26.000     35.400      0.859      0.864      0.885      0.922     20.081      0.922      0.885      0.922
   287.200     26.000     36.100      0.868      0.859      0.870      0.927     21.365      0.927      0.870      0.927
   287.300     26.000     38.200      0.862      0.859      0.871      0.913     22.650      0.913      0.871      0.913
   287.400     26.000     38.900      0.855      0.860      0.872      0.898     23.934      0.898      0.872      0.898
   287.500     26.000     39.600      0.851      0.852      0.868      0.899     25.382      0.899      0.868      0.899
   287.600     26.000     35.900      0.848      0.845      0.863      0.900     26.830      0.900      0.863      0.900
   287.700     26.000     32.700      0.842      0.844      0.864      0.894     28.278      0.894      0.864      0.894
   287.800     26.000     33.100      0.846      0.844      0.861      0.904     29.700      0.904      0.861      0.904
   287.900     26.000     32.700      0.850      0.843      0.857      0.913     31.121      0.913      0.857      0.913
   288.000     26.000     32.300      0.849      0.847      0.863      0.912     32.543      0.912      0.863      0.912
   288.100     26.000     30.700      0.849      0.852      0.869      0.911     32.959      0.911      0.869      0.911
   288.200     26.000     29.400      0.860      0.852      0.872      0.984     33.374      0.984      0.872      0.984
   288.300     26.000     30.200      0.861      0.851      0.883      0.975     33.791      0.975      0.883      0.975
   288.400     26.000     30.000      0.863      0.850      0.895      0.965     34.902      0.965      0.895      0.965
   288.500     26.000     29.500      0.882      0.850      0.904      0.963     36.014      0.963      0.904      0.963
   288.600     26.000     27.000      0.900      0.851      0.914      0.961     37.125      0.961      0.914      0.961
   288.700     26.000     26.400      0.907      0.871      0.915      0.963     38.782      0.963      0.915      0.963
   288.800     26.000     25.600      0.914      0.874      0.922      0.969     40.440      0.969      0.922      0.969
   288.900     26.000     25.200      0.922      0.877      0.928      0.974     42.097      0.974      0.928      0.974
