~Version Information
VERS.                     2.0: CWLS log ASCII Standard Version 2.00
WRAP.                      NO: One line per depth step

~Well Information Block
#MNEM.UNIT                 Value                       Information
#------------              -----                       -----------
STRT.M                    3575.000                    :START
STOP.M                    3761.800                    :STOP
STEP.M                       0.100                    :STEP
NULL.                     -999.25                     :NULL VALUE
COMP.         Statoil Petroleum AS                    :Company
WELL.         15/9-F-11 A                             :Well
FLD .         VOLVE                                   :Field
LOC .         Maersk Inspirer                         :Location
PROV.                                                 :Province
CNTY.                                                 :County
STATE.                                                 :State
CTRY.         Norway                                  :Country
DATE.                                                 :Log Date
SRVC.                                                 :Service Company
UWI .                                                 :Unique Well Identifier
API .                                                 :API Number
LATI.         058 26' 29.956" N    DMS                :Latitude
LONG.         001 53' 14.866" E    DMS                :Longtitude
PD  .         MSL                                     :Permanent Datum
EDF .M            54.900                              :Elevations D.F.
EGL .M           -91.000                              :Elevations G.L.
ELZ .M            54.900                              :Elev. Log Zero
LMF .         DF                                      :Log Measured From

~Curve Information
#MNEM   .UNIT             API CODE Curve Description
#------------             -------- -----------------
DEPTH   .M            00 001 00 00:   0  Depth
BVW     .v/v          00 000 00 00:   1  BVW:CPI:rC:NONE:v1
CARB_FLAG.UNKNOWN     00 000 00 00:   2  CARB_FLAG:CPI:rC:NONE:v1
COAL_FLAG.UNKNOWN     00 000 00 00:   3  COAL_FLAG:CPI:rC:NONE:v1
KLOGH   .mD           00 000 00 00:   4  KLOGH:CPI:rC:NONE:v1
PHIF    .v/v          00 000 00 00:   5  PHIF:CPI:rC:NONE:v1
SAND_FLAG.UNKNOWN     00 000 00 00:   6  SAND_FLAG:CPI:rC:NONE:v1
SW      .v/v          00 000 00 00:   7  SW:CPI:rC:NONE:v1
VSH     .v/v          00 000 00 00:   8  VSH:CPI:rC:NONE:v1

~Parameter Information
#MNEM.UNIT       Value           Description
#------------    -----           -----------
RUN .         1                 :Run number

~Other Information
PETROPHYSICAL_INTERPRETATION: OUTPUT

# --- LOG MNEMONICS AND UNITS ---
#Depth     BVW        CARB_FLAG  COAL_FLAG  KLOGH      PHIF       SAND_FLAG  SW         VSH       
#M         v/v        UNKNOWN    UNKNOWN    mD         v/v        UNKNOWN    v/v        v/v       

~A
# ...
  3664.100      0.070      0.000      0.000      1.940      0.218      1.000      0.320      0.384
  3664.200      0.066      0.000      0.000      3.358      0.215      1.000      0.307      0.355
  3664.300      0.062      0.000      0.000      4.095      0.213      1.000      0.292      0.343
  3664.400      0.061      0.000      0.000      6.241      0.213      1.000      0.285      0.323
  3664.500      0.061      0.000      0.000      8.198      0.215      1.000      0.284      0.312
  3664.600      0.062      0.000      0.000      8.530      0.216      1.000      0.285      0.311
  3664.700      0.061      0.000      0.000      7.516      0.214      1.000      0.286      0.315
  3664.800      0.060      0.000      0.000      5.739      0.208      1.000      0.290      0.323
  3664.900      0.059      0.000      0.000      5.765      0.200      1.000      0.294      0.316
  3665.000      0.057      0.000      0.000      6.765      0.193      1.000      0.298      0.301
  3665.100      0.056      0.000      0.000     11.909      0.186      1.000      0.301      0.268
  3665.200      0.055      0.000      0.000     25.165      0.183      1.000      0.302      0.229
  3665.300      0.055      0.000      0.000     51.808      0.184      1.000      0.299      0.196
  3665.400      0.055      0.000      0.000    100.299      0.190      1.000      0.292      0.168
  3665.500      0.056      0.000      0.000    152.435      0.197      1.000      0.283      0.154
  3665.600      0.056      0.000      0.000    169.130      0.203      1.000      0.275      0.155
  3665.700      0.056      0.000      0.000    200.518      0.209      1.000      0.269      0.152
  3665.800      0.056      0.000      0.000    194.025      0.212      1.000      0.265      0.157
  3665.900      0.056      0.000      0.000    206.303      0.214      1.000      0.264      0.155
  3666.000      0.056      0.000      0.000    215.991      0.214      1.000      0.264      0.153
  3666.100      0.056      0.000      0.000    257.464      0.215      1.000      0.262      0.146
  3666.200      0.057      0.000      0.000    245.895      0.216      1.000      0.264      0.148
  3666.300      0.057      0.000      0.000    206.907      0.216      1.000      0.266      0.157
  3666.400      0.058      0.000      0.000    220.419      0.217      1.000      0.266      0.154
  3666.500      0.058      0.000      0.000    207.386      0.217      1.000      0.269      0.157
  3666.600      0.059      0.000      0.000    169.604      0.215      1.000      0.274      0.166
  3666.700      0.060      0.000      0.000    161.842      0.214      1.000      0.280      0.167
  3666.800      0.061      0.000      0.000    160.104      0.213      1.000      0.284      0.167
  3666.900      0.062      0.000      0.000    127.536      0.214      1.000      0.290      0.179
  3667.000      0.063      0.000      0.000    137.443      0.218      1.000      0.288      0.178
  3667.100      0.064      0.000      0.000    118.703      0.222      1.000      0.287      0.189
  3667.200      0.065      0.000      0.000     80.799      0.228      1.000      0.285      0.213
  3667.300      0.067      0.000      0.000     73.235      0.234      1.000      0.286      0.223
  3667.400      0.070      0.000      0.000     96.437      0.239      1.000      0.294      0.214
  3667.500      0.072      0.000      0.000     77.266      0.244      1.000      0.297      0.229
  3667.600      0.074      0.000      0.000     70.450      0.248      1.000      0.301      0.237
  3667.700      0.076      0.000      0.000     74.851      0.250      1.000      0.304      0.236
  3667.800      0.077      0.000      0.000     91.824      0.252      1.000      0.305      0.228
  3667.900      0.078      0.000      0.000     90.037      0.254      1.000      0.306      0.231
  3668.000      0.078      0.000      0.000    129.266      0.256      1.000      0.306      0.215
  3668.100      0.079      0.000      0.000    160.548      0.257      1.000      0.305      0.206
  3668.200      0.079      0.000      0.000    139.539      0.260      1.000      0.305      0.215
  3668.300      0.080      0.000      0.000    128.749      0.262      1.000      0.305      0.221
  3668.400      0.081      0.000      0.000    107.633      0.263      1.000      0.307      0.230
  3668.500      0.081      0.000      0.000    121.380      0.264      1.000      0.307      0.225
  3668.600      0.081      0.000      0.000    131.333      0.263      1.000      0.309      0.221
  3668.700      0.082      0.000      0.000    132.486      0.262      1.000      0.313      0.219
  3668.800      0.082      0.000      0.000    123.608      0.259      1.000      0.316      0.220
  3668.900      0.082      0.000      0.000    132.614      0.259      1.000      0.317      0.216
  3669.000      0.082      0.000      0.000    178.684      0.258      1.000      0.318      0.201
  3669.100      0.082      0.000      0.000    182.366      0.256      1.000      0.320      0.198
  3669.200      0.082      0.000      0.000    185.995      0.254      1.000      0.321      0.196
  3669.300      0.082      0.000      0.000    166.230      0.253      1.000      0.323      0.200
  3669.400      0.082      0.000      0.000    142.818      0.252      1.000      0.325      0.207
  3669.500      0.082      0.000      0.000    149.141      0.253      1.000      0.325      0.205
  3669.600      0.082      0.000      0.000    171.922      0.253      1.000      0.326      0.199
  3669.700      0.083      0.000      0.000    129.035      0.251      1.000      0.331      0.211
  3669.800      0.084      0.000      0.000     96.010      0.246      1.000      0.340      0.220
  3669.900      0.084      0.000      0.000     63.133      0.238      1.000      0.354      0.234
  3670.000      0.085      0.000      0.000     56.694      0.232      1.000      0.367      0.234
  3670.100      0.084      0.000      0.000     84.169      0.230      1.000      0.366      0.213
  3670.200      0.081      0.000      0.000     98.699      0.232      1.000      0.349      0.207
  3670.300      0.079      0.000      0.000    111.540      0.237      1.000      0.331      0.206
  3670.400      0.076      0.000      0.000    146.501      0.242      1.000      0.314      0.197
  3670.500      0.075      0.000      0.000    197.250      0.245      1.000      0.305      0.185
  3670.600      0.074      0.000      0.000    217.173      0.247      1.000      0.300      0.182
  3670.700      0.074      0.000      0.000    231.436      0.248      1.000      0.297      0.180
  3670.800      0.073      0.000      0.000    245.800      0.248      1.000      0.295      0.177
  3670.900      0.073      0.000      0.000    254.298      0.247      1.000      0.295      0.174
  3671.000      0.072      0.000      0.000    189.680      0.245      1.000      0.295      0.187
  3671.100      0.072      0.000      0.000    178.418      0.244      1.000      0.296      0.189
  3671.200      0.072      0.000      0.000    180.626      0.244      1.000      0.295      0.188
  3671.300      0.072      0.000      0.000    156.406      0.243      1.000      0.295      0.195
  3671.400      0.072      0.000      0.000    146.208      0.242      1.000      0.296      0.197
  3671.500      0.072      0.000      0.000    141.812      0.241      1.000      0.298      0.198
  3671.600      0.072      0.000      0.000    138.739      0.241      1.000      0.299      0.198
  3671.700      0.072      0.000      0.000    146.272      0.240      1.000      0.300      0.195
  3671.800      0.072      0.000      0.000    151.347      0.241      1.000      0.299      0.194
  3671.900      0.073      0.000      0.000    154.579      0.242      1.000      0.301      0.194
  3672.000      0.073      0.000      0.000    174.687      0.241      1.000      0.302      0.187
  3672.100      0.073      0.000      0.000    185.958      0.240      1.000      0.304      0.183
