~Version Information
VERS.                     2.0: CWLS log ASCII Standard Version 2.00
WRAP.                      NO: One line per depth step

~Well Information Block
#MNEM.UNIT                 Value                       Information
#------------              -----                       -----------
STRT.M                    3351.600                    :START
STOP.M                    4759.200                    :STOP
STEP.M                       0.100                    :STEP
NULL.                     -999.25                     :NULL VALUE
COMP.         Statoil Petroleum AS                    :Company
WELL.         15/9-F-11 B                             :Well
FLD .         VOLVE                                   :Field
LOC .         Maersk Inspirer                         :Location
PROV.                                                 :Province
CNTY.                                                 :County
STATE.                                                 :State
CTRY.                                                 :Country
DATE.                                                 :Log Date
SRVC.                                                 :Service Company
UWI .                                                 :Unique Well Identifier
API .                                                 :API Number
LATI.         058 26' 29.960" N    DMS                :Latitude
LONG.         001 53' 14.870" E    DMS                :Longtitude
PD  .         MSL                                     :Permanent Datum
EDF .M            54.900                              :Elevations D.F.
EGL .M           -91.000                              :Elevations G.L.
ELZ .M            54.900                              :Elev. Log Zero
LMF .         DF                                      :Log Measured From

~Curve Information
#MNEM   .UNIT             API CODE Curve Description
#------------             -------- -----------------
DEPTH   .M            00 001 00 00:   0  Depth
BVW     .v/v          00 000 00 00:   1  BVW:CPI:rC:NONE:v1
CARB_FLAG.unitless    00 000 00 00:   2  CARB_FLAG:CPI:rC:NONE:v1
COAL_FLAG.unitless    00 000 00 00:   3  COAL_FLAG:CPI:rC:NONE:v1
KLOGH   .mD           00 000 00 00:   4  KLOGH:CPI:rC:NONE:v1
PHIF    .v/v          00 000 00 00:   5  PHIF:CPI:rC:NONE:v1
SAND_FLAG.UNKNOWN     00 000 00 00:   6  SAND_FLAG:CPI:rC:NONE:v1
SW      .v/v          00 000 00 00:   7  SW:CPI:rC:NONE:v1
VSH     .v/v          00 000 00 00:   8  VSH:CPI:rC:NONE:v1

~Parameter Information
#MNEM.UNIT       Value           Description
#------------    -----           -----------
RUN .         1                 :Run number

~Other Information
PETROPHYSICAL_INTERPRETATION: OUTPUT

# --- LOG MNEMONICS AND UNITS ---
#Depth     BVW        CARB_FLAG  COAL_FLAG  KLOGH      PHIF       SAND_FLAG  SW         VSH       
#M         v/v        unitless   unitless   mD         v/v        UNKNOWN    v/v        v/v       

~A
# ...
  4364.100      0.025      0.000      0.000    148.164      0.163      1.000      0.154      0.126
  4364.200      0.025      0.000      0.000    132.661      0.159      1.000      0.155      0.128
  4364.300      0.024      0.000      0.000    131.590      0.157      1.000      0.155      0.126
  4364.400      0.024      0.000      0.000    139.181      0.157      1.000      0.155      0.124
  4364.500      0.024      0.000      0.000    140.892      0.161      1.000      0.151      0.126
  4364.600      0.024      0.000      0.000    158.486      0.167      1.000      0.145      0.126
  4364.700      0.024      0.000      0.000    184.917      0.174      1.000      0.141      0.125
  4364.800      0.025      0.000      0.000    202.754      0.180      1.000      0.139      0.126
  4364.900      0.025      0.000      0.000    235.017      0.185      1.000      0.137      0.123
  4365.000      0.026      0.000      0.000    281.267      0.191      1.000      0.135      0.120
  4365.100      0.026      0.000      0.000    366.902      0.195      1.000      0.133      0.111
  4365.200      0.026      0.000      0.000    420.522      0.197      1.000      0.132      0.106
  4365.300      0.026      0.000      0.000    414.472      0.201      1.000      0.131      0.110
  4365.400      0.026      0.000      0.000    543.092      0.205      1.000      0.128      0.101
  4365.500      0.026      0.000      0.000    633.218      0.209      1.000      0.125      0.097
  4365.600      0.026      0.000      0.000    664.565      0.213      1.000      0.123      0.098
  4365.700      0.026      0.000      0.000    644.678      0.217      1.000      0.120      0.103
  4365.800      0.026      0.000      0.000    754.562      0.220      1.000      0.119      0.098
  4365.900      0.026      0.000      0.000    662.466      0.222      1.000      0.119      0.106
  4366.000      0.026      0.000      0.000    632.483      0.222      1.000      0.119      0.109
  4366.100      0.027      0.000      0.000    612.685      0.222      1.000      0.119      0.110
  4366.200      0.027      0.000      0.000    571.669      0.223      1.000      0.119      0.114
  4366.300      0.026      0.000      0.000    570.560      0.221      1.000      0.119      0.112
  4366.400      0.026      0.000      0.000    564.765      0.219      1.000      0.119      0.111
  4366.500      0.026      0.000      0.000    608.660      0.219      1.000      0.118      0.108
  4366.600      0.026      0.000      0.000    572.481      0.220      1.000      0.118      0.111
  4366.700      0.026      0.000      0.000    465.383      0.221      1.000      0.118      0.122
  4366.800      0.026      0.000      0.000    486.741      0.219      1.000      0.120      0.119
  4366.900      0.026      0.000      0.000    524.177      0.219      1.000      0.120      0.115
  4367.000      0.026      0.000      0.000    580.330      0.220      1.000      0.118      0.111
  4367.100      0.026      0.000      0.000    571.836      0.220      1.000      0.119      0.111
  4367.200      0.026      0.000      0.000    515.009      0.219      1.000      0.120      0.115
  4367.300      0.026      0.000      0.000    551.358      0.217      1.000      0.120      0.111
  4367.400      0.026      0.000      0.000    487.722      0.216      1.000      0.122      0.116
  4367.500      0.027      0.000      0.000    493.718      0.215      1.000      0.124      0.114
  4367.600      0.027      0.000      0.000    456.717      0.213      1.000      0.127      0.116
  4367.700      0.028      0.000      0.000    354.042      0.208      1.000      0.134      0.124
  4367.800      0.028      0.000      0.000    278.643      0.200      1.000      0.141      0.128
  4367.900      0.027      0.000      0.000    229.866      0.188      1.000      0.143      0.127
  4368.000      0.024      0.000      0.000    225.701      0.175      1.000      0.135      0.116
  4368.100      0.023      0.000      0.000    238.806      0.160      1.000      0.141      0.101
  4368.200      0.022      0.000      0.000    185.993      0.147      1.000      0.148      0.101
  4368.300      0.021      0.000      0.000    142.739      0.134      1.000      0.156      0.102
  4368.400      0.020      0.000      0.000    114.856      0.117      1.000      0.174      0.098
  4368.500      0.020      0.000      0.000     84.250      0.097      0.000      0.204      0.095
  4368.600      0.019      1.000      0.000     55.191      0.072      0.000      0.262      0.093
  4368.700      0.017      1.000      0.000     32.636      0.047      0.000      0.354      0.096
  4368.800      0.014      1.000      0.000     25.096      0.025      0.000      0.553      0.089
  4368.900      0.015      1.000      0.000     29.741      0.034      0.000      0.439      0.089
  4369.000      0.015      1.000      0.000     24.689      0.033      0.000      0.449      0.097
  4369.100      0.014      1.000      0.000     25.287      0.032      0.000      0.448      0.095
  4369.200      0.014      1.000      0.000     24.187      0.032      0.000      0.449      0.097
  4369.300      0.014      1.000      0.000     25.089      0.032      0.000      0.440      0.096
  4369.400      0.014      1.000      0.000     26.775      0.033      0.000      0.426      0.093
  4369.500      0.014      1.000      0.000     24.466      0.034      0.000      0.419      0.098
  4369.600      0.014      1.000      0.000     25.269      0.036      0.000      0.406      0.098
  4369.700      0.015      1.000      0.000     24.626      0.037      0.000      0.394      0.100
  4369.800      0.014      1.000      0.000     22.851      0.030      0.000      0.466      0.097
  4369.900      0.014      1.000      0.000     24.289      0.033      0.000      0.425      0.098
  4370.000      0.015      0.000      0.000     25.210      0.039      0.000      0.388      0.101
  4370.100      0.016      0.000      0.000     24.952      0.047      0.000      0.345      0.109
  4370.200      0.017      0.000      0.000     30.360      0.057      0.000      0.305      0.108
  4370.300      0.017      0.000      0.000     42.791      0.065      0.000      0.268      0.099
  4370.400      0.018      0.000      0.000     59.023      0.073      0.000      0.250      0.091
  4370.500      0.020      0.000      0.000     59.490      0.082      0.000      0.242      0.098
  4370.600      0.020      0.000      0.000     55.364      0.089      0.000      0.230      0.107
  4370.700      0.022      0.000      0.000     64.215      0.095      0.000      0.228      0.106
  4370.800      0.023      0.000      0.000     71.878      0.103      1.000      0.221      0.107
  4370.900      0.028      0.000      0.000     88.788      0.110      1.000      0.255      0.103
  4371.000      0.033      0.000      0.000     97.808      0.116      1.000      0.280      0.105
  4371.100      0.033      0.000      0.000    130.014      0.125      1.000      0.264      0.098
  4371.200      0.038      0.000      0.000    164.646      0.137      1.000      0.281      0.097
  4371.300      0.045      0.000      0.000    188.887      0.152      1.000      0.296      0.104
  4371.400      0.045      0.000      0.000    262.285      0.168      1.000      0.268      0.102
  4371.500      0.052      0.000      0.000    364.931      0.182      1.000      0.287      0.099
  4371.600      0.054      0.000      0.000    369.981      0.192      1.000      0.279      0.107
  4371.700      0.054      0.000      0.000    396.319      0.195      1.000      0.277      0.107
  4371.800      0.046      0.000      0.000    396.012      0.193      1.000      0.241      0.105
  4371.900      0.030      0.000      0.000    421.389      0.186      1.000      0.160      0.096
  4372.000      0.027      0.000      0.000    338.000      0.175      1.000      0.152      0.097
  4372.100      0.028      0.000      0.000    149.477      0.131      1.000      0.214      0.097
