~Version Information
VERS.                     2.0: CWLS log ASCII Standard Version 2.00
WRAP.                      NO: One line per depth step

~Well Information Block
#MNEM.UNIT                 Value                       Information
#------------              -----                       -----------
STRT.M                   3271.0000                    :START
STOP.M                   3631.9000                    :STOP
STEP.M                      0.1000                    :STEP
NULL.                     -999.25                     :NULL VALUE
COMP.         Statoil Petroleum                       :Company
WELL.         15/9-F-1                                :Well
FLD .         VOLVE                                   :Field
LOC .         Maersk Inspirer                         :Location
PROV.                                                 :Province
CNTY.                                                 :County
STATE.                                                 :State
CTRY.                                                 :Country
DATE.                                                 :Log Date
SRVC.                                                 :Service Company
UWI .                                                 :Unique Well Identifier
API .                                                 :API Number
LATI.         058 26' 29.907" N    DMS                :Latitude
LONG.         001 53' 14.708" E    DMS                :Longtitude
PD  .         MSL                                     :Permanent Datum
ELZ .M                 0.0000                         :Elev. Log Zero

~Curve Information
#MNEM   .UNIT             API CODE Curve Description
#------------             -------- -----------------
DEPTH   .M            00 001 00 00:   0  Depth
BVW     .V/V          00 000 00 00:   1  Bound Volume Water
COAL_FLAG.unitless    00 000 00 00:   2  Coal Flag
KLOGH   .MD           00 000 00 00:   3  Calculated Horizontal PERMEABILITY from logs
PHIF    .V/V          00 000 00 00:   4  Final porosity
SAND_FLAG.unitless    00 000 00 00:   5  Sand Flag
SW      .V/V          00 000 00 00:   6  Water Saturation (Archie)
VCARB   .V/V          00 000 00 00:   7  Volume of calcite; dolomite and siderite from log analysis; repo
VSH     .V/V          00 000 00 00:   8  (GR-15)/(250-15)

~Parameter Information
#MNEM.UNIT       Value           Description
#------------    -----           -----------
HLD .         Terms and Conditions.:Header Legal Disclaimer
RUN .         1                 :Run number

~Other Information
PETROPHYSICAL INTERPRETATION: OUTPUT

# --- LOG MNEMONICS AND UNITS ---
#Depth          BVW             COAL_FLAG       KLOGH           PHIF            SAND_FLAG       SW              VCARB           VSH            
#M              V/V             unitless        MD              V/V             unitless        V/V             V/V             V/V            

~A
# ...
      3377.4000          0.0933          0.0000          0.1341          0.0933          0.0000          1.0000          0.1458          0.2152
      3377.5000          0.0935          0.0000          0.1151          0.0935          0.0000          1.0000          0.1166          0.2386
      3377.6000          0.0947          0.0000          0.1034          0.0947          0.0000          1.0000          0.0869          0.2611
      3377.7000          0.0944          0.0000          0.0756          0.0944          0.0000          1.0000          0.0424          0.3049
      3377.8000          0.0925          0.0000          0.0615          0.0925          0.0000          1.0000          0.0308          0.3233
      3377.9000          0.0897          0.0000          0.0503          0.0897          0.0000          1.0000          0.0271          0.3362
      3378.0000          0.0864          0.0000          0.0442          0.0864          0.0000          1.0000          0.0369          0.3361
      3378.1000          0.0825          0.0000          0.0423          0.0825          0.0000          1.0000          0.0643          0.3199
      3378.2000          0.0789          0.0000          0.0412          0.0789          0.0000          1.0000          0.0936          0.3028
      3378.3000          0.0779          0.0000          0.0560          0.0779          0.0000          1.0000          0.1549          0.2527
      3378.4000          0.0807          0.0000          0.0827          0.0807          0.0000          1.0000          0.1965          0.2124
      3378.5000          0.0860          0.0000          0.1141          0.0860          0.0000          1.0000          0.1975          0.1965
      3378.6000          0.0911          0.0000          0.1226          0.0911          0.0000          1.0000          0.1535          0.2155
      3378.7000          0.0950          0.0000          0.1279          0.0950          0.0000          1.0000          0.1187          0.2323
      3378.8000          0.0984          0.0000          0.1333          0.0984          0.0000          1.0000          0.0918          0.2456
      3378.9000          0.1010          0.0000          0.1437          0.1010          1.0000          1.0000          0.0781          0.2498
      3379.0000          0.1020          0.0000          0.1572          0.1020          1.0000          1.0000          0.0823          0.2429
      3379.1000          0.1019          0.0000          0.1766          0.1019          1.0000          1.0000          0.1030          0.2251
      3379.2000          0.1019          0.0000          0.2082          0.1019          1.0000          1.0000          0.1310          0.2016
      3379.3000          0.1034          0.0000          0.2469          0.1034          1.0000          1.0000          0.1457          0.1855
      3379.4000          0.1047          0.0000          0.2927          0.1047          1.0000          1.0000          0.1627          0.1685
      3379.5000          0.1031          0.0000          0.2653          0.1031          1.0000          1.0000          0.1628          0.1731
      3379.6000          0.0980          0.0000          0.1984          0.0980          0.0000          1.0000          0.1658          0.1858
      3379.7000          0.0925          0.0000          0.1346          0.0925          0.0000          1.0000          0.1549          0.2102
      3379.8000          0.0904          0.0000          0.1139          0.0904          0.0000          1.0000          0.1478          0.2221
      3379.9000          0.0922          0.0000          0.1046          0.0922          0.0000          1.0000          0.1133          0.2452
      3380.0000          0.0956          0.0000          0.0983          0.0956          0.0000          1.0000          0.0700          0.2738
      3380.1000          0.0970          0.0000          0.0811          0.0970          0.0000          1.0000          0.0300          0.3096
      3380.2000          0.0958          0.0000          0.0688          0.0958          0.0000          1.0000          0.0177          0.3268
      3380.3000          0.0947          0.0000          0.0655          0.0947          0.0000          1.0000          0.0206          0.3272
      3380.4000          0.0949          0.0000          0.0546          0.0949          0.0000          1.0000          0.0000          0.3548
      3380.5000          0.0952          0.0000          0.0507          0.0952          0.0000          1.0000          0.0000          0.3672
      3380.6000          0.0932          0.0000          0.0589          0.0932          0.0000          1.0000          0.0192          0.3338
      3380.7000          0.0889          0.0000          0.0568          0.0889          0.0000          1.0000          0.0507          0.3139
      3380.8000          0.0854          0.0000          0.0506          0.0854          0.0000          1.0000          0.0645          0.3107
      3380.9000          0.0855          0.0000          0.0500          0.0855          0.0000          1.0000          0.0623          0.3128
      3381.0000          0.0885          0.0000          0.0591          0.0885          0.0000          1.0000          0.0597          0.3060
      3381.1000          0.0923          0.0000          0.0682          0.0923          0.0000          1.0000          0.0461          0.3077
      3381.2000          0.0963          0.0000          0.0825          0.0963          0.0000          1.0000          0.0381          0.3032
      3381.3000          0.1003          0.0000          0.0969          0.1003          1.0000          1.0000          0.0261          0.3031
      3381.4000          0.1044          0.0000          0.1172          0.1044          1.0000          1.0000          0.0177          0.2990
      3381.5000          0.1067          0.0000          0.1313          0.1067          1.0000          1.0000          0.0132          0.2962
      3381.6000          0.1051          0.0000          0.1192          0.1051          1.0000          1.0000          0.0135          0.3011
      3381.7000          0.0995          0.0000          0.1016          0.0995          0.0000          1.0000          0.0402          0.2912
      3381.8000          0.0927          0.0000          0.0828          0.0927          0.0000          1.0000          0.0715          0.2816
      3381.9000          0.0891          0.0000          0.0651          0.0891          0.0000          1.0000          0.0681          0.2957
      3382.0000          0.0880          0.0000          0.0545          0.0880          0.0000          1.0000          0.0526          0.3147
      3382.1000          0.0854          0.0000          0.0477          0.0854          0.0000          1.0000          0.0561          0.3192
      3382.2000          0.0801          0.0000          0.0406          0.0801          0.0000          1.0000          0.0807          0.3114
      3382.3000          0.0732          0.0000          0.0344          0.0732          0.0000          1.0000          0.1206          0.2954
      3382.4000          0.0684          0.0000          0.0295          0.0684          0.0000          1.0000          0.1426          0.2903
      3382.5000          0.0697          0.0000          0.0337          0.0697          0.0000          1.0000          0.1524          0.2784
      3382.6000          0.0793          0.0000          0.0516          0.0793          0.0000          1.0000          0.1266          0.2722
      3382.7000          0.0958          0.0000          0.1140          0.0958          0.0000          1.0000          0.0914          0.2535
      3382.8000          0.1128          0.0000          0.2519          0.1128          1.0000          1.0000          0.0523          0.2371
      3382.9000          0.1228          0.0000          0.4199          0.1228          1.0000          1.0000          0.0357          0.2211
