~Version Information
VERS.                     2.0: CWLS log ASCII Standard Version 2.00
WRAP.                      NO: One line per depth step

~Well Information Block
#MNEM.UNIT                 Value                       Information
#------------              -----                       -----------
STRT.M                   3271.0000                    :START
STOP.M                   3631.9000                    :STOP
STEP.M                      0.1000                    :STEP
NULL.                     -999.25                     :NULL VALUE
COMP.         Statoil Petroleum                       :Company
WELL.         15/9-F-1                                :Well
FLD .         VOLVE                                   :Field
LOC .         Maersk Inspirer                         :Location
PROV.                                                 :Province
CNTY.                                                 :County
STATE.                                                 :State
CTRY.                                                 :Country
DATE.                                                 :Log Date
SRVC.                                                 :Service Company
UWI .                                                 :Unique Well Identifier
API .                                                 :API Number
LATI.         058 26' 29.907" N    DMS                :Latitude
LONG.         001 53' 14.708" E    DMS                :Longtitude
PD  .         MSL                                     :Permanent Datum
ELZ .M                 0.0000                         :Elev. Log Zero

~Curve Information
#MNEM   .UNIT             API CODE Curve Description
#------------             -------- -----------------
DEPTH   .M            00 001 00 00:   0  Depth
BVW     .V/V          00 000 00 00:   1  Bound Volume Water
COAL_FLAG.unitless    00 000 00 00:   2  Coal Flag
KLOGH   .MD           00 000 00 00:   3  Calculated Horizontal PERMEABILITY from logs
PHIF    .V/V          00 000 00 00:   4  Final porosity
SAND_FLAG.unitless    00 000 00 00:   5  Sand Flag
SW      .V/V          00 000 00 00:   6  Water Saturation (Archie)
VCARB   .V/V          00 000 00 00:   7  Volume of calcite; dolomite and siderite from log analysis; repo
VSH     .V/V          00 000 00 00:   8  (GR-15)/(250-15)

~Parameter Information
#MNEM.UNIT       Value           Description
#------------    -----           -----------
HLD .         Terms and Conditions.:Header Legal Disclaimer
RUN .         1                 :Run number

~Other Information
PETROPHYSICAL INTERPRETATION: OUTPUT

# --- LOG MNEMONICS AND UNITS ---
#Depth          BVW             COAL_FLAG       KLOGH           PHIF            SAND_FLAG       SW              VCARB           VSH            
#M              V/V             unitless        MD              V/V             unitless        V/V             V/V             V/V            

~A
# ...
      3416.6000          0.0925          0.0000          0.0602          0.0925          0.0000          1.0000          0.0279          0.3265
      3416.7000          0.0850          0.0000          0.0549          0.0850          0.0000          1.0000          0.0809          0.2962
      3416.8000          0.0767          0.0000          0.0496          0.0767          0.0000          1.0000          0.1470          0.2628
      3416.9000          0.0696          0.0000          0.0484          0.0696          0.0000          1.0000          0.2216          0.2253
      3417.0000          0.0633          0.0000          0.0422          0.0633          0.0000          1.0000          0.2694          0.2088
      3417.1000          0.0567          0.0000          0.0292          0.0567          0.0000          1.0000          0.2739          0.2238
      3417.2000          0.0511          0.0000          0.0186          0.0511          0.0000          1.0000          0.2485          0.2568
      3417.3000          0.0513          0.0000          0.0151          0.0513          0.0000          1.0000          0.2064          0.2877
      3417.4000          0.0587          0.0000          0.0206          0.0587          0.0000          1.0000          0.1823          0.2857
      3417.5000          0.0710          0.0000          0.0341          0.0710          0.0000          1.0000          0.1412          0.2841
      3417.6000          0.0840          0.0000          0.0595          0.0840          0.0000          1.0000          0.1030          0.2789
      3417.7000          0.0958          0.0000          0.1124          0.0958          0.0000          1.0000          0.0896          0.2553
      3417.8000          0.1055          0.0000          0.1738          0.1055          1.0000          1.0000          0.0642          0.2487
      3417.9000          0.1121          0.0000          0.2330          0.1121          1.0000          1.0000          0.0466          0.2446
      3418.0000          0.1121          0.0000          0.2738          0.1121          1.0000          1.0000          0.0717          0.2212
      3418.1000          0.1045          0.0000          0.1967          0.1045          1.0000          1.0000          0.0943          0.2247
      3418.2000          0.0939          0.0000          0.1018          0.0939          0.0000          1.0000          0.0919          0.2589
      3418.3000          0.0860          0.0000          0.0678          0.0860          0.0000          1.0000          0.1043          0.2717
      3418.4000          0.0826          0.0000          0.0566          0.0826          0.0000          1.0000          0.1084          0.2782
      3418.5000          0.0830          0.0000          0.0625          0.0830          0.0000          1.0000          0.1210          0.2660
      3418.6000          0.0861          0.0000          0.0651          0.0861          0.0000          1.0000          0.0971          0.2780
      3418.7000          0.0927          0.0000          0.0926          0.0927          0.0000          1.0000          0.0885          0.2656
      3418.8000          0.1027          0.0000          0.1499          0.1027          1.0000          1.0000          0.0684          0.2536
      3418.9000          0.1121          0.0000          0.2350          0.1121          1.0000          1.0000          0.0479          0.2434
      3419.0000          0.1161          0.0000          0.2843          0.1161          1.0000          1.0000          0.0394          0.2389
      3419.1000          0.1133          0.0000          0.2590          0.1133          1.0000          1.0000          0.0514          0.2362
      3419.2000          0.1073          0.0000          0.2207          0.1073          1.0000          1.0000          0.0851          0.2242
      3419.3000          0.1021          0.0000          0.2025          0.1021          1.0000          1.0000          0.1237          0.2069
      3419.4000          0.0991          0.0000          0.2125          0.0991          0.0000          1.0000          0.1657          0.1825
      3419.5000          0.0962          0.0000          0.1848          0.0962          0.0000          1.0000          0.1723          0.1859
      3419.6000          0.0928          0.0000          0.1464          0.0928          0.0000          1.0000          0.1668          0.2000
      3419.7000          0.0906          0.0000          0.1324          0.0906          0.0000          1.0000          0.1733          0.2015
      3419.8000          0.0911          0.0000          0.1430          0.0911          0.0000          1.0000          0.1822          0.1933
      3419.9000          0.0933          0.0000          0.1202          0.0933          0.0000          1.0000          0.1259          0.2313
      3420.0000          0.0938          0.0000          0.0965          0.0938          0.0000          1.0000          0.0843          0.2661
      3420.1000          0.0899          0.0000          0.0802          0.0899          0.0000          1.0000          0.0933          0.2699
      3420.2000          0.0817          0.0000          0.0553          0.0817          0.0000          1.0000          0.1131          0.2766
      3420.3000          0.0713          0.0000          0.0365          0.0713          0.0000          1.0000          0.1503          0.2757
      3420.4000          0.0615          0.0000          0.0289          0.0615          0.0000          1.0000          0.2138          0.2535
      3420.5000          0.0554          0.0000          0.0253          0.0554          0.0000          1.0000          0.2608          0.2366
      3420.6000          0.0543          0.0000          0.0209          0.0543          0.0000          1.0000          0.2342          0.2584
      3420.7000          0.0588          0.0000          0.0183          0.0588          0.0000          1.0000          0.1600          0.3034
      3420.8000          0.0683          0.0000          0.0222          0.0683          0.0000          1.0000          0.0976          0.3307
      3420.9000          0.0809          0.0000          0.0346          0.0809          0.0000          1.0000          0.0497          0.3397
      3421.0000          0.0920          0.0000          0.0483          0.0920          0.0000          1.0000          0.0038          0.3555
      3421.1000          0.0970          0.0000          0.0594          0.0970          0.0000          1.0000          0.0000          0.3546
      3421.2000          0.0951          0.0000          0.0539          0.0951          0.0000          1.0000          0.0000          0.3577
      3421.3000          0.0892          0.0000          0.0398          0.0892          0.0000          1.0000          0.0014          0.3675
      3421.4000          0.0837          0.0000          0.0382          0.0837          0.0000          1.0000          0.0398          0.3415
      3421.5000          0.0801          0.0000          0.0335          0.0801          0.0000          1.0000          0.0525          0.3395
      3421.6000          0.0766          0.0000          0.0356          0.0766          0.0000          1.0000          0.0928          0.3104
      3421.7000          0.0727          0.0000          0.0324          0.0727          0.0000          1.0000          0.1149          0.3018
      3421.8000          0.0687          0.0000          0.0279          0.0687          0.0000          1.0000          0.1298          0.3003
      3421.9000          0.0658          0.0000          0.0295          0.0658          0.0000          1.0000          0.1700          0.2752
      3422.0000          0.0636          0.0000          0.0284          0.0636          0.0000          1.0000          0.1871          0.2680
      3422.1000          0.0611          0.0000          0.0231          0.0611          0.0000          1.0000          0.1771          0.2830
