~Version Information
VERS.                     2.0: CWLS log ASCII Standard Version 2.00
WRAP.                      NO: One line per depth step

~Well Information Block
#MNEM.UNIT                 Value                       Information
#------------              -----                       -----------
STRT.M                    3351.600                    :START
STOP.M                    4759.200                    :STOP
STEP.M                       0.100                    :STEP
NULL.                     -999.25                     :NULL VALUE
COMP.         Statoil Petroleum AS                    :Company
WELL.         15/9-F-11 B                             :Well
FLD .         VOLVE                                   :Field
LOC .         Maersk Inspirer                         :Location
PROV.                                                 :Province
CNTY.                                                 :County
STATE.                                                 :State
CTRY.                                                 :Country
DATE.                                                 :Log Date
SRVC.                                                 :Service Company
UWI .                                                 :Unique Well Identifier
API .                                                 :API Number
LATI.         058 26' 29.960" N    DMS                :Latitude
LONG.         001 53' 14.870" E    DMS                :Longtitude
PD  .         MSL                                     :Permanent Datum
EDF .M            54.900                              :Elevations D.F.
EGL .M           -91.000                              :Elevations G.L.
ELZ .M            54.900                              :Elev. Log Zero
LMF .         DF                                      :Log Measured From

~Curve Information
#MNEM   .UNIT             API CODE Curve Description
#------------             -------- -----------------
DEPTH   .M            00 001 00 00:   0  Depth
BVW     .v/v          00 000 00 00:   1  BVW:CPI:rC:NONE:v1
CARB_FLAG.unitless    00 000 00 00:   2  CARB_FLAG:CPI:rC:NONE:v1
COAL_FLAG.unitless    00 000 00 00:   3  COAL_FLAG:CPI:rC:NONE:v1
KLOGH   .mD           00 000 00 00:   4  KLOGH:CPI:rC:NONE:v1
PHIF    .v/v          00 000 00 00:   5  PHIF:CPI:rC:NONE:v1
SAND_FLAG.UNKNOWN     00 000 00 00:   6  SAND_FLAG:CPI:rC:NONE:v1
SW      .v/v          00 000 00 00:   7  SW:CPI:rC:NONE:v1
VSH     .v/v          00 000 00 00:   8  VSH:CPI:rC:NONE:v1

~Parameter Information
#MNEM.UNIT       Value           Description
#------------    -----           -----------
RUN .         1                 :Run number

~Other Information
PETROPHYSICAL_INTERPRETATION: OUTPUT

# --- LOG MNEMONICS AND UNITS ---
#Depth     BVW        CARB_FLAG  COAL_FLAG  KLOGH      PHIF       SAND_FLAG  SW         VSH       
#M         v/v        unitless   unitless   mD         v/v        UNKNOWN    v/v        v/v       

~A
# ...
  3813.300      0.053      0.000      0.000      0.031      0.053      0.000      1.000      0.437
  3813.400      0.038      0.000      0.000      0.018      0.038      0.000      1.000      0.449
  3813.500      0.023      0.000      0.000      0.022      0.023      0.000      1.000      0.427
  3813.600      0.020      0.000      0.000      0.021      0.020      0.000      1.000      0.426
  3813.700      0.020      0.000      0.000      0.015      0.020      0.000      1.000      0.442
  3813.800      0.020      0.000      0.000      0.010      0.020      0.000      1.000      0.460
  3813.900      0.020      0.000      0.000      0.007      0.020      0.000      1.000      0.479
  3814.000      0.020      0.000      0.000      0.009      0.020      0.000      1.000      0.468
  3814.100      0.020      0.000      0.000      0.010      0.020      0.000      1.000      0.464
  3814.200      0.020      0.000      0.000      0.011      0.020      0.000      1.000      0.466
  3814.300      0.020      0.000      0.000      0.009      0.020      0.000      1.000      0.468
  3814.400      0.020      0.000      0.000      0.008      0.020      0.000      1.000      0.473
  3814.500      0.020      0.000      0.000      0.008      0.020      0.000      1.000      0.475
  3814.600      0.020      1.000      0.000      0.006      0.020      0.000      1.000      0.489
  3814.700      0.020      1.000      0.000      0.005      0.020      0.000      1.000      0.491
  3814.800      0.020      1.000      0.000      0.009      0.020      0.000      1.000      0.467
  3814.900      0.020      1.000      0.000      0.009      0.020      0.000      1.000      0.470
  3815.000      0.020      1.000      0.000      0.009      0.020      0.000      1.000      0.466
  3815.100      0.020      1.000      0.000      0.011      0.020      0.000      1.000      0.459
  3815.200      0.020      1.000      0.000      0.015      0.020      0.000      1.000      0.442
  3815.300      0.020      1.000      0.000      0.019      0.020      0.000      1.000      0.432
  3815.400      0.020      1.000      0.000      0.017      0.020      0.000      1.000      0.438
  3815.500      0.020      1.000      0.000      0.018      0.020      0.000      1.000      0.434
  3815.600      0.020      1.000      0.000      0.028      0.020      0.000      1.000      0.413
  3815.700      0.020      1.000      0.000      0.030      0.020      0.000      1.000      0.410
  3815.800      0.020      1.000      0.000      0.025      0.020      0.000      1.000      0.419
  3815.900      0.020      1.000      0.000      0.022      0.020      0.000      1.000      0.425
  3816.000      0.020      1.000      0.000      0.018      0.020      0.000      1.000      0.434
  3816.100      0.020      1.000      0.000      0.013      0.020      0.000      1.000      0.450
  3816.200      0.020      1.000      0.000      0.021      0.020      0.000      1.000      0.427
  3816.300      0.020      1.000      0.000      0.022      0.020      0.000      1.000      0.424
  3816.400      0.020      1.000      0.000      0.022      0.020      0.000      1.000      0.424
  3816.500      0.020      1.000      0.000      0.029      0.020      0.000      1.000      0.411
  3816.600      0.020      1.000      0.000      0.020      0.020      0.000      1.000      0.428
  3816.700      0.020      1.000      0.000      0.011      0.020      0.000      1.000      0.457
  3816.800      0.020      1.000      0.000      0.011      0.020      0.000      1.000      0.459
  3816.900      0.020      1.000      0.000      0.014      0.020      0.000      1.000      0.446
  3817.000      0.020      1.000      0.000      0.023      0.020      0.000      1.000      0.423
  3817.100      0.020      1.000      0.000      0.036      0.020      0.000      1.000      0.401
  3817.200      0.020      1.000      0.000      0.037      0.020      0.000      1.000      0.399
  3817.300      0.020      1.000      0.000      0.033      0.020      0.000      1.000      0.404
  3817.400      0.020      1.000      0.000      0.032      0.020      0.000      1.000      0.406
  3817.500      0.020      1.000      0.000      0.036      0.020      0.000      1.000      0.400
  3817.600      0.020      1.000      0.000      0.038      0.020      0.000      1.000      0.397
  3817.700      0.020      1.000      0.000      0.022      0.020      0.000      1.000      0.424
  3817.800      0.020      1.000      0.000      0.019      0.020      0.000      1.000      0.432
  3817.900      0.020      1.000      0.000      0.020      0.020      0.000      1.000      0.438
  3818.000      0.020      1.000      0.000      0.021      0.020      0.000      1.000      0.426
  3818.100      0.020      1.000      0.000      0.015      0.020      0.000      1.000      0.442
  3818.200      0.020      1.000      0.000      0.011      0.020      0.000      1.000      0.460
  3818.300      0.020      1.000      0.000      0.020      0.020      0.000      1.000      0.428
  3818.400      0.020      1.000      0.000      0.033      0.020      0.000      1.000      0.404
  3818.500      0.020      1.000      0.000      0.041      0.020      0.000      1.000      0.394
  3818.600      0.020      1.000      0.000      0.036      0.020      0.000      1.000      0.400
  3818.700      0.020      1.000      0.000      0.032      0.020      0.000      1.000      0.405
  3818.800      0.020      1.000      0.000      0.027      0.020      0.000      1.000      0.415
  3818.900      0.020      1.000      0.000      0.024      0.020      0.000      1.000      0.420
  3819.000      0.020      1.000      0.000      0.025      0.020      0.000      1.000      0.418
  3819.100      0.020      1.000      0.000      0.027      0.020      0.000      1.000      0.415
  3819.200      0.020      1.000      0.000      0.022      0.020      0.000      1.000      0.424
  3819.300      0.020      1.000      0.000      0.036      0.020      0.000      1.000      0.400
  3819.400      0.020      1.000      0.000      0.038      0.020      0.000      1.000      0.398
  3819.500      0.020      1.000      0.000      0.032      0.020      0.000      1.000      0.406
  3819.600      0.020      1.000      0.000      0.028      0.020      0.000      1.000      0.413
  3819.700      0.020      1.000      0.000      0.030      0.020      0.000      1.000      0.409
  3819.800      0.020      1.000      0.000      0.033      0.020      0.000      1.000      0.405
  3819.900      0.020      1.000      0.000      0.031      0.020      0.000      1.000      0.408
  3820.000      0.020      1.000      0.000      0.030      0.020      0.000      1.000      0.410
  3820.100      0.020      1.000      0.000      0.023      0.020      0.000      1.000      0.423
  3820.200      0.020      1.000      0.000      0.034      0.020      0.000      1.000      0.403
  3820.300      0.020      1.000      0.000      0.059      0.020      0.000      1.000      0.377
  3820.400      0.020      1.000      0.000      0.055      0.020      0.000      1.000      0.380
  3820.500      0.020      1.000      0.000      0.054      0.020      0.000      1.000      0.381
  3820.600      0.020      1.000      0.000      0.041      0.020      0.000      1.000      0.395
  3820.700      0.020      1.000      0.000      0.033      0.020      0.000      1.000      0.405
  3820.800      0.020      1.000      0.000      0.041      0.020      0.000      1.000      0.395
  3820.900      0.020      1.000      0.000      0.059      0.020      0.000      1.000      0.377
  3821.000      0.020      1.000      0.000      0.043      0.020      0.000      1.000      0.392
  3821.100      0.020      1.000      0.000      0.030      0.020      0.000      1.000      0.409
  3821.200      0.020      1.000      0.000      0.032      0.020      0.000      1.000      0.407
  3821.300      0.020      1.000      0.000      0.037      0.020      0.000      1.000      0.399
