~Version Information
VERS.                     2.0: CWLS log ASCII Standard Version 2.00
WRAP.                      NO: One line per depth step

~Well Information Block
#MNEM.UNIT                 Value                       Information
#------------              -----                       -----------
STRT.M                   3271.0000                    :START
STOP.M                   3631.9000                    :STOP
STEP.M                      0.1000                    :STEP
NULL.                     -999.25                     :NULL VALUE
COMP.         Statoil Petroleum                       :Company
WELL.         15/9-F-1                                :Well
FLD .         VOLVE                                   :Field
LOC .         Maersk Inspirer                         :Location
PROV.                                                 :Province
CNTY.                                                 :County
STATE.                                                 :State
CTRY.                                                 :Country
DATE.                                                 :Log Date
SRVC.                                                 :Service Company
UWI .                                                 :Unique Well Identifier
API .                                                 :API Number
LATI.         058 26' 29.907" N    DMS                :Latitude
LONG.         001 53' 14.708" E    DMS                :Longtitude
PD  .         MSL                                     :Permanent Datum
ELZ .M                 0.0000                         :Elev. Log Zero

~Curve Information
#MNEM   .UNIT             API CODE Curve Description
#------------             -------- -----------------
DEPTH   .M            00 001 00 00:   0  Depth
BVW     .V/V          00 000 00 00:   1  Bound Volume Water
COAL_FLAG.unitless    00 000 00 00:   2  Coal Flag
KLOGH   .MD           00 000 00 00:   3  Calculated Horizontal PERMEABILITY from logs
PHIF    .V/V          00 000 00 00:   4  Final porosity
SAND_FLAG.unitless    00 000 00 00:   5  Sand Flag
SW      .V/V          00 000 00 00:   6  Water Saturation (Archie)
VCARB   .V/V          00 000 00 00:   7  Volume of calcite; dolomite and siderite from log analysis; repo
VSH     .V/V          00 000 00 00:   8  (GR-15)/(250-15)

~Parameter Information
#MNEM.UNIT       Value           Description
#------------    -----           -----------
HLD .         Terms and Conditions.:Header Legal Disclaimer
RUN .         1                 :Run number

~Other Information
PETROPHYSICAL INTERPRETATION: OUTPUT

# --- LOG MNEMONICS AND UNITS ---
#Depth          BVW             COAL_FLAG       KLOGH           PHIF            SAND_FLAG       SW              VCARB           VSH            
#M              V/V             unitless        MD              V/V             unitless        V/V             V/V             V/V            

~A
# ...
      3433.4000          0.0563          0.0000          0.0393          0.0563          0.0000          1.0000          0.3443          0.1788
      3433.5000          0.0660          0.0000          0.0458          0.0660          0.0000          1.0000          0.2534          0.2125
      3433.6000          0.0733          0.0000          0.0434          0.0733          0.0000          1.0000          0.1592          0.2626
      3433.7000          0.0747          0.0000          0.0327          0.0747          0.0000          1.0000          0.0974          0.3118
      3433.8000          0.0709          0.0000          0.0241          0.0709          0.0000          1.0000          0.0860          0.3339
      3433.9000          0.0660          0.0000          0.0221          0.0660          0.0000          1.0000          0.1196          0.3175
      3434.0000          0.0619          0.0000          0.0241          0.0619          0.0000          1.0000          0.1766          0.2812
      3434.1000          0.0589          0.0000          0.0225          0.0589          0.0000          1.0000          0.1971          0.2736
      3434.2000          0.0561          0.0000          0.0159          0.0561          0.0000          1.0000          0.1643          0.3076
      3434.3000          0.0526          0.0000          0.0109          0.0526          0.0000          1.0000          0.1343          0.3431
      3434.4000          0.0480          0.0000          0.0081          0.0480          0.0000          1.0000          0.1307          0.3595
      3434.5000          0.0433          0.0000          0.0080          0.0433          0.0000          1.0000          0.1779          0.3324
      3434.6000          0.0408          0.0000          0.0092          0.0408          0.0000          1.0000          0.2297          0.2989
      3434.7000          0.0424          0.0000          0.0092          0.0424          0.0000          1.0000          0.2131          0.3071
      3434.8000          0.0479          0.0000          0.0089          0.0479          0.0000          1.0000          0.1471          0.3453
      3434.9000          0.0550          0.0000          0.0099          0.0550          0.0000          1.0000          0.0973          0.3704
      3435.0000          0.0615          0.0000          0.0124          0.0615          0.0000          1.0000          0.0724          0.3757
      3435.1000          0.0655          0.0000          0.0167          0.0655          0.0000          1.0000          0.0807          0.3554
      3435.2000          0.0660          0.0000          0.0156          0.0660          0.0000          1.0000          0.0669          0.3680
      3435.3000          0.0642          0.0000          0.0120          0.0642          0.0000          1.0000          0.0458          0.3963
      3435.4000          0.0633          0.0000          0.0118          0.0633          0.0000          1.0000          0.0504          0.3936
      3435.5000          0.0679          0.0000          0.0134          0.0679          0.0000          1.0000          0.0311          0.4013
      3435.6000          0.0792          0.0000          0.0197          0.0792          0.0000          1.0000          0.0000          0.4112
      3435.7000          0.0930          0.0000          0.0387          0.0930          0.0000          1.0000          0.0000          0.3931
      3435.8000          0.1031          0.0000          0.0598          0.1031          1.0000          1.0000          0.0000          0.3891
      3435.9000          0.1042          0.0000          0.0579          0.1042          1.0000          1.0000          0.0000          0.4001
      3436.0000          0.0954          0.0000          0.0466          0.0954          0.0000          1.0000          0.0000          0.3803
      3436.1000          0.0824          0.0000          0.0310          0.0824          0.0000          1.0000          0.0237          0.3636
      3436.2000          0.0716          0.0000          0.0219          0.0716          0.0000          1.0000          0.0652          0.3524
      3436.3000          0.0660          0.0000          0.0161          0.0660          0.0000          1.0000          0.0705          0.3641
      3436.4000          0.0643          0.0000          0.0151          0.0643          0.0000          1.0000          0.0771          0.3628
      3436.5000          0.0627          0.0000          0.0162          0.0627          0.0000          1.0000          0.1012          0.3439
      3436.6000          0.0585          0.0000          0.0144          0.0585          0.0000          1.0000          0.1226          0.3366
      3436.7000          0.0513          0.0000          0.0125          0.0513          0.0000          1.0000          0.1711          0.3155
      3436.8000          0.0452          0.0000          0.0134          0.0452          0.0000          1.0000          0.2527          0.2699
      3436.9000          0.0457          0.0000          0.0192          0.0457          0.0000          1.0000          0.3223          0.2211
      3437.0000          0.0552          0.0000          0.0340          0.0552          0.0000          1.0000          0.3262          0.1932
      3437.1000          0.0684          0.0000          0.0510          0.0684          0.0000          1.0000          0.2466          0.2108
      3437.2000          0.0768          0.0000          0.0605          0.0768          0.0000          1.0000          0.1813          0.2349
      3437.3000          0.0772          0.0000          0.0677          0.0772          0.0000          1.0000          0.1988          0.2207
      3437.4000          0.0731          0.0000          0.0615          0.0731          0.0000          1.0000          0.2282          0.2107
      3437.5000          0.0715          0.0000          0.0657          0.0715          0.0000          1.0000          0.2611          0.1921
      3437.6000          0.0754          0.0000          0.0838          0.0754          0.0000          1.0000          0.2641          0.1793
      3437.7000          0.0830          0.0000          0.1098          0.0830          0.0000          1.0000          0.2264          0.1842
      3437.8000          0.0917          0.0000          0.1521          0.0917          0.0000          1.0000          0.1866          0.1881
      3437.9000          0.1003          0.0000          0.2366          0.1003          1.0000          1.0000          0.1723          0.1739
      3438.0000          0.1079          0.0000          0.3475          0.1079          1.0000          1.0000          0.1583          0.1623
      3438.1000          0.1132          0.0000          0.3778          0.1132          1.0000          1.0000          0.1152          0.1806
      3438.2000          0.1139          0.0000          0.3400          0.1139          1.0000          1.0000          0.0896          0.2000
      3438.3000          0.1093          0.0000          0.2932          0.1093          1.0000          1.0000          0.1117          0.1951
      3438.4000          0.1013          0.0000          0.1855          0.1013          1.0000          1.0000          0.1170          0.2149
      3438.5000          0.0945          0.0000          0.1082          0.0945          0.0000          1.0000          0.0958          0.2536
      3438.6000          0.0918          0.0000          0.0901          0.0918          0.0000          1.0000          0.0932          0.2642
      3438.7000          0.0919          0.0000          0.0909          0.0919          0.0000          1.0000          0.0941          0.2632
      3438.8000          0.0911          0.0000          0.0897          0.0911          0.0000          1.0000          0.0989          0.2610
      3438.9000          0.0869          0.0000          0.0778          0.0869          0.0000          1.0000          0.1181          0.2570
