~Version Information
VERS.                     2.0: CWLS log ASCII Standard Version 2.00
WRAP.                      NO: One line per depth step

~Well Information Block
#MNEM.UNIT                 Value                       Information
#------------              -----                       -----------
STRT.M                   3271.0000                    :START
STOP.M                   3631.9000                    :STOP
STEP.M                      0.1000                    :STEP
NULL.                     -999.25                     :NULL VALUE
COMP.         Statoil Petroleum                       :Company
WELL.         15/9-F-1                                :Well
FLD .         VOLVE                                   :Field
LOC .         Maersk Inspirer                         :Location
PROV.                                                 :Province
CNTY.                                                 :County
STATE.                                                 :State
CTRY.                                                 :Country
DATE.                                                 :Log Date
SRVC.                                                 :Service Company
UWI .                                                 :Unique Well Identifier
API .                                                 :API Number
LATI.         058 26' 29.907" N    DMS                :Latitude
LONG.         001 53' 14.708" E    DMS                :Longtitude
PD  .         MSL                                     :Permanent Datum
ELZ .M                 0.0000                         :Elev. Log Zero

~Curve Information
#MNEM   .UNIT             API CODE Curve Description
#------------             -------- -----------------
DEPTH   .M            00 001 00 00:   0  Depth
BVW     .V/V          00 000 00 00:   1  Bound Volume Water
COAL_FLAG.unitless    00 000 00 00:   2  Coal Flag
KLOGH   .MD           00 000 00 00:   3  Calculated Horizontal PERMEABILITY from logs
PHIF    .V/V          00 000 00 00:   4  Final porosity
SAND_FLAG.unitless    00 000 00 00:   5  Sand Flag
SW      .V/V          00 000 00 00:   6  Water Saturation (Archie)
VCARB   .V/V          00 000 00 00:   7  Volume of calcite; dolomite and siderite from log analysis; repo
VSH     .V/V          00 000 00 00:   8  (GR-15)/(250-15)

~Parameter Information
#MNEM.UNIT       Value           Description
#------------    -----           -----------
HLD .         Terms and Conditions.:Header Legal Disclaimer
RUN .         1                 :Run number

~Other Information
PETROPHYSICAL INTERPRETATION: OUTPUT

# --- LOG MNEMONICS AND UNITS ---
#Depth          BVW             COAL_FLAG       KLOGH           PHIF            SAND_FLAG       SW              VCARB           VSH            
#M              V/V             unitless        MD              V/V             unitless        V/V             V/V             V/V            

~A
# ...
      3472.6000          0.1142          0.0000          1.9010          0.1631          1.0000          0.7001          0.0000          0.2361
      3472.7000          0.1162          0.0000          2.2453          0.1652          1.0000          0.7036          0.0000          0.2244
      3472.8000          0.1150          0.0000          2.5481          0.1649          1.0000          0.6975          0.0000          0.2041
      3472.9000          0.1151          0.0000          2.6179          0.1613          1.0000          0.7138          0.0000          0.1793
      3473.0000          0.1140          0.0000          2.2182          0.1546          1.0000          0.7373          0.0000          0.1646
      3473.1000          0.1129          0.0000          1.6431          0.1473          1.0000          0.7663          0.0100          0.1659
      3473.2000          0.1118          0.0000          1.2247          0.1412          1.0000          0.7917          0.0237          0.1730
      3473.3000          0.1108          0.0000          1.0017          0.1365          1.0000          0.8120          0.0381          0.1748
      3473.4000          0.1108          0.0000          0.9536          0.1335          1.0000          0.8300          0.0602          0.1645
      3473.5000          0.1136          0.0000          0.8678          0.1321          1.0000          0.8599          0.0592          0.1699
      3473.6000          0.1169          0.0000          0.8891          0.1319          1.0000          0.8867          0.0654          0.1651
      3473.7000          0.1192          0.0000          0.8107          0.1315          1.0000          0.9063          0.0536          0.1766
      3473.8000          0.1237          0.0000          0.7939          0.1310          1.0000          0.9441          0.0551          0.1768
      3473.9000          0.1320          0.0000          0.7975          0.1320          1.0000          1.0000          0.0466          0.1815
      3474.0000          0.1352          0.0000          0.8691          0.1352          1.0000          1.0000          0.0282          0.1881
      3474.1000          0.1393          0.0000          0.8736          0.1393          1.0000          1.0000          0.0000          0.2111
      3474.2000          0.1410          0.0000          0.8521          0.1410          1.0000          1.0000          0.0000          0.2242
      3474.3000          0.1390          0.0000          0.6104          0.1390          1.0000          1.0000          0.0000          0.2608
      3474.4000          0.1352          0.0000          0.4070          0.1352          1.0000          1.0000          0.0000          0.2976
      3474.5000          0.1319          0.0000          0.2408          0.1319          1.0000          1.0000          0.0000          0.3545
      3474.6000          0.1294          0.0000          0.1329          0.1294          1.0000          1.0000          0.0000          0.4261
      3474.7000          0.1270          0.0000          0.0905          0.1270          1.0000          1.0000          0.0000          0.4680
      3474.8000          0.1237          0.0000          0.0724          0.1237          1.0000          1.0000          0.0000          0.4807
      3474.9000          0.1171          0.0000          0.0593          0.1171          1.0000          1.0000          0.0000          0.4715
      3475.0000          0.1054          0.0000          0.0409          0.1054          1.0000          1.0000          0.0000          0.4572
      3475.1000          0.0899          0.0000          0.0275          0.0899          0.0000          1.0000          0.0000          0.4251
      3475.2000          0.0777          0.0000          0.0233          0.0777          0.0000          1.0000          0.0240          0.3783
      3475.3000          0.0763          0.0000          0.0317          0.0763          0.0000          1.0000          0.0781          0.3254
      3475.4000          0.0884          0.0000          0.0591          0.0884          0.0000          1.0000          0.0604          0.3055
      3475.5000          0.1100          0.0000          0.1584          0.1100          1.0000          1.0000          0.0107          0.2881
      3475.6000          0.1319          0.0000          0.3708          0.1319          1.0000          1.0000          0.0000          0.2917
      3475.7000          0.1480          0.0000          0.6760          0.1480          1.0000          1.0000          0.0000          0.2986
      3475.8000          0.1469          0.0000          0.8674          0.1570          1.0000          0.9351          0.0000          0.3148
      3475.9000          0.1472          0.0000          0.8756          0.1581          1.0000          0.9311          0.0000          0.3198
      3476.0000          0.1484          0.0000          0.5765          0.1505          1.0000          0.9862          0.0000          0.3359
      3476.1000          0.1346          0.0000          0.2894          0.1346          1.0000          1.0000          0.0000          0.3438
      3476.2000          0.1152          0.0000          0.1315          0.1152          1.0000          1.0000          0.0000          0.3455
      3476.3000          0.0991          0.0000          0.0736          0.0991          0.0000          1.0000          0.0002          0.3360
      3476.4000          0.0919          0.0000          0.0646          0.0919          0.0000          1.0000          0.0421          0.3131
      3476.5000          0.0915          0.0000          0.0674          0.0915          0.0000          1.0000          0.0521          0.3043
      3476.6000          0.0897          0.0000          0.0858          0.0897          0.0000          1.0000          0.1058          0.2593
      3476.7000          0.0819          0.0000          0.0834          0.0819          0.0000          1.0000          0.1849          0.2178
      3476.8000          0.0728          0.0000          0.0609          0.0728          0.0000          1.0000          0.2293          0.2107
      3476.9000          0.0689          0.0000          0.0510          0.0689          0.0000          1.0000          0.2403          0.2137
      3477.0000          0.0699          0.0000          0.0463          0.0699          0.0000          1.0000          0.2092          0.2335
      3477.1000          0.0714          0.0000          0.0323          0.0714          0.0000          1.0000          0.1281          0.2941
      3477.2000          0.0719          0.0000          0.0135          0.0719          0.0000          1.0000          0.0026          0.4236
      3477.3000          0.0759          0.0000          0.0073          0.0759          0.0000          1.0000          0.0000          0.5363
      3477.4000          0.0888          0.0000          0.0156          0.0888          0.0000          1.0000          0.0000          0.5010
      3477.5000          0.1087          0.0000          0.0797          0.1087          1.0000          1.0000          0.0000          0.3799
      3477.6000          0.1283          0.0000          0.2863          0.1283          1.0000          1.0000          0.0000          0.3083
      3477.7000          0.1404          0.0000          0.6435          0.1404          1.0000          1.0000          0.0000          0.2617
      3477.8000          0.1404          0.0000          0.8442          0.1404          1.0000          1.0000          0.0000          0.2221
      3477.9000          0.1281          0.0000          0.6624          0.1281          1.0000          1.0000          0.0549          0.1862
      3478.0000          0.1111          0.0000          0.3793          0.1111          1.0000          1.0000          0.1382          0.1683
      3478.1000          0.0994          0.0000          0.2469          0.0994          0.0000          1.0000          0.1915          0.1624
