~Version Information
VERS.                     2.0: CWLS log ASCII Standard Version 2.00
WRAP.                      NO: One line per depth step

~Well Information Block
#MNEM       .UNIT          Value                       Information
#-------------------------------------------------------------------------
STRT        .M             3102.102                    :START
STOP        .M             3505.8096                   :STOP
STEP        .M             0.1524                      :STEP
NULL        .              -999.25                     :NULL VALUE
COMP        .              STATOILHYDRO                :COMPANY
WELL        .              15/9-F-12                   :WELL
FLD         .              VOLVE                       :FIELD
LOC         .              UNKNOWN                     :LOCATION
CNTY        .              UNKNOWN                     :COUNTY
STAT        .              UNKNOWN                     :STATE
CTRY        .              Norway                      :COUNTRY
SRVC        .              UNKNOWN                     :SERVICE COMPANY
DATE        .              UNKNOWN                     :LOG DATE
UWI         .              NO 15/9-F-12                :UNIQUE WELL ID
XCOORD      .              435050.170000               :SURFACE X
YCOORD      .              6478574.700000              :SURFACE Y
LAT         .              58.441713                   :LATITUDE
LON         .              1.887480                    :LONGITUDE
ELEV        .M             54.9000                     :SURFACE ELEV
ELEV_TYPE   .              KB                          :ELEV TYPE

~Curve Information
#MNEM       .UNIT             API CODE : Curve Description
#-------------------------------------------------------------------------
DEPTH       .M                UNKNOWN  : Measured Dept
BVW         .v/v_decimal      UNKNOWN  : BVW:UNKNOWN:rC:NONE:v1
KLOGH       .mD               UNKNOWN  : KLOGH:UNKNOWN:rC:NONE:v1
PHIF        .v/v_decimal      UNKNOWN  : PHIF:UNKNOWN:rC:NONE:v1
SW          .v/v_decimal      UNKNOWN  : SW:UNKNOWN:rC:NONE:v1
VSH         .v/v_decimal      UNKNOWN  : VSH:UNKNOWN:rC:NONE:v1
# --- LOG MNEMONICS AND UNITS ---
#Depth     BVW        KLOGH      PHIF       SW         VSH       
#M         v/v_decima mD         v/v_decima v/v_decima v/v_decima
~A
# ...
  3380.994 0.11159999 0.05970000 0.15320000 0.72890001 0.67960000
 3381.1464 0.10459999 0.06759999 0.14810000 0.70599997 0.63230001
 3381.2988 0.09860000 0.07509999 0.14249999 0.69160002 0.58480000
 3381.4512 0.09350000 0.08330000 0.13689999 0.68279999 0.53719997
 3381.6036 0.05649999 0.08280000 0.13760000 0.41089999 0.54229998
  3381.756 0.04100000 0.07810000 0.14129999 0.28999999 0.57200002
 3381.9084 0.03379999 0.07360000 0.14499999 0.23299999 0.60180002
 3382.0608 0.03099999 0.06360000 0.14740000 0.21029999 0.63700002
 3382.2132 0.03109999 0.04820000 0.14790000 0.21040000 0.68029999
 3382.3656 0.03130000 0.03660000 0.14849999 0.21050000 0.72359997
  3382.518 0.03189999 0.02960000 0.14949999 0.21340000 0.75980001
 3382.6704 0.03770000 0.03909999 0.15360000 0.24539999 0.74320000
 3382.8228 0.04859999 0.05180000 0.15770000 0.30799999 0.72659999
 3382.9752 0.08429999 0.06849999 0.16179999 0.52090001 0.70999997
 3383.1276 0.10949999 0.07880000 0.16410000 0.66740000 0.70289999
   3383.28 0.11909999 0.08820000 0.16599999 0.71719998 0.69770002
 3383.4324 0.13169999 0.09870000 0.16789999 0.78409999 0.69249999
 3383.5848 0.14169999 0.11190000 0.16869999 0.83990001 0.67919999
 3383.7372 0.14769999 0.12800000 0.16869999 0.87550002 0.65950000
 3383.8896 0.15449999 0.14640000 0.16869999 0.91600000 0.63969999
  3384.042 0.15919999 0.14499999 0.16730000 0.95179998 0.63309997
 3384.1944 0.15620000 0.09830000 0.16230000 0.96259999 0.66070002
 3384.3468 0.15340000 0.06660000 0.15739999 0.97509998 0.68830001
 3384.4992 0.15080000 0.04509999 0.15240000 0.98940002 0.71590000
 3384.6516 0.14920000 0.04690000 0.15379999 0.97009998 0.71810001
  3384.804 0.12020000 0.01209999 0.12020000          1 0.72020000
 3384.9564 0.12020000 0.01190000 0.12020000          1 0.72229999
 3385.1088 0.13089999 0.01999999 0.13089999          1 0.70920002
 3385.2612 0.13689999 0.13910000 0.17610000 0.77770000 0.69010001
 3385.4136 0.13249999 0.24789999 0.18719999 0.70789998 0.67089998
  3385.566 0.12980000 0.43250000 0.19380000 0.66970002 0.62879997
 3385.7184 0.12890000 0.73369997 0.19460000 0.66259998 0.55659997
 3385.8708 0.12800000 1.24469995 0.19529999 0.65560001 0.48449999
 3386.0232 0.12829999 2.13599991 0.19650000 0.65289998 0.41330000
 3386.1756 0.13529999 3.90580010 0.20020000 0.67580002 0.34709998
  3386.328 0.14350000 7.14209985 0.20379999 0.70420002 0.28090000
 3386.4804 0.15350000 13.0598001 0.20749999 0.73989999 0.21480000
 3386.6328 0.15770000 13.0514001 0.20759999 0.75950002 0.21570000
 3386.7852 0.16099999 11.9302997 0.20720000 0.77679997 0.22650000
 3386.9376 0.16449999 10.9054002 0.20690000 0.79519999 0.23729999
   3387.09 0.16709999 11.6184997 0.20749999 0.80529999 0.23190000
 3387.2424 0.16910000 13.7650003 0.20890000 0.80940002 0.21529999
 3387.3948 0.17110000 16.3080005 0.21029999 0.81370002 0.19869999
 3387.5472 0.17200000 18.2481002 0.21080000 0.81580001 0.18559999
 3387.6996 0.17030000 17.9776992 0.20960000     0.8125 0.18050000
  3387.852 0.16859999 17.7113990 0.20829999 0.80940002 0.17540000
 3388.0044 0.16699999 17.3722991 0.20700000 0.80669999 0.17059999
 3388.1568 0.16539999 14.6920003 0.20430000 0.80970001 0.17910000
 3388.3092 0.16390000 12.4252996 0.20160000 0.81300002 0.18760000
 3388.4616 0.16220000 2.68339991 0.16480000 0.98460000 0.19609999
  3388.614 0.16040000 2.36159992 0.16269999 0.98570001 0.20250000
 3388.7664 0.15860000 8.25339984 0.19490000 0.81360000 0.20819999
 3388.9188 0.15670000 7.36399984 0.19300000 0.81180000 0.21389999
 3389.0712 0.15489999 7.31239986 0.19310000 0.80229997 0.21500000
 3389.2236 0.15320000 8.20349979 0.19519999 0.78450000 0.21099999
  3389.376 0.15150000 9.20320034 0.19740000 0.76740002 0.20690000
 3389.5284 0.14990000 9.68260002 0.19879999 0.75379997 0.20769999
 3389.6808 0.14830000 7.69610023 0.19689999 0.75319999 0.22980000
 3389.8332 0.14669999 6.11709976 0.19490000 0.75269997 0.25180000
 3389.9856 0.14530000 4.86210012 0.19300000 0.75260001 0.27390000
  3390.138 0.14419999 5.22499990 0.19519999 0.73860001 0.27630001
 3390.2904 0.14319999 5.79449987 0.19789999 0.72369998 0.27669999
 3390.4428 0.14219999 6.42619991 0.20049999 0.70920002 0.27709999
 3390.5952 0.14069999 6.79699993 0.20100000 0.69989997 0.27160000
 3390.7476 0.13879999 6.98759984 0.20010000 0.69370001 0.26249998
    3390.9 0.13699999 7.18359994 0.19920000 0.68769997 0.25350001
 3391.0524 0.13549999 7.05579996 0.19859999 0.68220001 0.25240001
 3391.2048 0.13429999 6.35279989 0.19840000 0.67699998 0.26649999
 3391.3572 0.13320000 5.71969985 0.19820000 0.67189997 0.28060001
 3391.5096 0.13210000 5.06969976 0.19789999 0.66720002 0.29640001
  3391.662 0.13099999 3.55909991 0.19650000 0.66659998 0.33930000
 3391.8144 0.12989999 2.49860000 0.19509999 0.66610002 0.38220000
 3391.9668 0.12890000 1.75409996 0.19359999 0.66570001 0.42509999
 3392.1192 0.13099999 1.61269998 0.19269999 0.67970001 0.43189999
 3392.2716 0.13410000 1.59850001 0.19200000 0.69889998 0.42879998
  3392.424 0.13750000 1.58440005 0.19120000 0.71939998 0.42559999
 3392.5764 0.14049999 1.67120003 0.19220000 0.73059999 0.42399999
 3392.7288 0.14280000 1.87539994 0.19509999 0.73170000 0.42399999
 3392.8812 0.14519999 2.10450005 0.19799999 0.73339998 0.42399999
 3393.0336 0.14699999 2.27999997 0.19820000 0.74150002 0.41350001
  3393.186 0.14589999 2.18129992 0.18889999 0.77219998 0.36610001
 3393.3384 0.14480000 2.08699989 0.17960000 0.80610001 0.31859999
 3393.4908 0.14370000 1.99670004 0.17030000 0.84380000 0.27110001
 3393.6432 0.14329999 2.17810010 0.17030000 0.84160000 0.25810000
 3393.7956 0.14290000 2.39610004 0.17080000 0.83670002 0.24740000
  3393.948 0.14249999 2.63579988 0.17129999 0.83179998 0.23659999
 3394.1004 0.14300000 2.95980000 0.17110000 0.83579999 0.21860000
 3394.2528 0.14399999 3.35899996 0.17049999 0.84460002 0.19679999
 3394.4052 0.14499999 3.81209993 0.16990000 0.85360002 0.17499999
 3394.5576 0.14519999 3.89310002 0.16779999 0.86510002 0.15999999
   3394.71 0.14390000 3.34209990 0.16339999 0.88099998 0.15629999
 3394.8624 0.14270000 2.86899995 0.15889999 0.89810001 0.15250000
 3395.0148 0.14159999 2.55439996 0.15530000 0.91210001 0.14800000
 3395.1672 0.14120000 3.19219994 0.15899999 0.88830000 0.13750000
 3395.3196 0.14090000 3.98939990 0.16269999 0.86559998 0.12690000
  3395.472 0.14049999 4.98559999 0.16650000 0.84399998 0.11630000
 3395.6244 0.14219999 6.25540018 0.17159999 0.82859998 0.11309999
 3395.7768 0.14440000 7.85540008 0.17700000 0.81580001 0.11150000
 3395.9292 0.14669999 9.86480045 0.18240000 0.80440002 0.10989999
 3396.0816 0.14830000 10.5216999 0.18449999 0.80379998 0.11289999
  3396.234 0.14920000 9.73970031 0.18379999 0.81190001 0.11969999
 3396.3864 0.15009999 9.01589965 0.18299999 0.82010000 0.12659999
 3396.5388 0.14669999 7.73979997 0.18009999 0.81489998 0.13150000
 3396.6912 0.13349999 5.32840013 0.17059999 0.78240001 0.13070000
 3396.8436 0.12319999 0.92299997 0.12669999 0.97189998 0.12989999
  3396.996 0.11500000 0.58179998 0.11509999 0.99930000 0.12909999
 3397.1484 0.10520000 0.47909998 0.10989999 0.95759999 0.12720000
 3397.3008 0.09769999 1.54739999 0.13879999 0.70359998 0.12530000
 3397.4532 0.09149999 1.21329998 0.13240000 0.69069999 0.12340000
 3397.6056 0.08359999 0.91540002 0.12639999 0.66200000 0.12899999
  3397.758 0.07649999 0.15929999 0.08429999 0.90839999 0.13799999
 3397.9104 0.07109999 0.10719999 0.07590000 0.93589997 0.14699999
 3398.0628 0.06909999 0.08550000 0.07100000 0.97269999 0.15139999
 3398.2152 0.07100000 0.08669999 0.07100000          1 0.14939999
 3398.3676 0.07100000 0.08789999 0.07100000          1 0.14740000
   3398.52 0.07190000 0.09449999 0.07190000          1 0.14200000
 3398.6724 0.07859999 0.14900000 0.07859999          1 0.11469999
 3398.8248 0.08519999 0.23489999 0.08519999          1 0.08739999
 3398.9772 0.09189999 0.37049999 0.09189999          1 0.06010000
 3399.1296 0.08579999 0.27829998 0.08579999          1 0.06620000
  3399.282 0.07750000 0.18340000 0.07750000          1 0.07829999
 3399.4344 0.06920000 0.12089999 0.06920000          1 0.09030000
