~Version Information
VERS.                     2.0: CWLS log ASCII Standard Version 2.00
WRAP.                      NO: One line per depth step

~Well Information Block
#MNEM.UNIT                 Value                       Information
#------------              -----                       -----------
STRT.M                   3204.0000                    :START
STOP.M                   3464.9000                    :STOP
STEP.M                      0.1000                    :STEP
NULL.                     -999.25                     :NULL VALUE
COMP.         Statoil Petroleum                       :Company
WELL.         15/9-F-1 B                              :Well
FLD .         VOLVE                                   :Field
LOC .         Maersk Inspirer                         :Location
PROV.                                                 :Province
CNTY.                                                 :County
STATE.                                                 :State
CTRY.                                                 :Country
DATE.                                                 :Log Date
SRVC.                                                 :Service Company
UWI .                                                 :Unique Well Identifier
API .                                                 :API Number
LATI.         058 26' 29.907" N    DMS                :Latitude
LONG.         001 53' 14.708" E    DMS                :Longtitude
PD  .         MSL                                     :Permanent Datum
ELZ .M                 0.0000                         :Elev. Log Zero

~Curve Information
#MNEM   .UNIT             API CODE Curve Description
#------------             -------- -----------------
DEPTH   .M            00 001 00 00:   0  Depth
BVW     .V/V          00 000 00 00:   1  Bulk Volume Water
CARB_FLAG.V/V         00 000 00 00:   2  Carbonate Flag
COAL_FLAG.UNITLESS    00 000 00 00:   3  Coal flag
KLOGH   .mD           00 000 00 00:   4  Calculated Horizontal PERMEABILITY from logs
PHIF    .V/V          00 000 00 00:   5  Final Porosity
SAND_FLAG.UNITLESS    00 000 00 00:   6  Sand Flag
SW      .V/V          00 000 00 00:   7  Water Saturation
VCARB   .V/V          00 000 00 00:   8  VCARB
VSH     .V/V          00 000 00 00:   9  Volume of Shale

~Parameter Information
#MNEM.UNIT       Value           Description
#------------    -----           -----------
HLD .         Terms and Conditions.:Header Legal Disclaimer
RUN .         1                 :Run number

~Other Information
PETROPHYSICAL INTERPRETATION: OUTPUT

# --- LOG MNEMONICS AND UNITS ---
#Depth          BVW             CARB_FLAG       COAL_FLAG       KLOGH           PHIF            SAND_FLAG       SW              VCARB           VSH            
#M              V/V             V/V             UNITLESS        mD              V/V             UNITLESS        V/V             V/V             V/V            

~A
# ...
      3229.0000         -999.25          0.0000          0.0000         -999.25         -999.25         -999.25         -999.25         -999.25          0.7980
      3229.1000         -999.25          0.0000          0.0000         -999.25         -999.25         -999.25         -999.25         -999.25          0.7953
      3229.2000         -999.25          0.0000          0.0000         -999.25         -999.25         -999.25         -999.25         -999.25          0.7827
      3229.3000         -999.25          0.0000          0.0000         -999.25         -999.25         -999.25         -999.25         -999.25          0.7736
      3229.4000          0.0877          0.0000          0.0000          0.0010          0.0877          0.0000          1.0000          0.0000          0.7561
      3229.5000          0.0804          0.0000          0.0000          0.0010          0.0804          0.0000          1.0000          0.0000          0.7423
      3229.6000          0.0707          0.0000          0.0000          0.0010          0.0707          0.0000          1.0000          0.0000          0.7435
      3229.7000          0.0613          0.0000          0.0000          0.0010          0.0613          0.0000          1.0000          0.0000          0.7422
      3229.8000          0.0555          0.0000          0.0000          0.0010          0.0555          0.0000          1.0000          0.0000          0.7340
      3229.9000          0.0551          0.0000          0.0000          0.0010          0.0551          0.0000          1.0000          0.0000          0.7292
      3230.0000          0.0589          0.0000          0.0000          0.0010          0.0589          0.0000          1.0000          0.0000          0.7095
      3230.1000          0.0634          0.0000          0.0000          0.0010          0.0634          0.0000          1.0000          0.0000          0.6962
      3230.2000          0.0659          0.0000          0.0000          0.0010          0.0659          0.0000          1.0000          0.0000          0.6856
      3230.3000          0.0669          0.0000          0.0000          0.0010          0.0669          0.0000          1.0000          0.0000          0.6844
      3230.4000          0.0686          0.0000          0.0000          0.0010          0.0686          0.0000          1.0000          0.0000          0.7126
      3230.5000          0.0722          0.0000          0.0000          0.0010          0.0722          0.0000          1.0000          0.0000          0.7119
      3230.6000          0.0757          0.0000          0.0000          0.0010          0.0757          0.0000          1.0000          0.0000          0.7330
      3230.7000          0.0768          0.0000          0.0000          0.0010          0.0768          0.0000          1.0000          0.0000          0.7367
      3230.8000          0.0756          0.0000          0.0000          0.0010          0.0756          0.0000          1.0000          0.0000          0.7479
      3230.9000          0.0738          0.0000          0.0000          0.0010          0.0738          0.0000          1.0000          0.0000          0.7577
      3231.0000          0.0727          0.0000          0.0000          0.0010          0.0727          0.0000          1.0000          0.0000          0.7899
      3231.1000          0.0729          0.0000          0.0000          0.0010          0.0729          0.0000          1.0000          0.0000          0.8017
      3231.2000          0.0735          0.0000          0.0000          0.0010          0.0735          0.0000          1.0000          0.0000          0.8061
      3231.3000          0.0737          0.0000          0.0000          0.0010          0.0737          0.0000          1.0000          0.0000          0.7952
      3231.4000          0.0730          0.0000          0.0000          0.0010          0.0730          0.0000          1.0000          0.0000          0.7934
      3231.5000          0.0719          0.0000          0.0000          0.0010          0.0719          0.0000          1.0000          0.0000          0.7866
      3231.6000          0.0722          0.0000          0.0000          0.0010          0.0722          0.0000          1.0000          0.0000          0.7865
      3231.7000          0.0722          0.0000          0.0000          0.0010          0.0722          0.0000          1.0000          0.0000          0.7703
      3231.8000          0.0666          0.0000          0.0000          0.0010          0.0666          0.0000          1.0000          0.0000          0.7881
      3231.9000          0.0533          0.0000          0.0000          0.0010          0.0533          0.0000          1.0000          0.0000          0.7764
      3232.0000          0.0383          0.0000          0.0000          0.0010          0.0383          0.0000          1.0000          0.0000          0.7574
      3232.1000          0.0338          0.0000          0.0000          0.0010          0.0338          0.0000          1.0000          0.0000          0.7530
      3232.2000          0.0446          0.0000          0.0000          0.0010          0.0446          0.0000          1.0000          0.0000          0.7306
      3232.3000          0.0633          0.0000          0.0000          0.0010          0.0633          0.0000          1.0000          0.0000          0.7422
      3232.4000          0.0773          0.0000          0.0000          0.0010          0.0773          0.0000          1.0000          0.0000          0.7398
      3232.5000          0.0784          0.0000          0.0000          0.0010          0.0784          0.0000          1.0000          0.0000          0.7381
      3232.6000          0.0678          0.0000          0.0000          0.0010          0.0678          0.0000          1.0000          0.0000          0.7417
      3232.7000          0.0524          0.0000          0.0000          0.0010          0.0524          0.0000          1.0000          0.0000          0.7345
      3232.8000          0.0407          0.0000          0.0000          0.0010          0.0407          0.0000          1.0000          0.0000          0.6993
      3232.9000          0.0396          0.0000          0.0000          0.0010          0.0396          0.0000          1.0000          0.0000          0.6843
      3233.0000          0.0500          0.0000          0.0000          0.0010          0.0500          0.0000          1.0000          0.0000          0.7034
      3233.1000          0.0657          0.0000          0.0000          0.0010          0.0657          0.0000          1.0000          0.0000          0.7257
      3233.2000          0.0793          0.0000          0.0000          0.0010          0.0793          0.0000          1.0000          0.0000          0.7477
      3233.3000          0.0874          0.0000          0.0000          0.0010          0.0874          0.0000          1.0000          0.0000          0.7700
      3233.4000          0.0905          0.0000          0.0000          0.0010          0.0905          0.0000          1.0000          0.0000          0.7521
      3233.5000          0.0903          0.0000          0.0000          0.0010          0.0903          0.0000          1.0000          0.0000          0.7705
      3233.6000          0.0883          0.0000          0.0000          0.0010          0.0883          0.0000          1.0000          0.0000          0.7927
      3233.7000          0.0861          0.0000          0.0000          0.0010          0.0861          0.0000          1.0000          0.0000          0.8183
      3233.8000          0.0860          0.0000          0.0000          0.0010          0.0860          0.0000          1.0000          0.0000          0.8194
      3233.9000          0.0881          0.0000          0.0000          0.0010          0.0881          0.0000          1.0000          0.0000          0.8009
