~Version Information
VERS.                     2.0: CWLS log ASCII Standard Version 2.00
WRAP.                      NO: One line per depth step

~Well Information Block
#MNEM.UNIT                 Value                       Information
#------------              -----                       -----------
STRT.M                     188.500                    :START
STOP.M                     346.700                    :STOP
STEP.M                       0.100                    :STEP
NULL.                     -999.25                     :NULL VALUE
COMP.         STATOIL PETRPOLEUM AS                   :Company
WELL.         15/9-F-11                               :Well
FLD .         VOLVE                                   :Field
LOC .         Maersk Inspirer                         :Location
PROV.                                                 :Province
CNTY.                                                 :County
STATE.                                                 :State
CTRY.         Norway                                  :Country
DATE.                                                 :Log Date
SRVC.                                                 :Service Company
UWI .                                                 :Unique Well Identifier
API .                                                 :API Number
LATI.         058 26' 29.960" N    DMS                :Latitude
LONG.         001 53' 14.870" E    DMS                :Longtitude
PD  .         MSL                                     :Permanent Datum
EDF .M            54.900                              :Elevations D.F.
EGL .M           -91.000                              :Elevations G.L.
WD  .M           -91.000                              :Water Depth
ELZ .M            54.900                              :Elev. Log Zero

~Curve Information
#MNEM   .UNIT             API CODE Curve Description
#------------             -------- -----------------
DEPTH   .M            00 001 00 00:   0  Depth
BS      .inches       00 000 00 00:   1  BS:COMPOSITE:rC:NONE:v1
GR      .API          30 150 01 01:   2  GR:COMPOSITE:rC:NONE:v1
RACEHM  .ohm.m        95 220 00 01:   3  RACEHM:COMPOSITE:rC:NONE:v1
RACELM  .ohm.m        00 524 01 00:   4  RACELM:COMPOSITE:rC:NONE:v1
RD      .ohm.m        00 000 00 00:   5  RD:COMPOSITE:rC:NONE:v1
RM      .ohm.m        00 000 00 00:   6  RM:COMPOSITE:rC:NONE:v1
ROP     .m/hr         00 000 00 00:   7  ROP:COMPOSITE:rC:NONE:v1
RPCEHM  .ohm.m        00 000 00 00:   8  RPCEHM:COMPOSITE:rC:NONE:v1
RPCELM  .ohm.m        00 000 00 00:   9  RPCELM:COMPOSITE:rC:NONE:v1
RT      .ohm.m        00 000 00 00:  10  RT:COMPOSITE:rC:NONE:v1

~Parameter Information
#MNEM.UNIT       Value           Description
#------------    -----           -----------
RUN .         1                 :Run number

~Other Information
PETROPHYSICAL INTERPRETATION: INPUT

# --- LOG MNEMONICS AND UNITS ---
#Depth     BS         GR         RACEHM     RACELM     RD         RM         ROP        RPCEHM     RPCELM     RT        
#M         inches     API        ohm.m      ohm.m      ohm.m      ohm.m      m/hr       ohm.m      ohm.m      ohm.m     

~A
# ...
   242.100     26.000     18.500      1.314      1.441      1.344      1.855      8.893      1.855      1.344      1.855
   242.200     26.000     17.300      1.250      1.468      1.508      2.321      8.920      2.321      1.508      2.321
   242.300     26.000     16.700      1.178      1.442      1.401      2.192      8.946      2.192      1.401      2.192
   242.400     26.000     16.400      1.095      1.335      1.431      1.941      8.973      1.941      1.431      1.941
   242.500     26.000     15.500      1.088      1.415      1.267      1.776      9.104      1.776      1.267      1.776
   242.600     26.000     14.000      1.041      1.341      1.285      1.622      9.236      1.622      1.285      1.622
   242.700     26.000     13.600      1.002      1.350      1.325      1.821      9.367      1.821      1.325      1.821
   242.800     26.000     14.000      1.050      1.330      1.309      2.170      9.816      2.170      1.309      2.170
   242.900     26.000     13.600      0.929      1.338      1.274      2.283     10.265      2.283      1.274      2.283
   243.000     26.000     13.500      0.958      1.279      1.200      2.393     10.714      2.393      1.200      2.393
   243.100     26.000     13.100      0.876      1.312      1.230      1.598     11.164      1.598      1.230      1.598
   243.200     26.000     12.100      0.888      1.291      1.120      1.633     11.613      1.633      1.120      1.633
   243.300     26.000     11.700      0.892      1.325      1.124      1.053     12.063      1.053      1.124      1.053
   243.400     26.000     10.000      0.837      1.274      1.130      1.314     12.395      1.314      1.130      1.314
   243.500     26.000     10.300      0.822      1.241      1.116      1.201     12.727      1.201      1.116      1.201
   243.600     26.000     11.100      0.805      1.279      1.015      1.180     13.060      1.180      1.015      1.180
   243.700     26.000     11.900      0.792      1.264      0.987      1.090     13.376      1.090      0.987      1.090
   243.800     26.000     12.900      0.781      1.272      0.949      1.072     13.692      1.072      0.949      1.072
   243.900     26.000     12.700      0.786      1.264      0.973      0.980     14.008      0.980      0.973      0.980
   244.000     26.000     12.400      0.811      1.252      0.953      1.070     13.770      1.070      0.953      1.070
   244.100     26.000     13.000      0.816      1.250      0.902      0.956     13.533      0.956      0.902      0.956
   244.200     26.000     13.000      0.789      1.250      0.934      1.130     13.295      1.130      0.934      1.130
   244.300     26.000     13.800      0.818      1.233      0.905      0.819     12.879      0.819      0.905      0.819
   244.400     26.000     12.700      0.838      1.296      0.878      0.871     12.463      0.871      0.878      0.871
   244.500     26.000     12.500      0.837      1.290      0.901      0.832     12.047      0.832      0.901      0.832
   244.600     26.000     12.400      0.785      1.201      0.944      0.945     11.529      0.945      0.943      0.945
   244.700     26.000     12.300      0.796      1.194      0.956      0.802     11.011      0.802      0.956      0.802
   244.800     26.000     12.900      0.798      1.278      0.829      0.845     10.493      0.845      0.829      0.845
   244.900     26.000     12.800      0.818      1.240      0.860      0.852      9.973      0.852      0.860      0.852
   245.000     26.000     11.700      0.894      1.245      0.871      0.649      9.452      0.649      0.871      0.649
   245.100     26.000     12.000      0.875      1.207      0.878      0.716      8.931      0.716      0.878      0.716
   245.200     26.000     12.700      0.973      1.255      0.854      0.647      8.750      0.647      0.854      0.647
   245.300     26.000     12.100      0.961      1.249      0.842      0.580      8.569      0.580      0.842      0.580
   245.400     26.000     11.400      0.945      1.238      0.847      0.669      8.388      0.669      0.847      0.669
   245.500     26.000     11.500      0.980      1.253      0.819      0.585      8.343      0.585      0.819      0.585
   245.600     26.000     10.500      1.071      1.199      0.802      0.525      8.298      0.525      0.802      0.525
   245.700     26.000     10.300      0.823      1.175      0.778      0.717      8.253      0.717      0.778      0.717
   245.800     26.000     10.400      0.878      1.116      0.821      0.764      8.197      0.764      0.821      0.764
   245.900     26.000     11.900      0.796      1.089      0.795      0.656      8.140      0.656      0.795      0.656
   246.000     26.000     13.100      0.626      1.002      0.785      0.622      8.084      0.622      0.785      0.622
   246.100     26.000     12.700      0.661      1.031      0.701      0.856      8.030      0.856      0.701      0.856
   246.200     26.000     12.300      0.652      0.971      0.713      0.649      7.976      0.649      0.713      0.649
   246.300     26.000     12.100      0.661      0.997      0.650      0.803      7.922      0.803      0.650      0.803
   246.400     26.000     11.400      0.714      0.935      0.708      0.435      7.857      0.435      0.708      0.435
   246.500     26.000     10.900      0.667      0.909      0.748      0.650      7.793      0.650      0.748      0.650
   246.600     26.000     10.400      0.714      0.905      0.631      0.406      7.728      0.406      0.631      0.406
   246.700     26.000     11.300      0.754      0.997      0.585      0.629      7.741      0.629      0.585      0.629
   246.800     26.000     10.900      0.628      0.881      0.616      0.411      7.754      0.411      0.616      0.411
   246.900     26.000     10.500      0.722      0.895      0.557      0.398      7.766      0.398      0.557      0.398
   247.000     26.000     10.300      0.705      0.886      0.534      0.319      7.342      0.319      0.534      0.319
   247.100     26.000      9.700      0.722      0.863      0.502      0.278      6.918      0.278      0.502      0.278
   247.200     26.000      9.000      0.657      0.850      0.487      0.281      6.494      0.281      0.487      0.281
   247.300     26.000      8.500      0.549      0.786      0.465      0.342      6.579      0.342      0.465      0.342
   247.400     26.000      7.800      0.563      0.744      0.436      0.273      6.664      0.273      0.436      0.273
   247.500     26.000      7.500      0.475      0.738      0.432      0.229      6.749      0.229      0.432      0.229
   247.600     26.000      6.900      0.474      0.693      0.423      0.235      6.887      0.235      0.423      0.235
   247.700     26.000      6.200      0.477      0.617      0.489      0.340      7.025      0.340      0.489      0.340
   247.800     26.000      5.700      0.465      0.611      0.401      0.236      7.164      0.236      0.401      0.236
   247.900     26.000      5.300      0.353      0.575      0.373      0.213      7.440      0.213      0.373      0.213
   248.000     26.000      5.000      0.347      0.533      0.346      0.219      7.716      0.219      0.346      0.219
   248.100     26.000      4.400      0.378      0.488      0.369      0.344      7.993      0.344      0.369      0.344
   248.200     26.000      4.000      0.423      0.443      0.361      0.333      8.127      0.333      0.361      0.333
   248.300     26.000      3.500      0.388      0.430      0.346      0.309      8.261      0.309      0.346      0.309
   248.400     26.000      3.000      0.333      0.439      0.358      0.288      8.396      0.288      0.358      0.288
   248.500     26.000      2.900      0.345      0.383      0.295      0.292      8.416      0.292      0.295      0.292
   248.600     26.000      2.600      0.272      0.415      0.326      0.273      8.436      0.273      0.326      0.273
   248.700     26.000      2.200      0.308      0.390      0.314      0.264      8.457      0.264      0.314      0.264
