~Version Information
VERS.                     2.0: CWLS log ASCII Standard Version 2.00
WRAP.                      NO: One line per depth step

~Well Information Block
#MNEM.UNIT                 Value                       Information
#------------              -----                       -----------
STRT.M                   3465.0000                    :START
STOP.M                   4684.7000                    :STOP
STEP.M                      0.1000                    :STEP
NULL.                     -999.25                     :NULL VALUE
COMP.         STATOIL PETROLEUM AS                    :Company
WELL.         15/9-F-15 D                             :Well
FLD .         VOLVE                                   :Field
LOC .                                                 :Location
PROV.                                                 :Province
CNTY.         MAERSK INSPIRER                         :County
STATE.                                                 :State
CTRY.         NORWAY                                  :Country
DATE.                                                 :Log Date
SRVC.                                                 :Service Company
UWI .                                                 :Unique Well Identifier
API .                                                 :API Number
LATI.         058 26' 29.706" N    DMS                :Latitude
LONG.         001 53' 15.149" E    DMS                :Longtitude
PD  .         MSL                                     :Permanent Datum
EDF .M                54.9000                         :Elevations D.F.
EGL .M               -91.0000                         :Elevations G.L.
ELZ .M                54.9000                         :Elev. Log Zero
LMF .         DF                                      :Log Measured From
MP  .         DF                                      :Drill Measured From

~Curve Information
#MNEM   .UNIT             API CODE Curve Description
#------------             -------- -----------------
DEPTH   .M            00 001 00 00:   0  Depth
BVW     .v/v          00 000 00 00:   1  BVW:CPI:rC:0001:v1
COAL_FLAG.unitless    00 000 00 00:   2  COAL_FLAG:CPI:rC:0001:v1
KLOGH   .mD           00 000 00 00:   3  KLOGH:CPI:rC:0001:v1
PHIF    .v/v          00 000 00 00:   4  PHIF:CPI:rC:0001:v1
SAND_FLAG.unitless    00 000 00 00:   5  SAND_FLAG:CPI:rC:0001:v1
SW      .v/v          00 000 00 00:   6  SW:CPI:rC:0001:v1
VCARB   .v/v          00 000 00 00:   7  VCARB:CPI:rC:0001:v1
VSH     .v/v          00 000 00 00:   8  VSH:CPI:rC:0001:v1

~Parameter Information
#MNEM.UNIT       Value           Description
#------------    -----           -----------
RUN .         .                 :Run Number

~Other Information
PETROPHYSICAL INTERPRETATION: OUTPUT

# --- LOG MNEMONICS AND UNITS ---
#Depth          BVW             COAL_FLAG       KLOGH           PHIF            SAND_FLAG       SW              VCARB           VSH            
#M              v/v             unitless        mD              v/v             unitless        v/v             v/v             v/v            

~A
# ...
      3621.8000          0.0200          0.0000       2731.3853          0.2173          1.0000          0.0922          0.0000          0.0335
      3621.9000          0.0205          0.0000       2940.3369          0.2182          1.0000          0.0938          0.0000          0.0308
      3622.0000          0.0207          0.0000       2498.2727          0.2177          1.0000          0.0952          0.0000          0.0383
      3622.1000          0.0209          0.0000       2366.6353          0.2173          1.0000          0.0961          0.0000          0.0405
      3622.2000          0.0208          0.0000       2680.8618          0.2178          1.0000          0.0956          0.0000          0.0349
      3622.3000          0.0207          0.0000       2211.4810          0.2187          1.0000          0.0947          0.0000          0.0449
      3622.4000          0.0208          0.0000       2326.1633          0.2187          1.0000          0.0951          0.0000          0.0425
      3622.5000          0.0211          0.0000       2570.6167          0.2173          1.0000          0.0969          0.0000          0.0365
      3622.6000          0.0212          0.0000       2310.5144          0.2150          1.0000          0.0985          0.0000          0.0396
      3622.7000          0.0211          0.0000       2105.5654          0.2134          1.0000          0.0987          0.0000          0.0427
      3622.8000          0.0212          0.0000       1978.5055          0.2155          1.0000          0.0982          0.0000          0.0475
      3622.9000          0.0212          0.0000       1798.1609          0.2175          1.0000          0.0976          0.0000          0.0539
      3623.0000          0.0215          0.0000       1876.3777          0.2216          1.0000          0.0969          0.0000          0.0555
      3623.1000          0.0218          0.0000       2067.2832          0.2248          1.0000          0.0969          0.0000          0.0536
      3623.2000          0.0218          0.0000       2453.4492          0.2262          1.0000          0.0965          0.0000          0.0467
      3623.3000          0.0222          0.0000       2455.5151          0.2274          1.0000          0.0978          0.0000          0.0477
      3623.4000          0.0223          0.0000       2587.1580          0.2254          1.0000          0.0990          0.0000          0.0434
      3623.5000          0.0221          0.0000       2536.4639          0.2251          1.0000          0.0981          0.0000          0.0440
      3623.6000          0.0222          0.0000       2429.3738          0.2256          1.0000          0.0982          0.0000          0.0466
      3623.7000          0.0221          0.0000       2473.0261          0.2266          1.0000          0.0977          0.0000          0.0466
      3623.8000          0.0223          0.0000       2372.6062          0.2282          1.0000          0.0976          0.0000          0.0500
      3623.9000          0.0223          0.0000       2622.2869          0.2279          1.0000          0.0977          0.0000          0.0449
      3624.0000          0.0223          0.0000       2780.8489          0.2268          1.0000          0.0982          0.0000          0.0411
      3624.1000          0.0223          0.0000       2064.0618          0.2273          1.0000          0.0980          0.0000          0.0559
      3624.2000          0.0223          0.0000       1993.1890          0.2271          1.0000          0.0981          0.0000          0.0574
      3624.3000          0.0225          0.0000       1995.7095          0.2249          1.0000          0.1002          0.0000          0.0555
      3624.4000          0.0228          0.0000       1847.9199          0.2212          1.0000          0.1029          0.0000          0.0558
      3624.5000          0.0225          0.0000       2020.5725          0.2173          1.0000          0.1034          0.0000          0.0481
      3624.6000          0.0224          0.0000       2021.5280          0.2143          1.0000          0.1045          0.0000          0.0454
      3624.7000          0.0226          0.0000       1471.6638          0.2112          1.0000          0.1068          0.0000          0.0579
      3624.8000          0.0224          0.0000       1143.3002          0.2067          1.0000          0.1084          0.0000          0.0662
      3624.9000          0.0223          0.0000       1115.3361          0.2027          1.0000          0.1102          0.0000          0.0638
      3625.0000          0.0226          0.0000       1173.9943          0.2014          1.0000          0.1122          0.0000          0.0602
      3625.1000          0.0233          0.0000       1191.1798          0.2054          1.0000          0.1136          0.0000          0.0631
      3625.2000          0.0243          0.0000       1212.0647          0.2093          1.0000          0.1159          0.0000          0.0657
      3625.3000          0.0238          0.0000       1804.0615          0.2158          1.0000          0.1105          0.0000          0.0522
      3625.4000          0.0235          0.0000       2349.0308          0.2212          1.0000          0.1062          0.0000          0.0443
      3625.5000          0.0262          0.0000       2113.7954          0.2246          1.0000          0.1166          0.0000          0.0524
      3625.6000          0.0243          0.0000       2178.1538          0.2272          1.0000          0.1069          0.0000          0.0533
      3625.7000          0.0232          0.0000       2524.6936          0.2296          1.0000          0.1009          0.0000          0.0483
      3625.8000          0.0259          0.0000       2705.9536          0.2323          1.0000          0.1115          0.0000          0.0474
      3625.9000          0.0273          0.0000       2081.0105          0.2350          1.0000          0.1161          0.0000          0.0624
      3626.0000          0.0272          0.0000       1667.9382          0.2373          1.0000          0.1147          0.0000          0.0751
      3626.1000          0.0251          0.0000       1855.8132          0.2362          1.0000          0.1061          0.0000          0.0690
      3626.2000          0.0264          0.0000       2232.1467          0.2338          1.0000          0.1128          0.0000          0.0580
      3626.3000          0.0247          0.0000       1793.3062          0.2308          1.0000          0.1069          0.0000          0.0659
      3626.4000          0.0228          0.0000       1610.4456          0.2302          1.0000          0.0992          0.0000          0.0705
      3626.5000          0.0242          0.0000       1537.9329          0.2303          1.0000          0.1053          0.0000          0.0729
      3626.6000          0.0252          0.0000       1685.1117          0.2307          1.0000          0.1093          0.0000          0.0688
      3626.7000          0.0250          0.0000       1638.6577          0.2317          1.0000          0.1079          0.0000          0.0710
      3626.8000          0.0248          0.0000       1245.7687          0.2335          1.0000          0.1063          0.0000          0.0859
      3626.9000          0.0247          0.0000       1193.7998          0.2354          1.0000          0.1051          0.0000          0.0896
      3627.0000          0.0249          0.0000       1198.7412          0.2371          1.0000          0.1052          0.0000          0.0909
      3627.1000          0.0250          0.0000       1006.7065          0.2361          1.0000          0.1060          0.0000          0.0984
      3627.2000          0.0245          0.0000        964.3619          0.2347          1.0000          0.1042          0.0000          0.0993
      3627.3000          0.0242          0.0000        905.8750          0.2338          1.0000          0.1036          0.0000          0.1015
