~Version Information
VERS.                     2.0: CWLS log ASCII Standard Version 2.00
WRAP.                      NO: One line per depth step

~Well Information Block
#MNEM.UNIT                 Value                       Information
#------------              -----                       -----------
STRT.M                    3351.600                    :START
STOP.M                    4759.200                    :STOP
STEP.M                       0.100                    :STEP
NULL.                     -999.25                     :NULL VALUE
COMP.         Statoil Petroleum AS                    :Company
WELL.         15/9-F-11 B                             :Well
FLD .         VOLVE                                   :Field
LOC .         Maersk Inspirer                         :Location
PROV.                                                 :Province
CNTY.                                                 :County
STATE.                                                 :State
CTRY.                                                 :Country
DATE.                                                 :Log Date
SRVC.                                                 :Service Company
UWI .                                                 :Unique Well Identifier
API .                                                 :API Number
LATI.         058 26' 29.960" N    DMS                :Latitude
LONG.         001 53' 14.870" E    DMS                :Longtitude
PD  .         MSL                                     :Permanent Datum
EDF .M            54.900                              :Elevations D.F.
EGL .M           -91.000                              :Elevations G.L.
ELZ .M            54.900                              :Elev. Log Zero
LMF .         DF                                      :Log Measured From

~Curve Information
#MNEM   .UNIT             API CODE Curve Description
#------------             -------- -----------------
DEPTH   .M            00 001 00 00:   0  Depth
BVW     .v/v          00 000 00 00:   1  BVW:CPI:rC:NONE:v1
CARB_FLAG.unitless    00 000 00 00:   2  CARB_FLAG:CPI:rC:NONE:v1
COAL_FLAG.unitless    00 000 00 00:   3  COAL_FLAG:CPI:rC:NONE:v1
KLOGH   .mD           00 000 00 00:   4  KLOGH:CPI:rC:NONE:v1
PHIF    .v/v          00 000 00 00:   5  PHIF:CPI:rC:NONE:v1
SAND_FLAG.UNKNOWN     00 000 00 00:   6  SAND_FLAG:CPI:rC:NONE:v1
SW      .v/v          00 000 00 00:   7  SW:CPI:rC:NONE:v1
VSH     .v/v          00 000 00 00:   8  VSH:CPI:rC:NONE:v1

~Parameter Information
#MNEM.UNIT       Value           Description
#------------    -----           -----------
RUN .         1                 :Run number

~Other Information
PETROPHYSICAL_INTERPRETATION: OUTPUT

# --- LOG MNEMONICS AND UNITS ---
#Depth     BVW        CARB_FLAG  COAL_FLAG  KLOGH      PHIF       SAND_FLAG  SW         VSH       
#M         v/v        unitless   unitless   mD         v/v        UNKNOWN    v/v        v/v       

~A
# ...
  3999.600      0.035      0.000      0.000    574.110      0.264      1.000      0.134      0.150
  3999.700      0.035      0.000      0.000    401.935      0.263      1.000      0.134      0.166
  3999.800      0.035      0.000      0.000    349.932      0.260      1.000      0.134      0.171
  3999.900      0.036      0.000      0.000    408.506      0.260      1.000      0.138      0.163
  4000.000      0.037      0.000      0.000    372.399      0.259      1.000      0.142      0.167
  4000.100      0.037      0.000      0.000    571.489      0.258      1.000      0.144      0.145
  4000.200      0.038      0.000      0.000    540.613      0.257      1.000      0.149      0.147
  4000.300      0.039      0.000      0.000    364.818      0.255      1.000      0.152      0.164
  4000.400      0.039      0.000      0.000    263.630      0.252      1.000      0.154      0.178
  4000.500      0.036      0.000      0.000    215.875      0.248      1.000      0.145      0.183
  4000.600      0.032      0.000      0.000    159.109      0.241      1.000      0.132      0.192
  4000.700      0.033      0.000      0.000    111.334      0.232      1.000      0.142      0.201
  4000.800      0.049      0.000      0.000     66.502      0.222      1.000      0.222      0.217
  4000.900      0.057      0.000      0.000     31.753      0.216      1.000      0.264      0.247
  4001.000      0.057      0.000      0.000     18.930      0.211      1.000      0.271      0.268
  4001.100      0.066      0.000      0.000     20.630      0.208      1.000      0.317      0.261
  4001.200      0.056      0.000      0.000     32.114      0.203      1.000      0.275      0.235
  4001.300      0.026      0.000      0.000     42.512      0.202      1.000      0.130      0.221
  4001.400      0.030      0.000      0.000     48.738      0.207      1.000      0.143      0.219
  4001.500      0.028      0.000      0.000     80.462      0.220      1.000      0.126      0.206
  4001.600      0.033      0.000      0.000     87.350      0.233      1.000      0.140      0.214
  4001.700      0.031      0.000      0.000    137.412      0.244      1.000      0.125      0.202
  4001.800      0.029      0.000      0.000    193.314      0.251      1.000      0.115      0.191
  4001.900      0.027      0.000      0.000    178.887      0.253      1.000      0.107      0.197
  4002.000      0.025      0.000      0.000    204.287      0.255      1.000      0.100      0.192
  4002.100      0.023      0.000      0.000    214.829      0.256      1.000      0.091      0.190
  4002.200      0.026      0.000      0.000    293.058      0.258      1.000      0.101      0.177
  4002.300      0.027      0.000      0.000    223.822      0.260      1.000      0.103      0.192
  4002.400      0.027      0.000      0.000    189.796      0.261      1.000      0.104      0.201
  4002.500      0.027      0.000      0.000    257.041      0.261      1.000      0.104      0.186
  4002.600      0.027      0.000      0.000    311.724      0.261      1.000      0.105      0.177
  4002.700      0.026      0.000      0.000    281.418      0.259      1.000      0.100      0.180
  4002.800      0.026      0.000      0.000    356.842      0.258      1.000      0.101      0.168
  4002.900      0.025      0.000      0.000    319.214      0.258      1.000      0.097      0.173
  4003.000      0.026      0.000      0.000    310.964      0.259      1.000      0.102      0.175
  4003.100      0.026      0.000      0.000    268.118      0.260      1.000      0.100      0.183
  4003.200      0.025      0.000      0.000    280.270      0.260      1.000      0.096      0.181
  4003.300      0.021      0.000      0.000    341.067      0.259      1.000      0.081      0.171
  4003.400      0.020      0.000      0.000    293.541      0.258      1.000      0.076      0.177
  4003.500      0.019      0.000      0.000    206.491      0.256      1.000      0.074      0.192
  4003.600      0.022      0.000      0.000    169.285      0.253      1.000      0.087      0.200
  4003.700      0.022      0.000      0.000    178.500      0.254      1.000      0.088      0.198
  4003.800      0.021      0.000      0.000    184.211      0.255      1.000      0.084      0.197
  4003.900      0.020      0.000      0.000    164.487      0.255      1.000      0.080      0.203
  4004.000      0.020      0.000      0.000    149.153      0.254      1.000      0.081      0.206
  4004.100      0.021      0.000      0.000    120.323      0.251      1.000      0.082      0.214
  4004.200      0.021      0.000      0.000    120.163      0.247      1.000      0.084      0.211
  4004.300      0.021      0.000      0.000    105.580      0.242      1.000      0.086      0.213
  4004.400      0.021      0.000      0.000     89.185      0.237      1.000      0.088      0.217
  4004.500      0.046      0.000      0.000    100.758      0.236      1.000      0.196      0.209
  4004.600      0.038      0.000      0.000    115.083      0.237      1.000      0.160      0.204
  4004.700      0.025      0.000      0.000     99.231      0.238      1.000      0.105      0.212
  4004.800      0.026      0.000      0.000    102.370      0.235      1.000      0.109      0.208
  4004.900      0.048      0.000      0.000     74.462      0.227      1.000      0.213      0.216
  4005.000      0.070      0.000      0.000     72.626      0.211      1.000      0.330      0.203
  4005.100      0.060      0.000      0.000     72.116      0.196      1.000      0.306      0.190
  4005.200      0.057      0.000      0.000     88.267      0.184      1.000      0.310      0.170
  4005.300      0.055      0.000      0.000    113.937      0.176      1.000      0.309      0.150
  4005.400      0.052      0.000      0.000    117.774      0.170      1.000      0.305      0.143
  4005.500      0.035      0.000      0.000    111.988      0.164      1.000      0.211      0.140
  4005.600      0.024      0.000      0.000    132.480      0.157      1.000      0.150      0.126
  4005.700      0.026      0.000      0.000    149.894      0.155      1.000      0.166      0.118
  4005.800      0.031      0.000      0.000    171.010      0.159      1.000      0.198      0.115
  4005.900      0.034      0.000      0.000    198.921      0.168      1.000      0.200      0.116
  4006.000      0.029      0.000      0.000    272.364      0.177      1.000      0.162      0.109
  4006.100      0.029      0.000      0.000    294.695      0.184      1.000      0.156      0.111
  4006.200      0.029      0.000      0.000    251.339      0.188      1.000      0.152      0.122
  4006.300      0.028      0.000      0.000    248.179      0.187      1.000      0.148      0.123
  4006.400      0.026      0.000      0.000    253.754      0.183      1.000      0.142      0.118
  4006.500      0.026      0.000      0.000    207.622      0.169      1.000      0.155      0.115
  4006.600      0.027      0.000      0.000    155.421      0.147      1.000      0.183      0.110
  4006.700      0.026      0.000      0.000     87.697      0.122      1.000      0.215      0.115
  4006.800      0.025      1.000      0.000     64.933      0.097      0.000      0.256      0.108
  4006.900      0.020      1.000      0.000     26.815      0.037      0.000      0.537      0.097
  4007.000      0.017      1.000      0.000     22.115      0.020      0.000      0.853      0.091
  4007.100      0.017      1.000      0.000     20.226      0.020      0.000      0.861      0.095
  4007.200      0.017      1.000      0.000     21.552      0.020      0.000      0.867      0.092
  4007.300      0.017      1.000      0.000     20.883      0.020      0.000      0.869      0.093
  4007.400      0.018      1.000      0.000     15.844      0.020      0.000      0.879      0.107
  4007.500      0.018      1.000      0.000     15.177      0.022      0.000      0.805      0.110
  4007.600      0.024      1.000      0.000     54.137      0.078      0.000      0.306      0.099
