~Version Information
VERS.                     2.0: CWLS log ASCII Standard Version 2.00
WRAP.                      NO: One line per depth step

~Well Information Block
#MNEM.UNIT                 Value                       Information
#------------              -----                       -----------
STRT.M                    3575.000                    :START
STOP.M                    3761.800                    :STOP
STEP.M                       0.100                    :STEP
NULL.                     -999.25                     :NULL VALUE
COMP.         Statoil Petroleum AS                    :Company
WELL.         15/9-F-11 A                             :Well
FLD .         VOLVE                                   :Field
LOC .         Maersk Inspirer                         :Location
PROV.                                                 :Province
CNTY.                                                 :County
STATE.                                                 :State
CTRY.         Norway                                  :Country
DATE.                                                 :Log Date
SRVC.                                                 :Service Company
UWI .                                                 :Unique Well Identifier
API .                                                 :API Number
LATI.         058 26' 29.956" N    DMS                :Latitude
LONG.         001 53' 14.866" E    DMS                :Longtitude
PD  .         MSL                                     :Permanent Datum
EDF .M            54.900                              :Elevations D.F.
EGL .M           -91.000                              :Elevations G.L.
ELZ .M            54.900                              :Elev. Log Zero
LMF .         DF                                      :Log Measured From

~Curve Information
#MNEM   .UNIT             API CODE Curve Description
#------------             -------- -----------------
DEPTH   .M            00 001 00 00:   0  Depth
BVW     .v/v          00 000 00 00:   1  BVW:CPI:rC:NONE:v1
CARB_FLAG.UNKNOWN     00 000 00 00:   2  CARB_FLAG:CPI:rC:NONE:v1
COAL_FLAG.UNKNOWN     00 000 00 00:   3  COAL_FLAG:CPI:rC:NONE:v1
KLOGH   .mD           00 000 00 00:   4  KLOGH:CPI:rC:NONE:v1
PHIF    .v/v          00 000 00 00:   5  PHIF:CPI:rC:NONE:v1
SAND_FLAG.UNKNOWN     00 000 00 00:   6  SAND_FLAG:CPI:rC:NONE:v1
SW      .v/v          00 000 00 00:   7  SW:CPI:rC:NONE:v1
VSH     .v/v          00 000 00 00:   8  VSH:CPI:rC:NONE:v1

~Parameter Information
#MNEM.UNIT       Value           Description
#------------    -----           -----------
RUN .         1                 :Run number

~Other Information
PETROPHYSICAL_INTERPRETATION: OUTPUT

# --- LOG MNEMONICS AND UNITS ---
#Depth     BVW        CARB_FLAG  COAL_FLAG  KLOGH      PHIF       SAND_FLAG  SW         VSH       
#M         v/v        UNKNOWN    UNKNOWN    mD         v/v        UNKNOWN    v/v        v/v       

~A
# ...
  3720.800      0.100      0.000      0.000      0.034      0.100      0.000      1.000      0.841
  3720.900      0.105      0.000      0.000      0.052      0.105      0.000      1.000      0.817
  3721.000      0.108      0.000      0.000      0.077      0.108      0.000      1.000      0.786
  3721.100      0.110      0.000      0.000      0.107      0.110      0.000      1.000      0.742
  3721.200      0.111      0.000      0.000      0.136      0.111      0.000      1.000      0.702
  3721.300      0.111      0.000      0.000      0.177      0.111      0.000      1.000      0.652
  3721.400      0.111      0.000      0.000      0.190      0.111      0.000      1.000      0.640
  3721.500      0.110      0.000      0.000      0.179      0.110      0.000      1.000      0.638
  3721.600      0.107      0.000      0.000      0.145      0.107      0.000      1.000      0.633
  3721.700      0.102      0.000      0.000      0.094      0.102      0.000      1.000      0.645
  3721.800      0.097      0.000      0.000      0.058      0.097      0.000      1.000      0.673
  3721.900      0.095      0.000      0.000      0.047      0.095      0.000      1.000      0.687
  3722.000      0.097      0.000      0.000      0.050      0.097      0.000      1.000      0.706
  3722.100      0.102      0.000      0.000      0.069      0.102      0.000      1.000      0.708
  3722.200      0.106      0.000      0.000      0.102      0.106      0.000      1.000      0.698
  3722.300      0.109      0.000      0.000      0.129      0.109      0.000      1.000      0.690
  3722.400      0.110      0.000      0.000      0.146      0.110      0.000      1.000      0.679
  3722.500      0.111      0.000      0.000      0.170      0.111      0.000      1.000      0.659
  3722.600      0.113      0.000      0.000      0.205      0.113      0.000      1.000      0.648
  3722.700      0.116      0.000      0.000      0.290      0.116      0.000      1.000      0.618
  3722.800      0.119      0.000      0.000      0.357      0.119      0.000      1.000      0.623
  3722.900      0.121      0.000      0.000      0.432      0.121      0.000      1.000      0.623
  3723.000      0.123      0.000      0.000      0.483      0.123      0.000      0.999      0.631
  3723.100      0.122      0.000      0.000      0.482      0.125      0.000      0.978      0.651
  3723.200      0.122      0.000      0.000      0.519      0.125      0.000      0.978      0.642
  3723.300      0.123      0.000      0.000      0.495      0.124      0.000      0.998      0.632
  3723.400      0.120      0.000      0.000      0.376      0.120      0.000      1.000      0.640
  3723.500      0.116      0.000      0.000      0.272      0.116      0.000      1.000      0.631
  3723.600      0.109      0.000      0.000      0.166      0.109      0.000      1.000      0.636
  3723.700      0.102      0.000      0.000      0.107      0.102      0.000      1.000      0.615
  3723.800      0.094      0.000      0.000      0.053      0.094      0.000      1.000      0.649
  3723.900      0.088      0.000      0.000      0.031      0.088      0.000      1.000      0.660
  3724.000      0.083      0.000      0.000      0.018      0.083      0.000      1.000      0.691
  3724.100      0.079      0.000      0.000      0.014      0.079      0.000      1.000      0.688
  3724.200      0.077      0.000      0.000      0.012      0.077      0.000      1.000      0.684
  3724.300      0.077      0.000      0.000      0.011      0.077      0.000      1.000      0.699
  3724.400      0.079      0.000      0.000      0.013      0.079      0.000      1.000      0.698
  3724.500      0.083      0.000      0.000      0.020      0.083      0.000      1.000      0.670
  3724.600      0.087      0.000      0.000      0.035      0.087      0.000      1.000      0.617
  3724.700      0.090      0.000      0.000      0.052      0.090      0.000      1.000      0.586
  3724.800      0.093      0.000      0.000      0.078      0.093      0.000      1.000      0.536
  3724.900      0.094      0.000      0.000      0.108      0.094      0.000      1.000      0.491
  3725.000      0.096      0.000      0.000      0.122      0.096      0.000      1.000      0.494
  3725.100      0.099      0.000      0.000      0.168      0.099      0.000      1.000      0.474
  3725.200      0.104      0.000      0.000      0.231      0.104      0.000      1.000      0.474
  3725.300      0.107      0.000      0.000      0.284      0.107      0.000      1.000      0.488
  3725.400      0.108      0.000      0.000      0.301      0.108      0.000      1.000      0.491
  3725.500      0.106      0.000      0.000      0.219      0.106      0.000      1.000      0.531
  3725.600      0.103      0.000      0.000      0.163      0.103      0.000      1.000      0.548
  3725.700      0.100      0.000      0.000      0.125      0.100      0.000      1.000      0.556
  3725.800      0.097      0.000      0.000      0.087      0.097      0.000      1.000      0.575
  3725.900      0.092      0.000      0.000      0.055      0.092      0.000      1.000      0.599
  3726.000      0.087      0.000      0.000      0.034      0.087      0.000      1.000      0.631
  3726.100      0.086      0.000      0.000      0.029      0.086      0.000      1.000      0.636
  3726.200      0.086      0.000      0.000      0.028      0.086      0.000      1.000      0.656
  3726.300      0.088      0.000      0.000      0.031      0.088      0.000      1.000      0.668
  3726.400      0.091      0.000      0.000      0.036      0.091      0.000      1.000      0.670
  3726.500      0.093      0.000      0.000      0.043      0.093      0.000      1.000      0.674
  3726.600      0.097      0.000      0.000      0.054      0.097      0.000      1.000      0.693
  3726.700      0.103      0.000      0.000      0.075      0.103      0.000      1.000      0.717
  3726.800      0.108      0.000      0.000      0.131      0.110      0.000      0.980      0.697
  3726.900      0.107      0.000      0.000      0.189      0.114      0.000      0.934      0.691
  3727.000      0.109      0.000      0.000      0.235      0.116      0.000      0.937      0.673
  3727.100      0.115      0.000      0.000      0.251      0.116      0.000      0.990      0.654
  3727.200      0.114      0.000      0.000      0.225      0.114      0.000      1.000      0.655
  3727.300      0.111      0.000      0.000      0.199      0.111      0.000      1.000      0.631
  3727.400      0.108      0.000      0.000      0.176      0.108      0.000      1.000      0.607
  3727.500      0.101      0.000      0.000      0.105      0.101      0.000      1.000      0.613
  3727.600      0.093      0.000      0.000      0.050      0.093      0.000      1.000      0.636
  3727.700      0.084      0.000      0.000      0.024      0.084      0.000      1.000      0.652
  3727.800      0.078      0.000      0.000      0.015      0.078      0.000      1.000      0.649
  3727.900      0.075      0.000      0.000      0.011      0.075      0.000      1.000      0.679
  3728.000      0.076      0.000      0.000      0.012      0.076      0.000      1.000      0.688
  3728.100      0.080      0.000      0.000      0.014      0.080      0.000      1.000      0.710
  3728.200      0.084      0.000      0.000      0.019      0.084      0.000      1.000      0.714
  3728.300      0.089      0.000      0.000      0.027      0.089      0.000      1.000      0.709
  3728.400      0.093      0.000      0.000      0.036      0.093      0.000      1.000      0.714
  3728.500      0.097      0.000      0.000      0.046      0.097      0.000      1.000      0.724
  3728.600      0.101      0.000      0.000      0.062      0.101      0.000      1.000      0.717
  3728.700      0.104      0.000      0.000      0.090      0.104      0.000      1.000      0.682
  3728.800      0.105      0.000      0.000      0.109      0.105      0.000      1.000      0.662
