~Version Information
VERS.                     2.0: CWLS log ASCII Standard Version 2.00
WRAP.                      NO: One line per depth step

~Well Information Block
#MNEM.UNIT                 Value                       Information
#------------              -----                       -----------
STRT.M                   3358.0000                    :START
STOP.M                   3681.9000                    :STOP
STEP.M                      0.1000                    :STEP
NULL.                     -999.25                     :NULL VALUE
COMP.         Statoil Petroleum AS                    :Company
WELL.         15/9-F-1 A                              :Well
FLD .         VOLVE                                   :Field
LOC .         Maersk Inspirer                         :Location
PROV.                                                 :Province
CNTY.         Unused                                  :County
STATE.                                                 :State
CTRY.                                                 :Country
DATE.                                                 :Log Date
SRVC.                                                 :Service Company
UWI .                                                 :Unique Well Identifier
API .                                                 :API Number
LATI.         058 26' 29.907" N    DMS                :Latitude
LONG.         001 53' 14.708" E    DMS                :Longtitude
PD  .         MSL                                     :Permanent Datum
ELZ .M                 0.0000                         :Elev. Log Zero

~Curve Information
#MNEM   .UNIT             API CODE Curve Description
#------------             -------- -----------------
DEPTH   .M            00 001 00 00:   0  Depth
BVW     .V/V          00 000 00 00:   1  Bound Volume Water
COAL_FLAG.unitless    00 000 00 00:   2  Coal Flag
KLOGH   .mD           00 000 00 00:   3  Calculated Horizontal PERMEABILITY from logs
PHIF    .V/V          00 000 00 00:   4  Final porosity
SAND_FLAG.unitless    00 000 00 00:   5  Sand Flag
SW      .V/V          00 000 00 00:   6  Water Saturation (Archie)
VCARB   .V/V          00 000 00 00:   7  IFC(CARB_FLAG>0.5,1-VSH, VCARB)
VSH     .V/V          00 000 00 00:   8  Volume of Shale

~Parameter Information
#MNEM.UNIT       Value           Description
#------------    -----           -----------
HLD .         Terms and Conditions.:Header Legal Disclaimer
RUN .         1                 :Run number

~Other Information
PETROPHYSICAL INTERPRETATION: OUTPUT

# --- LOG MNEMONICS AND UNITS ---
#Depth          BVW             COAL_FLAG       KLOGH           PHIF            SAND_FLAG       SW              VCARB           VSH            
#M              V/V             unitless        mD              V/V             unitless        V/V             V/V             V/V            

~A
# ...
      3576.4000          0.1708          0.0000          1.8131          0.1733          1.0000          0.9855          0.0000          0.3022
      3576.5000          0.1689          0.0000          1.7872          0.1689          1.0000          1.0000          0.0000          0.2786
      3576.6000          0.1597          0.0000          1.2821          0.1597          1.0000          1.0000          0.0000          0.2738
      3576.7000          0.1463          0.0000          0.7846          0.1463          1.0000          1.0000          0.0000          0.2669
      3576.8000          0.1409          0.0000          0.6554          0.1409          1.0000          1.0000          0.0000          0.2619
      3576.9000          0.1485          0.0000          0.8601          0.1485          1.0000          1.0000          0.0000          0.2666
      3577.0000          0.1599          0.0000          1.3503          0.1599          1.0000          1.0000          0.0000          0.2672
      3577.1000          0.1693          0.0000          1.7868          0.1693          1.0000          1.0000          0.0000          0.2812
      3577.2000          0.1731          0.0000          1.8611          0.1731          1.0000          1.0000          0.0000          0.2975
      3577.3000          0.1702          0.0000          1.3540          0.1702          1.0000          1.0000          0.0000          0.3264
      3577.4000          0.1625          0.0000          1.0162          0.1625          1.0000          1.0000          0.0000          0.3233
      3577.5000          0.1538          0.0000          0.9308          0.1538          1.0000          1.0000          0.0000          0.2856
      3577.6000          0.1472          0.0000          1.0036          0.1472          1.0000          1.0000          0.0000          0.2363
      3577.7000          0.1432          0.0000          0.9945          0.1432          1.0000          1.0000          0.0000          0.2148
      3577.8000          0.1411          0.0000          1.0043          0.1411          1.0000          1.0000          0.0000          0.2011
      3577.9000          0.1344          0.0000          0.9664          0.1410          1.0000          0.9535          0.0000          0.2060
      3578.0000          0.1353          0.0000          1.1637          0.1439          1.0000          0.9402          0.0000          0.1959
      3578.1000          0.1419          0.0000          1.4912          0.1479          1.0000          0.9594          0.0000          0.1831
      3578.2000          0.1479          0.0000          1.5127          0.1479          1.0000          1.0000          0.0000          0.1811
      3578.3000          0.1402          0.0000          1.1166          0.1402          1.0000          1.0000          0.0195          0.1803
      3578.4000          0.1279          0.0000          0.6420          0.1279          1.0000          1.0000          0.0520          0.1894
      3578.5000          0.1187          0.0000          0.4555          0.1187          1.0000          1.0000          0.0892          0.1856
      3578.6000          0.1174          0.0000          0.5118          0.1174          1.0000          1.0000          0.1237          0.1611
      3578.7000          0.1226          0.0000          0.6643          0.1226          1.0000          1.0000          0.1137          0.1534
      3578.8000          0.1159          0.0000          0.7613          0.1270          1.0000          0.9122          0.0893          0.1597
      3578.9000          0.1125          0.0000          0.6547          0.1251          1.0000          0.8994          0.0841          0.1701
      3579.0000          0.1105          0.0000          0.3883          0.1159          1.0000          0.9533          0.0911          0.1925
      3579.1000          0.1024          0.0000          0.1830          0.1024          1.0000          1.0000          0.1034          0.2231
      3579.2000          0.0879          0.0000          0.0591          0.0879          0.0000          1.0000          0.0653          0.3024
      3579.3000          0.0747          0.0000          0.0227          0.0747          0.0000          1.0000          0.0448          0.3644
      3579.4000          0.0640          0.0000          0.0166          0.0640          0.0000          1.0000          0.0928          0.3480
      3579.5000          0.0591          0.0000          0.0168          0.0591          0.0000          1.0000          0.1421          0.3177
      3579.6000          0.0631          0.0000          0.0238          0.0631          0.0000          1.0000          0.1607          0.2905
      3579.7000          0.0760          0.0000          0.0511          0.0760          0.0000          1.0000          0.1598          0.2544
      3579.8000          0.0919          0.0000          0.1087          0.0919          0.0000          1.0000          0.1233          0.2376
      3579.9000          0.1036          0.0000          0.2126          0.1036          1.0000          1.0000          0.1165          0.2084
      3580.0000          0.1084          0.0000          0.2863          0.1084          1.0000          1.0000          0.1180          0.1929
      3580.1000          0.1072          0.0000          0.3043          0.1072          1.0000          1.0000          0.1415          0.1774
      3580.2000          0.1034          0.0000          0.2609          0.1034          1.0000          1.0000          0.1559          0.1775
      3580.3000          0.0998          0.0000          0.2244          0.0998          0.0000          1.0000          0.1679          0.1787
      3580.4000          0.0974          0.0000          0.2198          0.0974          0.0000          1.0000          0.1926          0.1675
      3580.5000          0.0960          0.0000          0.2124          0.0960          0.0000          1.0000          0.2021          0.1645
      3580.6000          0.0961          0.0000          0.1838          0.0961          0.0000          1.0000          0.1732          0.1857
      3580.7000          0.0983          0.0000          0.1379          0.0983          0.0000          1.0000          0.0979          0.2403
      3580.8000          0.1022          0.0000          0.1291          0.1022          1.0000          1.0000          0.0504          0.2723
      3580.9000          0.1058          0.0000          0.1135          0.1058          1.0000          1.0000          0.0019          0.3119
      3581.0000          0.1072          0.0000          0.1208          0.1072          1.0000          1.0000          0.0000          0.3111
      3581.1000          0.1056          0.0000          0.1382          0.1056          1.0000          1.0000          0.0295          0.2824
      3581.2000          0.1017          0.0000          0.1491          0.1017          1.0000          1.0000          0.0764          0.2490
      3581.3000          0.0954          0.0000          0.1291          0.0954          0.0000          1.0000          0.1170          0.2327
      3581.4000          0.0862          0.0000          0.1052          0.0862          0.0000          1.0000          0.1793          0.2095
      3581.5000          0.0758          0.0000          0.0602          0.0758          0.0000          1.0000          0.1914          0.2300
      3581.6000          0.0681          0.0000          0.0375          0.0681          0.0000          1.0000          0.1888          0.2539
      3581.7000          0.0667          0.0000          0.0385          0.0667          0.0000          1.0000          0.2106          0.2415
      3581.8000          0.0733          0.0000          0.0572          0.0733          0.0000          1.0000          0.2112          0.2224
      3581.9000          0.0862          0.0000          0.1123          0.0862          0.0000          1.0000          0.1926          0.1997
