~Version Information
VERS.                     2.0: CWLS log ASCII Standard Version 2.00
WRAP.                      NO: One line per depth step

~Well Information Block
#MNEM.UNIT                 Value                       Information
#------------              -----                       -----------
STRT.M                   3204.0000                    :START
STOP.M                   3464.9000                    :STOP
STEP.M                      0.1000                    :STEP
NULL.                     -999.25                     :NULL VALUE
COMP.         Statoil Petroleum                       :Company
WELL.         15/9-F-1 B                              :Well
FLD .         VOLVE                                   :Field
LOC .         Maersk Inspirer                         :Location
PROV.                                                 :Province
CNTY.                                                 :County
STATE.                                                 :State
CTRY.                                                 :Country
DATE.                                                 :Log Date
SRVC.                                                 :Service Company
UWI .                                                 :Unique Well Identifier
API .                                                 :API Number
LATI.         058 26' 29.907" N    DMS                :Latitude
LONG.         001 53' 14.708" E    DMS                :Longtitude
PD  .         MSL                                     :Permanent Datum
ELZ .M                 0.0000                         :Elev. Log Zero

~Curve Information
#MNEM   .UNIT             API CODE Curve Description
#------------             -------- -----------------
DEPTH   .M            00 001 00 00:   0  Depth
BVW     .V/V          00 000 00 00:   1  Bulk Volume Water
CARB_FLAG.V/V         00 000 00 00:   2  Carbonate Flag
COAL_FLAG.UNITLESS    00 000 00 00:   3  Coal flag
KLOGH   .mD           00 000 00 00:   4  Calculated Horizontal PERMEABILITY from logs
PHIF    .V/V          00 000 00 00:   5  Final Porosity
SAND_FLAG.UNITLESS    00 000 00 00:   6  Sand Flag
SW      .V/V          00 000 00 00:   7  Water Saturation
VCARB   .V/V          00 000 00 00:   8  VCARB
VSH     .V/V          00 000 00 00:   9  Volume of Shale

~Parameter Information
#MNEM.UNIT       Value           Description
#------------    -----           -----------
HLD .         Terms and Conditions.:Header Legal Disclaimer
RUN .         1                 :Run number

~Other Information
PETROPHYSICAL INTERPRETATION: OUTPUT

# --- LOG MNEMONICS AND UNITS ---
#Depth          BVW             CARB_FLAG       COAL_FLAG       KLOGH           PHIF            SAND_FLAG       SW              VCARB           VSH            
#M              V/V             V/V             UNITLESS        mD              V/V             UNITLESS        V/V             V/V             V/V            

~A
# ...
      3419.0000          0.1175          0.0000          0.0000          2.0421          0.1177          1.0000          0.9990          0.0462          0.2275
      3419.1000          0.1166          0.0000          0.0000          2.4463          0.1187          1.0000          0.9826          0.0673          0.2047
      3419.2000          0.1109          0.0000          0.0000          2.3144          0.1177          1.0000          0.9430          0.0759          0.2003
      3419.3000          0.1069          0.0000          0.0000          1.7334          0.1141          1.0000          0.9365          0.0815          0.2064
      3419.4000          0.1066          0.0000          0.0000          1.2824          0.1095          1.0000          0.9733          0.1080          0.1978
      3419.5000          0.1066          0.0000          0.0000          0.9813          0.1066          1.0000          1.0000          0.1049          0.2092
      3419.6000          0.1075          0.0000          0.0000          0.9090          0.1075          1.0000          1.0000          0.0664          0.2405
      3419.7000          0.1134          0.0000          0.0000          1.2972          0.1134          1.0000          1.0000          0.0296          0.2574
      3419.8000          0.1105          0.0000          0.0000          2.5444          0.1234          1.0000          0.8953          0.0000          0.2721
      3419.9000          0.1084          0.0000          0.0000          5.1596          0.1342          1.0000          0.8080          0.0000          0.2904
      3420.0000          0.1086          0.0000          0.0000          7.6009          0.1406          1.0000          0.7719          0.0000          0.3096
      3420.1000          0.1115          0.0000          0.0000          8.0624          0.1405          1.0000          0.7933          0.0000          0.2950
      3420.2000          0.1170          0.0000          0.0000          5.6387          0.1365          1.0000          0.8574          0.0000          0.3086
      3420.3000          0.1256          0.0000          0.0000          4.7173          0.1337          1.0000          0.9399          0.0000          0.3017
      3420.4000          0.1298          0.0000          0.0000          5.8734          0.1355          1.0000          0.9582          0.0000          0.2833
      3420.5000          0.1301          0.0000          0.0000          8.6182          0.1409          1.0000          0.9236          0.0000          0.2860
      3420.6000          0.1186          0.0000          0.0000         11.9029          0.1457          1.0000          0.8141          0.0000          0.2936
      3420.7000          0.1098          0.0000          0.0000         12.5173          0.1465          1.0000          0.7495          0.0000          0.2946
      3420.8000          0.1061          0.0000          0.0000          8.4760          0.1415          1.0000          0.7500          0.0000          0.2997
      3420.9000          0.1033          0.0000          0.0000          4.0585          0.1324          1.0000          0.7805          0.0000          0.3142
      3421.0000          0.1015          0.0000          0.0000          1.9830          0.1223          1.0000          0.8297          0.0000          0.3088
      3421.1000          0.0996          0.0000          0.0000          1.1009          0.1137          1.0000          0.8759          0.0000          0.2986
      3421.2000          0.0990          0.0000          0.0000          0.6189          0.1070          1.0000          0.9254          0.0000          0.3157
      3421.3000          0.0989          0.0000          0.0000          0.3908          0.1017          1.0000          0.9731          0.0000          0.3306
      3421.4000          0.0982          0.0000          0.0000          0.2982          0.0982          0.0000          1.0000          0.0041          0.3344
      3421.5000          0.0975          0.0000          0.0000          0.2865          0.0975          0.0000          1.0000          0.0090          0.3312
      3421.6000          0.0993          0.0000          0.0000          0.2798          0.0993          0.0000          1.0000          0.0000          0.3647
      3421.7000          0.1018          0.0000          0.0000          0.3281          0.1018          1.0000          1.0000          0.0000          0.3712
      3421.8000          0.1031          0.0000          0.0000          0.3637          0.1031          1.0000          1.0000          0.0000          0.3699
      3421.9000          0.1025          0.0000          0.0000          0.3603          0.1025          1.0000          1.0000          0.0000          0.3610
      3422.0000          0.1007          0.0000          0.0000          0.3431          0.1007          1.0000          1.0000          0.0000          0.3442
      3422.1000          0.0987          0.0000          0.0000          0.2922          0.0987          0.0000          1.0000          0.0000          0.3462
      3422.2000          0.0969          0.0000          0.0000          0.2410          0.0969          0.0000          1.0000          0.0000          0.3596
      3422.3000          0.0953          0.0000          0.0000          0.2152          0.0953          0.0000          1.0000          0.0000          0.3576
      3422.4000          0.0938          0.0000          0.0000          0.1926          0.0938          0.0000          1.0000          0.0000          0.3589
      3422.5000          0.0930          0.0000          0.0000          0.1736          0.0930          0.0000          1.0000          0.0000          0.3677
      3422.6000          0.0935          0.0000          0.0000          0.1892          0.0935          0.0000          1.0000          0.0000          0.3573
      3422.7000          0.0964          0.0000          0.0000          0.2101          0.0964          0.0000          1.0000          0.0000          0.3812
      3422.8000          0.0955          0.0000          0.0000          0.2671          0.1011          1.0000          0.9451          0.0000          0.4041
      3422.9000          0.0940          0.0000          0.0000          0.3352          0.1043          1.0000          0.9016          0.0000          0.4059
      3423.0000          0.0927          0.0000          0.0000          0.3058          0.1027          1.0000          0.9028          0.0000          0.4002
      3423.1000          0.0924          0.0000          0.0000          0.1849          0.0955          0.0000          0.9672          0.0000          0.3943
      3423.2000          0.0855          0.0000          0.0000          0.0881          0.0855          0.0000          1.0000          0.0000          0.3954
      3423.3000          0.0771          0.0000          0.0000          0.0470          0.0771          0.0000          1.0000          0.0099          0.3971
      3423.4000          0.0732          0.0000          0.0000          0.0378          0.0732          0.0000          1.0000          0.0330          0.3823
      3423.5000          0.0738          0.0000          0.0000          0.0403          0.0738          0.0000          1.0000          0.0353          0.3779
      3423.6000          0.0771          0.0000          0.0000          0.0487          0.0771          0.0000          1.0000          0.0153          0.3904
      3423.7000          0.0817          0.0000          0.0000          0.0619          0.0817          0.0000          1.0000          0.0000          0.4106
      3423.8000          0.0878          0.0000          0.0000          0.1081          0.0878          0.0000          1.0000          0.0000          0.3874
      3423.9000          0.0966          0.0000          0.0000          0.2461          0.0966          0.0000          1.0000          0.0000          0.3505
