~Version Information
VERS.                     2.0: CWLS log ASCII Standard Version 2.00
WRAP.                      NO: One line per depth step

~Well Information Block
#MNEM.UNIT                 Value                       Information
#------------              -----                       -----------
STRT.M                   3204.0000                    :START
STOP.M                   3464.9000                    :STOP
STEP.M                      0.1000                    :STEP
NULL.                     -999.25                     :NULL VALUE
COMP.         Statoil Petroleum                       :Company
WELL.         15/9-F-1 B                              :Well
FLD .         VOLVE                                   :Field
LOC .         Maersk Inspirer                         :Location
PROV.                                                 :Province
CNTY.                                                 :County
STATE.                                                 :State
CTRY.                                                 :Country
DATE.                                                 :Log Date
SRVC.                                                 :Service Company
UWI .                                                 :Unique Well Identifier
API .                                                 :API Number
LATI.         058 26' 29.907" N    DMS                :Latitude
LONG.         001 53' 14.708" E    DMS                :Longtitude
PD  .         MSL                                     :Permanent Datum
ELZ .M                 0.0000                         :Elev. Log Zero

~Curve Information
#MNEM   .UNIT             API CODE Curve Description
#------------             -------- -----------------
DEPTH   .M            00 001 00 00:   0  Depth
BVW     .V/V          00 000 00 00:   1  Bulk Volume Water
CARB_FLAG.V/V         00 000 00 00:   2  Carbonate Flag
COAL_FLAG.UNITLESS    00 000 00 00:   3  Coal flag
KLOGH   .mD           00 000 00 00:   4  Calculated Horizontal PERMEABILITY from logs
PHIF    .V/V          00 000 00 00:   5  Final Porosity
SAND_FLAG.UNITLESS    00 000 00 00:   6  Sand Flag
SW      .V/V          00 000 00 00:   7  Water Saturation
VCARB   .V/V          00 000 00 00:   8  VCARB
VSH     .V/V          00 000 00 00:   9  Volume of Shale

~Parameter Information
#MNEM.UNIT       Value           Description
#------------    -----           -----------
HLD .         Terms and Conditions.:Header Legal Disclaimer
RUN .         1                 :Run number

~Other Information
PETROPHYSICAL INTERPRETATION: OUTPUT

# --- LOG MNEMONICS AND UNITS ---
#Depth          BVW             CARB_FLAG       COAL_FLAG       KLOGH           PHIF            SAND_FLAG       SW              VCARB           VSH            
#M              V/V             V/V             UNITLESS        mD              V/V             UNITLESS        V/V             V/V             V/V            

~A
# ...
      3299.0000          0.0719          0.0000          0.0000         24.9584          0.1634          1.0000          0.4401          0.0000          0.2122
      3299.1000          0.0685          0.0000          0.0000         25.0710          0.1608          1.0000          0.4261          0.0000          0.2097
      3299.2000          0.0638          0.0000          0.0000         39.2143          0.1588          1.0000          0.4017          0.0000          0.1864
      3299.3000          0.0591          0.0000          0.0000         63.8202          0.1583          1.0000          0.3734          0.0000          0.1624
      3299.4000          0.0570          0.0000          0.0000        101.6523          0.1598          1.0000          0.3566          0.0000          0.1412
      3299.5000          0.0570          0.0000          0.0000        138.6078          0.1634          1.0000          0.3489          0.0000          0.1295
      3299.6000          0.0579          0.0000          0.0000        162.8327          0.1653          1.0000          0.3503          0.0000          0.1234
      3299.7000          0.0592          0.0000          0.0000        183.0674          0.1667          1.0000          0.3553          0.0000          0.1190
      3299.8000          0.0605          0.0000          0.0000        177.1711          0.1693          1.0000          0.3575          0.0000          0.1229
      3299.9000          0.0622          0.0000          0.0000        186.2608          0.1741          1.0000          0.3574          0.0000          0.1247
      3300.0000          0.0655          0.0000          0.0000        125.6561          0.1797          1.0000          0.3646          0.0000          0.1487
      3300.1000          0.0696          0.0000          0.0000         81.1748          0.1843          1.0000          0.3773          0.0000          0.1739
      3300.2000          0.0720          0.0000          0.0000         62.1382          0.1911          1.0000          0.3770          0.0000          0.1928
      3300.3000          0.0743          0.0000          0.0000         63.4835          0.2007          1.0000          0.3700          0.0000          0.2003
      3300.4000          0.0755          0.0000          0.0000         93.4463          0.2087          1.0000          0.3619          0.0000          0.1888
      3300.5000          0.0767          0.0000          0.0000         93.1028          0.2135          1.0000          0.3593          0.0000          0.1932
      3300.6000          0.0773          0.0000          0.0000         91.6055          0.2147          1.0000          0.3602          0.0000          0.1951
      3300.7000          0.0776          0.0000          0.0000         86.7626          0.2122          1.0000          0.3655          0.0000          0.1955
      3300.8000          0.0768          0.0000          0.0000         87.0706          0.2100          1.0000          0.3658          0.0000          0.1934
      3300.9000          0.0756          0.0000          0.0000         83.7418          0.2072          1.0000          0.3651          0.0000          0.1927
      3301.0000          0.0742          0.0000          0.0000         86.4780          0.2043          1.0000          0.3631          0.0000          0.1886
      3301.1000          0.0725          0.0000          0.0000         80.7614          0.2026          1.0000          0.3579          0.0000          0.1904
      3301.2000          0.0719          0.0000          0.0000         85.9663          0.2027          1.0000          0.3548          0.0000          0.1875
      3301.3000          0.0716          0.0000          0.0000        128.5682          0.2064          1.0000          0.3470          0.0000          0.1714
      3301.4000          0.0713          0.0000          0.0000        180.5319          0.2102          1.0000          0.3392          0.0000          0.1584
      3301.5000          0.0706          0.0000          0.0000        179.6451          0.2125          1.0000          0.3324          0.0000          0.1606
      3301.6000          0.0692          0.0000          0.0000        199.7297          0.2157          1.0000          0.3211          0.0000          0.1583
      3301.7000          0.0679          0.0000          0.0000        195.5154          0.2143          1.0000          0.3168          0.0000          0.1582
      3301.8000          0.0675          0.0000          0.0000        233.1778          0.2127          1.0000          0.3175          0.0000          0.1482
      3301.9000          0.0673          0.0000          0.0000        210.8540          0.2101          1.0000          0.3205          0.0000          0.1508
      3302.0000          0.0679          0.0000          0.0000        168.7974          0.2073          1.0000          0.3274          0.0000          0.1590
      3302.1000          0.0680          0.0000          0.0000        165.7733          0.2061          1.0000          0.3298          0.0000          0.1588
      3302.2000          0.0676          0.0000          0.0000        208.0878          0.2027          1.0000          0.3336          0.0000          0.1448
      3302.3000          0.0673          0.0000          0.0000        184.3102          0.2012          1.0000          0.3343          0.0000          0.1493
      3302.4000          0.0668          0.0000          0.0000        172.2455          0.2001          1.0000          0.3336          0.0000          0.1517
      3302.5000          0.0661          0.0000          0.0000        177.7733          0.1990          1.0000          0.3324          0.0000          0.1491
      3302.6000          0.0656          0.0000          0.0000        167.0287          0.1989          1.0000          0.3299          0.0000          0.1520
      3302.7000          0.0654          0.0000          0.0000        166.0883          0.1972          1.0000          0.3318          0.0000          0.1508
      3302.8000          0.0651          0.0000          0.0000        173.8631          0.1958          1.0000          0.3325          0.0000          0.1473
      3302.9000          0.0644          0.0000          0.0000        189.6132          0.1938          1.0000          0.3321          0.0000          0.1414
      3303.0000          0.0642          0.0000          0.0000        174.5040          0.1945          1.0000          0.3303          0.0000          0.1460
      3303.1000          0.0644          0.0000          0.0000        188.9548          0.1962          1.0000          0.3282          0.0000          0.1437
      3303.2000          0.0648          0.0000          0.0000        216.3159          0.1981          1.0000          0.3270          0.0000          0.1389
      3303.3000          0.0649          0.0000          0.0000        247.9931          0.1991          1.0000          0.3261          0.0000          0.1331
      3303.4000          0.0648          0.0000          0.0000        273.3669          0.1987          1.0000          0.3262          0.0000          0.1281
      3303.5000          0.0649          0.0000          0.0000        237.9326          0.1968          1.0000          0.3298          0.0000          0.1331
      3303.6000          0.0646          0.0000          0.0000        202.0388          0.1941          1.0000          0.3327          0.0000          0.1386
      3303.7000          0.0636          0.0000          0.0000        189.2754          0.1875          1.0000          0.3394          0.0000          0.1359
      3303.8000          0.0618          0.0000          0.0000        204.6029          0.1790          1.0000          0.3455          0.0000          0.1245
      3303.9000          0.0595          0.0000          0.0000        151.6084          0.1671          1.0000          0.3563          0.0000          0.1284
