~Version Information
VERS.                     2.0: CWLS log ASCII Standard Version 2.00
WRAP.                      NO: One line per depth step

~Well Information Block
#MNEM.UNIT                 Value                       Information
#------------              -----                       -----------
STRT.M                   3204.0000                    :START
STOP.M                   3464.9000                    :STOP
STEP.M                      0.1000                    :STEP
NULL.                     -999.25                     :NULL VALUE
COMP.         Statoil Petroleum                       :Company
WELL.         15/9-F-1 B                              :Well
FLD .         VOLVE                                   :Field
LOC .         Maersk Inspirer                         :Location
PROV.                                                 :Province
CNTY.                                                 :County
STATE.                                                 :State
CTRY.                                                 :Country
DATE.                                                 :Log Date
SRVC.                                                 :Service Company
UWI .                                                 :Unique Well Identifier
API .                                                 :API Number
LATI.         058 26' 29.907" N    DMS                :Latitude
LONG.         001 53' 14.708" E    DMS                :Longtitude
PD  .         MSL                                     :Permanent Datum
ELZ .M                 0.0000                         :Elev. Log Zero

~Curve Information
#MNEM   .UNIT             API CODE Curve Description
#------------             -------- -----------------
DEPTH   .M            00 001 00 00:   0  Depth
BVW     .V/V          00 000 00 00:   1  Bulk Volume Water
CARB_FLAG.V/V         00 000 00 00:   2  Carbonate Flag
COAL_FLAG.UNITLESS    00 000 00 00:   3  Coal flag
KLOGH   .mD           00 000 00 00:   4  Calculated Horizontal PERMEABILITY from logs
PHIF    .V/V          00 000 00 00:   5  Final Porosity
SAND_FLAG.UNITLESS    00 000 00 00:   6  Sand Flag
SW      .V/V          00 000 00 00:   7  Water Saturation
VCARB   .V/V          00 000 00 00:   8  VCARB
VSH     .V/V          00 000 00 00:   9  Volume of Shale

~Parameter Information
#MNEM.UNIT       Value           Description
#------------    -----           -----------
HLD .         Terms and Conditions.:Header Legal Disclaimer
RUN .         1                 :Run number

~Other Information
PETROPHYSICAL INTERPRETATION: OUTPUT

# --- LOG MNEMONICS AND UNITS ---
#Depth          BVW             CARB_FLAG       COAL_FLAG       KLOGH           PHIF            SAND_FLAG       SW              VCARB           VSH            
#M              V/V             V/V             UNITLESS        mD              V/V             UNITLESS        V/V             V/V             V/V            

~A
# ...
      3269.0000          0.0696          0.0000          0.0000        146.5309          0.1689          1.0000          0.4124          0.0000          0.1317
      3269.1000          0.0709          0.0000          0.0000        104.8774          0.1519          1.0000          0.4666          0.0294          0.1328
      3269.2000          0.0695          0.0000          0.0000         79.9529          0.1404          1.0000          0.4954          0.0687          0.1356
      3269.3000          0.0674          0.0000          0.0000         66.9537          0.1291          1.0000          0.5224          0.1130          0.1341
      3269.4000          0.0645          0.0000          0.0000         61.5749          0.1219          1.0000          0.5295          0.1442          0.1317
      3269.5000          0.0580          0.0000          0.0000         17.1866          0.0767          0.0000          0.7558          0.2979          0.1531
      3269.6000          0.0631          0.0000          0.0000          8.2386          0.0631          0.0000          1.0000          0.3189          0.1766
      3269.7000          0.0524          0.0000          0.0000          2.3177          0.0524          0.0000          1.0000          0.2846          0.2282
      3269.8000          0.0436          0.0000          0.0000          0.9309          0.0436          0.0000          1.0000          0.2667          0.2644
      3269.9000          0.0395          0.0000          0.0000          0.5751          0.0395          0.0000          1.0000          0.2547          0.2840
      3270.0000          0.0453          0.0000          0.0000          0.3383          0.0453          0.0000          1.0000          0.1928          0.3148
      3270.1000          0.0638          0.0000          0.0000          0.4550          0.0638          0.0000          1.0000          0.1275          0.3169
      3270.2000          0.0909          0.0000          0.0000          0.8357          0.0909          0.0000          1.0000          0.0468          0.3116
      3270.3000          0.1006          0.0000          0.0000          1.9963          0.1198          1.0000          0.8402          0.0000          0.2953
      3270.4000          0.1036          0.0000          0.0000          9.7747          0.1736          1.0000          0.5966          0.0000          0.2666
      3270.5000          0.0898          0.0000          0.0000         22.5793          0.1918          1.0000          0.4682          0.0000          0.2423
      3270.6000          0.0796          0.0000          0.0000         65.0171          0.2075          1.0000          0.3838          0.0000          0.2052
      3270.7000          0.0786          0.0000          0.0000        148.7719          0.2187          1.0000          0.3596          0.0000          0.1753
      3270.8000          0.0776          0.0000          0.0000        256.3738          0.2236          1.0000          0.3470          0.0000          0.1533
      3270.9000          0.0714          0.0000          0.0000        392.7575          0.2232          1.0000          0.3198          0.0000          0.1324
      3271.0000          0.0626          0.0000          0.0000        443.4269          0.2196          1.0000          0.2853          0.0000          0.1233
      3271.1000          0.0592          0.0000          0.0000        461.7697          0.2149          1.0000          0.2756          0.0000          0.1172
      3271.2000          0.0588          0.0000          0.0000        465.2354          0.2106          1.0000          0.2793          0.0000          0.1130
      3271.3000          0.0600          0.0000          0.0000        458.0148          0.2084          1.0000          0.2881          0.0000          0.1118
      3271.4000          0.0600          0.0000          0.0000        637.6039          0.2086          1.0000          0.2878          0.0000          0.0960
      3271.5000          0.0611          0.0000          0.0000        811.5969          0.2109          1.0000          0.2897          0.0000          0.0864
      3271.6000          0.0624          0.0000          0.0000        869.7092          0.2132          1.0000          0.2929          0.0000          0.0852
      3271.7000          0.0640          0.0000          0.0000        834.7469          0.2144          1.0000          0.2985          0.0000          0.0882
      3271.8000          0.0667          0.0000          0.0000        687.5546          0.2130          1.0000          0.3132          0.0000          0.0963
      3271.9000          0.0684          0.0000          0.0000        570.1980          0.2133          1.0000          0.3205          0.0000          0.1056
      3272.0000          0.0659          0.0000          0.0000        689.9250          0.2120          1.0000          0.3108          0.0000          0.0952
      3272.1000          0.0627          0.0000          0.0000        878.1494          0.2106          1.0000          0.2976          0.0000          0.0823
      3272.2000          0.0631          0.0000          0.0000       1128.4640          0.2094          1.0000          0.3013          0.0000          0.0692
      3272.3000          0.0638          0.0000          0.0000       1075.2056          0.2074          1.0000          0.3077          0.0000          0.0698
      3272.4000          0.0639          0.0000          0.0000       1004.6201          0.2065          1.0000          0.3093          0.0000          0.0722
      3272.5000          0.0640          0.0000          0.0000        707.9680          0.2040          1.0000          0.3135          0.0000          0.0869
      3272.6000          0.0704          0.0000          0.0000        552.7736          0.2001          1.0000          0.3515          0.0000          0.0954
      3272.7000          0.0726          0.0000          0.0000        578.9133          0.1977          1.0000          0.3674          0.0000          0.0910
      3272.8000          0.0699          0.0000          0.0000        662.1230          0.1966          1.0000          0.3556          0.0000          0.0836
      3272.9000          0.0674          0.0000          0.0000        772.1846          0.1994          1.0000          0.3380          0.0000          0.0786
      3273.0000          0.0620          0.0000          0.0000       1010.3018          0.2055          1.0000          0.3019          0.0000          0.0711
      3273.1000          0.0577          0.0000          0.0000       1325.4664          0.2133          1.0000          0.2706          0.0000          0.0649
      3273.2000          0.0564          0.0000          0.0000       1679.5664          0.2202          1.0000          0.2562          0.0000          0.0596
      3273.3000          0.0561          0.0000          0.0000       2025.5120          0.2225          1.0000          0.2520          0.0000          0.0526
      3273.4000          0.0575          0.0000          0.0000       1698.9175          0.2217          1.0000          0.2594          0.0000          0.0604
      3273.5000          0.0606          0.0000          0.0000       1224.2592          0.2186          1.0000          0.2773          0.0000          0.0735
      3273.6000          0.0599          0.0000          0.0000       1250.3142          0.2174          1.0000          0.2755          0.0000          0.0714
      3273.7000          0.0579          0.0000          0.0000       1593.8937          0.2213          1.0000          0.2619          0.0000          0.0631
      3273.8000          0.0577          0.0000          0.0000       1670.9075          0.2245          1.0000          0.2568          0.0000          0.0637
      3273.9000          0.0577          0.0000          0.0000       1128.7722          0.2218          1.0000          0.2602          0.0000          0.0802
