~Version Information
VERS.                     2.0: CWLS log ASCII Standard Version 2.00
WRAP.                      NO: One line per depth step

~Well Information Block
#MNEM.UNIT                 Value                       Information
#------------              -----                       -----------
STRT.M                    4334.700                    :START
STOP.M                    4561.700                    :STOP
STEP.M                       0.100                    :STEP
NULL.                     -999.25                     :NULL VALUE
COMP.         Statoil Petroleum AS                    :Company
WELL.         15/9-F-11 T2                            :Well
FLD .         VOLVE                                   :Field
LOC .                                                 :Location
PROV.                                                 :Province
CNTY.                                                 :County
STATE.                                                 :State
CTRY.         Norway                                  :Country
DATE.                                                 :Log Date
SRVC.                                                 :Service Company
UWI .                                                 :Unique Well Identifier
API .                                                 :API Number
PD  .         MSL                                     :Permanent Datum
EDF .M            54.900                              :Elevations D.F.
EGL .M           -91.000                              :Elevations G.L.
ELZ .M            54.900                              :Elev. Log Zero
LMF .         DF                                      :Log Measured From

~Curve Information
#MNEM   .UNIT             API CODE Curve Description
#------------             -------- -----------------
DEPTH   .M            00 001 00 00:   0  Depth
BVW     .v/v          00 000 00 00:   1  BVW:CPI:rC:NONE:v1
CARB_FLAG.unitless    00 000 00 00:   2  CARB_FLAG:CPI:rC:NONE:v1
COAL_FLAG.unitless    00 000 00 00:   3  COAL_FLAG:CPI:rC:NONE:v1
KLOGH   .mD           00 000 00 00:   4  KLOGH:CPI:rC:NONE:v1
PHIF    .v/v          00 000 00 00:   5  PHIF:CPI:rC:NONE:v1
SAND_FLAG.unitless    00 000 00 00:   6  SAND_FLAG:CPI:rC:NONE:v1
SW      .v/v          00 000 00 00:   7  SW:CPI:rC:NONE:v1
VSH     .v/v          00 000 00 00:   8  VSH:CPI:rC:NONE:v1

~Parameter Information
#MNEM.UNIT       Value           Description
#------------    -----           -----------
RUN .         1                 :Run number

~Other Information
PETROPHYSICAL INTERPRETATION: OUTPUT

# --- LOG MNEMONICS AND UNITS ---
#Depth     BVW        CARB_FLAG  COAL_FLAG  KLOGH      PHIF       SAND_FLAG  SW         VSH       
#M         v/v        unitless   unitless   mD         v/v        unitless   v/v        v/v       

~A
# ...
  4440.000      0.170      0.000      0.000     33.383      0.170      1.000      1.000      0.204
  4440.100      0.167      0.000      0.000     29.911      0.167      1.000      1.000      0.206
  4440.200      0.165      0.000      0.000     35.913      0.165      1.000      1.000      0.196
  4440.300      0.161      0.000      0.000     41.576      0.166      1.000      0.972      0.190
  4440.400      0.159      0.000      0.000     44.250      0.168      1.000      0.942      0.189
  4440.500      0.159      0.000      0.000     45.483      0.171      1.000      0.932      0.190
  4440.600      0.163      0.000      0.000     40.756      0.173      1.000      0.943      0.197
  4440.700      0.168      0.000      0.000     40.056      0.174      1.000      0.962      0.199
  4440.800      0.171      0.000      0.000     38.460      0.175      1.000      0.979      0.201
  4440.900      0.173      0.000      0.000     29.725      0.174      1.000      0.992      0.214
  4441.000      0.171      0.000      0.000     32.547      0.174      1.000      0.981      0.209
  4441.100      0.173      0.000      0.000     32.058      0.175      1.000      0.993      0.210
  4441.200      0.177      0.000      0.000     33.613      0.177      1.000      1.000      0.210
  4441.300      0.181      0.000      0.000     33.180      0.181      1.000      1.000      0.214
  4441.400      0.181      0.000      0.000     30.021      0.183      1.000      0.986      0.221
  4441.500      0.174      0.000      0.000     22.326      0.180      1.000      0.966      0.232
  4441.600      0.158      0.000      0.000     15.847      0.169      1.000      0.934      0.239
  4441.700      0.147      0.000      0.000     10.579      0.156      1.000      0.940      0.247
  4441.800      0.141      0.000      0.000      9.993      0.146      1.000      0.966      0.241
  4441.900      0.141      0.000      0.000     12.522      0.144      1.000      0.976      0.228
  4442.000      0.146      0.000      0.000     20.814      0.149      1.000      0.978      0.208
  4442.100      0.156      0.000      0.000     34.708      0.156      1.000      0.998      0.190
  4442.200      0.162      0.000      0.000     55.895      0.162      1.000      1.000      0.172
  4442.300      0.164      0.000      0.000     62.478      0.164      1.000      1.000      0.169
  4442.400      0.160      0.000      0.000     52.520      0.164      1.000      0.973      0.177
  4442.500      0.145      0.000      0.000     42.563      0.161      1.000      0.899      0.185
  4442.600      0.146      0.000      0.000     25.419      0.155      1.000      0.940      0.204
  4442.700      0.147      0.000      0.000     16.624      0.147      1.000      1.000      0.217
  4442.800      0.140      0.000      0.000      9.256      0.140      1.000      1.000      0.239
  4442.900      0.134      0.000      0.000      5.922      0.134      1.000      1.000      0.255
  4443.000      0.125      0.000      0.000      4.352      0.125      1.000      1.000      0.262
  4443.100      0.113      0.000      0.000      3.181      0.113      1.000      1.000      0.267
  4443.200      0.103      0.000      0.000      2.263      0.103      1.000      1.000      0.274
  4443.300      0.101      0.000      0.000      1.554      0.101      1.000      1.000      0.291
  4443.400      0.106      0.000      0.000      1.750      0.106      1.000      1.000      0.289
  4443.500      0.111      0.000      0.000      1.776      0.111      1.000      1.000      0.293
  4443.600      0.112      0.000      0.000      1.615      0.112      1.000      1.000      0.298
  4443.700      0.112      0.000      0.000      2.119      0.112      1.000      1.000      0.285
  4443.800      0.115      0.000      0.000      4.141      0.115      1.000      1.000      0.256
  4443.900      0.122      0.000      0.000      9.407      0.122      1.000      1.000      0.223
  4444.000      0.132      0.000      0.000     22.001      0.132      1.000      1.000      0.190
  4444.100      0.138      0.000      0.000     48.549      0.140      1.000      0.987      0.159
  4444.200      0.141      0.000      0.000     77.626      0.145      1.000      0.976      0.141
  4444.300      0.145      0.000      0.000     93.320      0.145      1.000      0.994      0.133
  4444.400      0.142      0.000      0.000    105.066      0.142      1.000      1.000      0.124
  4444.500      0.134      0.000      0.000     99.345      0.134      1.000      1.000      0.119
  4444.600      0.116      0.000      0.000     69.000      0.116      1.000      1.000      0.121
  4444.700      0.095      1.000      0.000     36.318      0.095      0.000      1.000      0.133
  4444.800      0.080      1.000      0.000     15.980      0.080      0.000      1.000      0.159
  4444.900      0.081      1.000      0.000      7.876      0.081      0.000      1.000      0.195
  4445.000      0.098      1.000      0.000      5.772      0.098      0.000      1.000      0.224
  4445.100      0.108      0.000      0.000     14.067      0.119      1.000      0.903      0.201
  4445.200      0.120      0.000      0.000     43.932      0.136      1.000      0.880      0.161
  4445.300      0.139      0.000      0.000    123.555      0.145      1.000      0.964      0.118
  4445.400      0.142      0.000      0.000    242.449      0.147      1.000      0.965      0.088
  4445.500      0.140      0.000      0.000    384.565      0.145      1.000      0.966      0.064
  4445.600      0.133      0.000      0.000    488.923      0.138      1.000      0.967      0.046
  4445.700      0.117      0.000      0.000    401.166      0.121      1.000      0.968      0.040
  4445.800      0.089      1.000      0.000    244.592      0.092      0.000      0.969      0.038
  4445.900      0.053      1.000      0.000    126.132      0.054      0.000      0.970      0.037
  4446.000      0.019      1.000      0.000     66.685      0.020      0.000      0.971      0.037
  4446.100      0.019      1.000      0.000     62.547      0.020      0.000      0.967      0.040
  4446.200      0.019      1.000      0.000     56.704      0.020      0.000      0.966      0.045
  4446.300      0.019      1.000      0.000     54.835      0.020      0.000      0.964      0.047
  4446.400      0.019      1.000      0.000     53.219      0.020      0.000      0.965      0.048
  4446.500      0.019      1.000      0.000     50.498      0.020      0.000      0.965      0.051
  4446.600      0.019      1.000      0.000     49.143      0.020      0.000      0.966      0.052
  4446.700      0.019      1.000      0.000     48.209      0.020      0.000      0.966      0.053
  4446.800      0.019      1.000      0.000     51.202      0.020      0.000      0.967      0.050
  4446.900      0.019      1.000      0.000     50.331      0.020      0.000      0.967      0.051
  4447.000      0.019      1.000      0.000     47.675      0.020      0.000      0.967      0.054
  4447.100      0.019      1.000      0.000     47.038      0.020      0.000      0.968      0.054
  4447.200      0.019      1.000      0.000     47.403      0.020      0.000      0.968      0.054
  4447.300      0.019      1.000      0.000     45.589      0.020      0.000      0.969      0.056
  4447.400      0.019      1.000      0.000     48.194      0.020      0.000      0.969      0.053
  4447.500      0.019      1.000      0.000     46.560      0.020      0.000      0.969      0.055
  4447.600      0.019      1.000      0.000     47.741      0.020      0.000      0.970      0.053
  4447.700      0.019      1.000      0.000     46.217      0.020      0.000      0.970      0.055
  4447.800      0.019      1.000      0.000     46.122      0.020      0.000      0.970      0.055
  4447.900      0.019      1.000      0.000     50.678      0.020      0.000      0.971      0.051
  4448.000      0.019      1.000      0.000     57.679      0.020      0.000      0.970      0.044
