~Version Information
VERS.                     2.0: CWLS log ASCII Standard Version 2.00
WRAP.                      NO: One line per depth step

~Well Information Block
#MNEM.UNIT                 Value                       Information
#------------              -----                       -----------
STRT.M                    4334.700                    :START
STOP.M                    4561.700                    :STOP
STEP.M                       0.100                    :STEP
NULL.                     -999.25                     :NULL VALUE
COMP.         Statoil Petroleum AS                    :Company
WELL.         15/9-F-11 T2                            :Well
FLD .         VOLVE                                   :Field
LOC .                                                 :Location
PROV.                                                 :Province
CNTY.                                                 :County
STATE.                                                 :State
CTRY.         Norway                                  :Country
DATE.                                                 :Log Date
SRVC.                                                 :Service Company
UWI .                                                 :Unique Well Identifier
API .                                                 :API Number
PD  .         MSL                                     :Permanent Datum
EDF .M            54.900                              :Elevations D.F.
EGL .M           -91.000                              :Elevations G.L.
ELZ .M            54.900                              :Elev. Log Zero
LMF .         DF                                      :Log Measured From

~Curve Information
#MNEM   .UNIT             API CODE Curve Description
#------------             -------- -----------------
DEPTH   .M            00 001 00 00:   0  Depth
BVW     .v/v          00 000 00 00:   1  BVW:CPI:rC:NONE:v1
CARB_FLAG.unitless    00 000 00 00:   2  CARB_FLAG:CPI:rC:NONE:v1
COAL_FLAG.unitless    00 000 00 00:   3  COAL_FLAG:CPI:rC:NONE:v1
KLOGH   .mD           00 000 00 00:   4  KLOGH:CPI:rC:NONE:v1
PHIF    .v/v          00 000 00 00:   5  PHIF:CPI:rC:NONE:v1
SAND_FLAG.unitless    00 000 00 00:   6  SAND_FLAG:CPI:rC:NONE:v1
SW      .v/v          00 000 00 00:   7  SW:CPI:rC:NONE:v1
VSH     .v/v          00 000 00 00:   8  VSH:CPI:rC:NONE:v1

~Parameter Information
#MNEM.UNIT       Value           Description
#------------    -----           -----------
RUN .         1                 :Run number

~Other Information
PETROPHYSICAL INTERPRETATION: OUTPUT

# --- LOG MNEMONICS AND UNITS ---
#Depth     BVW        CARB_FLAG  COAL_FLAG  KLOGH      PHIF       SAND_FLAG  SW         VSH       
#M         v/v        unitless   unitless   mD         v/v        unitless   v/v        v/v       

~A
# ...
  4504.800      0.059      1.000      0.000      0.034      0.059      0.000      1.000      0.172
  4504.900      0.061      1.000      0.000      0.040      0.061      0.000      1.000      0.171
  4505.000      0.062      1.000      0.000      0.047      0.062      0.000      1.000      0.161
  4505.100      0.064      1.000      0.000      0.050      0.064      0.000      1.000      0.171
  4505.200      0.064      1.000      0.000      0.047      0.065      0.000      0.986      0.196
  4505.300      0.062      1.000      0.000      0.034      0.065      0.000      0.958      0.267
  4505.400      0.060      1.000      0.000      0.021      0.061      0.000      0.976      0.322
  4505.500      0.055      1.000      0.000      0.011      0.055      0.000      1.000      0.355
  4505.600      0.048      1.000      0.000      0.006      0.048      0.000      1.000      0.387
  4505.700      0.041      1.000      0.000      0.003      0.041      0.000      1.000      0.409
  4505.800      0.038      1.000      0.000      0.002      0.038      0.000      1.000      0.445
  4505.900      0.035      1.000      0.000      0.001      0.035      0.000      1.000      0.500
  4506.000      0.033      1.000      0.000      0.001      0.033      0.000      1.000      0.563
  4506.100      0.028      1.000      0.000      0.001      0.028      0.000      1.000      0.652
  4506.200      0.001      0.000      1.000      0.001      0.001      0.000      1.000      0.735
  4506.300      0.001      0.000      1.000      0.001      0.001      0.000      1.000      0.777
  4506.400      0.001      0.000      1.000      0.001      0.001      0.000      1.000      0.737
  4506.500      0.001      0.000      1.000      0.001      0.001      0.000      1.000      0.615
  4506.600      0.001      0.000      1.000      0.001      0.001      0.000      1.000      0.477
  4506.700      0.001      0.000      1.000      0.001      0.001      0.000      1.000      0.409
  4506.800      0.001      0.000      1.000      0.001      0.001      0.000      1.000      0.346
  4506.900      0.001      0.000      1.000      0.001      0.001      0.000      1.000      0.323
  4507.000      0.001      0.000      1.000      0.001      0.001      0.000      1.000      0.334
  4507.100      0.001      0.000      1.000      0.001      0.001      0.000      1.000      0.344
  4507.200      0.013      0.000      1.000      0.001      0.013      0.000      1.000      0.345
  4507.300      0.014      1.000      0.000      0.004      0.014      0.000      1.000      0.348
  4507.400      0.015      1.000      0.000      0.001      0.015      0.000      1.000      0.369
  4507.500      0.016      1.000      0.000      0.001      0.016      0.000      1.000      0.396
  4507.600      0.020      1.000      0.000      0.001      0.020      0.000      1.000      0.425
  4507.700      0.020      1.000      0.000      0.001      0.020      0.000      1.000      0.455
  4507.800      0.020      1.000      0.000      0.001      0.020      0.000      1.000      0.474
  4507.900      0.020      1.000      0.000      0.001      0.020      0.000      1.000      0.488
  4508.000      0.020      1.000      0.000      0.001      0.020      0.000      1.000      0.520
  4508.100      0.020      1.000      0.000      0.001      0.020      0.000      1.000      0.553
  4508.200      0.020      1.000      0.000      0.001      0.020      0.000      1.000      0.543
  4508.300      0.020      1.000      0.000      0.001      0.020      0.000      1.000      0.543
  4508.400      0.020      0.000      0.000      0.001      0.020      0.000      1.000      0.565
  4508.500      0.020      0.000      0.000      0.001      0.020      0.000      1.000      0.593
  4508.600      0.020      0.000      0.000      0.001      0.020      0.000      1.000      0.601
  4508.700      0.020      0.000      0.000      0.001      0.020      0.000      1.000      0.602
  4508.800      0.020      0.000      0.000      0.001      0.020      0.000      1.000      0.605
  4508.900      0.020      0.000      0.000      0.001      0.020      0.000      1.000      0.607
  4509.000      0.020      0.000      0.000      0.001      0.020      0.000      1.000      0.611
  4509.100      0.020      0.000      0.000      0.001      0.020      0.000      1.000      0.630
  4509.200      0.020      0.000      0.000      0.001      0.020      0.000      1.000      0.647
  4509.300      0.020      0.000      0.000      0.001      0.020      0.000      1.000      0.618
  4509.400      0.020      0.000      0.000      0.001      0.020      0.000      1.000      0.587
  4509.500      0.020      0.000      0.000      0.001      0.020      0.000      1.000      0.553
  4509.600      0.020      0.000      0.000      0.001      0.020      0.000      1.000      0.550
  4509.700      0.020      0.000      0.000      0.001      0.020      0.000      1.000      0.563
  4509.800      0.020      0.000      0.000      0.001      0.020      0.000      1.000      0.543
  4509.900      0.024      0.000      0.000      0.001      0.024      0.000      1.000      0.553
  4510.000      0.029      0.000      0.000      0.001      0.029      0.000      1.000      0.555
  4510.100      0.033      0.000      0.000      0.001      0.033      0.000      1.000      0.577
  4510.200      0.036      0.000      0.000      0.001      0.036      0.000      1.000      0.616
  4510.300      0.038      0.000      0.000      0.001      0.038      0.000      1.000      0.669
  4510.400      0.037      0.000      0.000      0.001      0.037      0.000      1.000      0.699
  4510.500      0.033      0.000      0.000      0.001      0.033      0.000      1.000      0.712
  4510.600      0.027      0.000      0.000      0.001      0.027      0.000      1.000      0.729
  4510.700      0.022      0.000      0.000      0.001      0.022      0.000      1.000      0.750
  4510.800      0.021      0.000      0.000      0.001      0.021      0.000      1.000      0.758
  4510.900      0.024      0.000      0.000      0.001      0.024      0.000      1.000      0.763
  4511.000      0.029      0.000      0.000      0.001      0.029      0.000      1.000      0.756
  4511.100      0.035      0.000      0.000      0.001      0.035      0.000      1.000      0.733
  4511.200      0.039      0.000      0.000      0.001      0.039      0.000      1.000      0.718
  4511.300      0.042      0.000      0.000      0.001      0.042      0.000      1.000      0.730
  4511.400      0.043      0.000      0.000      0.001      0.043      0.000      1.000      0.733
  4511.500      0.043      0.000      0.000      0.001      0.043      0.000      1.000      0.734
  4511.600      0.042      0.000      0.000      0.001      0.042      0.000      1.000      0.754
  4511.700      0.040      0.000      0.000      0.001      0.040      0.000      1.000      0.745
  4511.800      0.039      0.000      0.000      0.001      0.039      0.000      1.000      0.755
  4511.900      0.039      0.000      0.000      0.001      0.039      0.000      1.000      0.758
  4512.000      0.042      0.000      0.000      0.001      0.042      0.000      1.000      0.751
  4512.100      0.047      0.000      0.000      0.001      0.047      0.000      1.000      0.756
  4512.200      0.051      0.000      0.000      0.001      0.051      0.000      1.000      0.754
  4512.300      0.053      0.000      0.000      0.002      0.053      0.000      1.000      0.764
  4512.400      0.054      0.000      0.000      0.002      0.054      0.000      1.000      0.781
  4512.500      0.055      0.000      0.000      0.001      0.055      0.000      1.000      0.814
  4512.600      0.057      0.000      0.000      0.002      0.057      0.000      1.000      0.799
  4512.700      0.060      0.000      0.000      0.002      0.060      0.000      1.000      0.809
  4512.800      0.061      0.000      0.000      0.002      0.061      0.000      1.000      0.818
