~Version Information
VERS.                     2.0: CWLS log ASCII Standard Version 2.00
WRAP.                      NO: One line per depth step

~Well Information Block
#MNEM.UNIT                 Value                       Information
#------------              -----                       -----------
STRT.M                    3351.600                    :START
STOP.M                    4759.200                    :STOP
STEP.M                       0.100                    :STEP
NULL.                     -999.25                     :NULL VALUE
COMP.         Statoil Petroleum AS                    :Company
WELL.         15/9-F-11 B                             :Well
FLD .         VOLVE                                   :Field
LOC .         Maersk Inspirer                         :Location
PROV.                                                 :Province
CNTY.                                                 :County
STATE.                                                 :State
CTRY.                                                 :Country
DATE.                                                 :Log Date
SRVC.                                                 :Service Company
UWI .                                                 :Unique Well Identifier
API .                                                 :API Number
LATI.         058 26' 29.960" N    DMS                :Latitude
LONG.         001 53' 14.870" E    DMS                :Longtitude
PD  .         MSL                                     :Permanent Datum
EDF .M            54.900                              :Elevations D.F.
EGL .M           -91.000                              :Elevations G.L.
ELZ .M            54.900                              :Elev. Log Zero
LMF .         DF                                      :Log Measured From

~Curve Information
#MNEM   .UNIT             API CODE Curve Description
#------------             -------- -----------------
DEPTH   .M            00 001 00 00:   0  Depth
BVW     .v/v          00 000 00 00:   1  BVW:CPI:rC:NONE:v1
CARB_FLAG.unitless    00 000 00 00:   2  CARB_FLAG:CPI:rC:NONE:v1
COAL_FLAG.unitless    00 000 00 00:   3  COAL_FLAG:CPI:rC:NONE:v1
KLOGH   .mD           00 000 00 00:   4  KLOGH:CPI:rC:NONE:v1
PHIF    .v/v          00 000 00 00:   5  PHIF:CPI:rC:NONE:v1
SAND_FLAG.UNKNOWN     00 000 00 00:   6  SAND_FLAG:CPI:rC:NONE:v1
SW      .v/v          00 000 00 00:   7  SW:CPI:rC:NONE:v1
VSH     .v/v          00 000 00 00:   8  VSH:CPI:rC:NONE:v1

~Parameter Information
#MNEM.UNIT       Value           Description
#------------    -----           -----------
RUN .         1                 :Run number

~Other Information
PETROPHYSICAL_INTERPRETATION: OUTPUT

# --- LOG MNEMONICS AND UNITS ---
#Depth     BVW        CARB_FLAG  COAL_FLAG  KLOGH      PHIF       SAND_FLAG  SW         VSH       
#M         v/v        unitless   unitless   mD         v/v        UNKNOWN    v/v        v/v       

~A
# ...
  3902.400      0.017      0.000      0.000   1374.609      0.220      1.000      0.077      0.069
  3902.500      0.017      0.000      0.000   1377.428      0.218      1.000      0.077      0.068
  3902.600      0.017      0.000      0.000   1438.870      0.218      1.000      0.079      0.065
  3902.700      0.017      0.000      0.000   1502.609      0.218      1.000      0.079      0.064
  3902.800      0.017      0.000      0.000   1435.682      0.219      1.000      0.078      0.066
  3902.900      0.017      0.000      0.000   1428.182      0.219      1.000      0.080      0.066
  3903.000      0.017      0.000      0.000   1313.476      0.218      1.000      0.078      0.069
  3903.100      0.017      0.000      0.000    986.491      0.216      1.000      0.077      0.081
  3903.200      0.017      0.000      0.000    798.052      0.213      1.000      0.080      0.089
  3903.300      0.016      0.000      0.000    807.338      0.211      1.000      0.077      0.086
  3903.400      0.015      0.000      0.000    712.943      0.210      1.000      0.073      0.092
  3903.500      0.015      0.000      0.000    607.947      0.208      1.000      0.071      0.098
  3903.600      0.015      0.000      0.000    593.456      0.209      1.000      0.070      0.099
  3903.700      0.014      0.000      0.000    604.224      0.209      1.000      0.067      0.099
  3903.800      0.013      0.000      0.000    624.948      0.209      1.000      0.063      0.097
  3903.900      0.012      0.000      0.000    665.830      0.208      1.000      0.058      0.094
  3904.000      0.012      0.000      0.000    670.224      0.207      1.000      0.059      0.092
  3904.100      0.012      0.000      0.000    634.870      0.207      1.000      0.056      0.095
  3904.200      0.013      0.000      0.000    684.254      0.209      1.000      0.060      0.093
  3904.300      0.012      0.000      0.000    722.661      0.211      1.000      0.058      0.092
  3904.400      0.011      0.000      0.000    798.755      0.212      1.000      0.053      0.089
  3904.500      0.012      0.000      0.000    888.578      0.211      1.000      0.056      0.083
  3904.600      0.012      0.000      0.000    781.268      0.211      1.000      0.058      0.088
  3904.700      0.012      0.000      0.000    818.139      0.210      1.000      0.057      0.085
  3904.800      0.012      0.000      0.000    724.740      0.209      1.000      0.056      0.090
  3904.900      0.011      0.000      0.000    647.661      0.209      1.000      0.055      0.096
  3905.000      0.011      0.000      0.000    605.414      0.210      1.000      0.052      0.099
  3905.100      0.011      0.000      0.000    616.493      0.212      1.000      0.054      0.101
  3905.200      0.011      0.000      0.000    562.606      0.213      1.000      0.052      0.106
  3905.300      0.011      0.000      0.000    535.772      0.214      1.000      0.052      0.109
  3905.400      0.012      0.000      0.000    536.500      0.214      1.000      0.058      0.110
  3905.500      0.013      0.000      0.000    564.841      0.214      1.000      0.060      0.107
  3905.600      0.013      0.000      0.000    513.999      0.214      1.000      0.059      0.112
  3905.700      0.012      0.000      0.000    489.731      0.214      1.000      0.057      0.113
  3905.800      0.012      0.000      0.000    622.970      0.213      1.000      0.057      0.101
  3905.900      0.013      0.000      0.000    594.962      0.212      1.000      0.062      0.103
  3906.000      0.013      0.000      0.000    515.729      0.213      1.000      0.063      0.110
  3906.100      0.013      0.000      0.000    584.942      0.212      1.000      0.063      0.103
  3906.200      0.014      0.000      0.000    743.603      0.212      1.000      0.068      0.092
  3906.300      0.015      0.000      0.000    742.931      0.212      1.000      0.069      0.092
  3906.400      0.014      0.000      0.000    672.750      0.212      1.000      0.068      0.096
  3906.500      0.015      0.000      0.000    700.286      0.211      1.000      0.073      0.093
  3906.600      0.016      0.000      0.000    774.422      0.210      1.000      0.075      0.088
  3906.700      0.017      0.000      0.000    684.982      0.211      1.000      0.079      0.095
  3906.800      0.017      0.000      0.000    769.201      0.213      1.000      0.081      0.091
  3906.900      0.018      0.000      0.000    954.800      0.217      1.000      0.083      0.084
  3907.000      0.018      0.000      0.000   1004.062      0.219      1.000      0.083      0.083
  3907.100      0.019      0.000      0.000    995.828      0.221      1.000      0.087      0.085
  3907.200      0.019      0.000      0.000    970.566      0.222      1.000      0.088      0.087
  3907.300      0.020      0.000      0.000    949.049      0.222      1.000      0.091      0.089
  3907.400      0.020      0.000      0.000    976.106      0.223      1.000      0.090      0.088
  3907.500      0.021      0.000      0.000   1023.469      0.224      1.000      0.092      0.087
  3907.600      0.021      0.000      0.000   1165.010      0.224      1.000      0.095      0.081
  3907.700      0.022      0.000      0.000   1105.948      0.224      1.000      0.097      0.083
  3907.800      0.022      0.000      0.000   1023.049      0.223      1.000      0.099      0.086
  3907.900      0.022      0.000      0.000   1165.418      0.222      1.000      0.100      0.079
  3908.000      0.023      0.000      0.000   1199.141      0.222      1.000      0.104      0.077
  3908.100      0.023      0.000      0.000   1104.375      0.222      1.000      0.105      0.081
  3908.200      0.024      0.000      0.000    872.655      0.223      1.000      0.106      0.094
  3908.300      0.024      0.000      0.000    753.939      0.224      1.000      0.107      0.102
  3908.400      0.024      0.000      0.000    655.302      0.224      1.000      0.107      0.109
  3908.500      0.024      0.000      0.000    799.094      0.225      1.000      0.108      0.100
  3908.600      0.024      0.000      0.000    752.676      0.223      1.000      0.109      0.101
  3908.700      0.025      0.000      0.000    704.009      0.222      1.000      0.110      0.104
  3908.800      0.025      0.000      0.000    640.302      0.221      1.000      0.111      0.107
  3908.900      0.025      0.000      0.000    732.519      0.220      1.000      0.112      0.099
  3909.000      0.025      0.000      0.000    749.622      0.219      1.000      0.114      0.098
  3909.100      0.025      0.000      0.000    810.626      0.220      1.000      0.115      0.095
  3909.200      0.025      0.000      0.000    807.305      0.220      1.000      0.114      0.095
  3909.300      0.025      0.000      0.000    860.288      0.222      1.000      0.114      0.094
  3909.400      0.026      0.000      0.000   1002.474      0.222      1.000      0.115      0.086
  3909.500      0.026      0.000      0.000   1050.491      0.224      1.000      0.116      0.086
  3909.600      0.026      0.000      0.000   1142.618      0.226      1.000      0.115      0.083
  3909.700      0.026      0.000      0.000   1080.448      0.228      1.000      0.114      0.087
  3909.800      0.026      0.000      0.000   1009.051      0.229      1.000      0.115      0.092
  3909.900      0.026      0.000      0.000   1039.039      0.231      1.000      0.115      0.092
  3910.000      0.026      0.000      0.000   1021.140      0.231      1.000      0.114      0.094
  3910.100      0.027      0.000      0.000    983.206      0.231      1.000      0.115      0.095
  3910.200      0.027      0.000      0.000   1012.214      0.231      1.000      0.115      0.094
  3910.300      0.027      0.000      0.000   1147.128      0.230      1.000      0.116      0.087
  3910.400      0.027      0.000      0.000   1199.704      0.230      1.000      0.117      0.084
