~Version Information
VERS.                     2.0: CWLS log ASCII Standard Version 2.00
WRAP.                      NO: One line per depth step

~Well Information Block
#MNEM.UNIT                 Value                       Information
#------------              -----                       -----------
STRT.M                   3205.0000                    :START
STOP.M                   4093.8000                    :STOP
STEP.M                      0.1000                    :STEP
NULL.                     -999.25                     :NULL VALUE
COMP.         Statoil Petroleum                       :Company
WELL.         15/9-F-1 C                              :Well
FLD .         VOLVE                                   :Field
LOC .         Maersk Inspirer                         :Location
PROV.                                                 :Province
CNTY.                                                 :County
STATE.                                                 :State
CTRY.                                                 :Country
DATE.                                                 :Log Date
SRVC.                                                 :Service Company
UWI .                                                 :Unique Well Identifier
API .                                                 :API Number
LATI.         058 26' 29.907" N    DMS                :Latitude
LONG.         001 53' 14.708" E    DMS                :Longtitude
PD  .         MSL                                     :Permanent Datum
EDF .M                54.9000                         :Elevations D.F.
EGL .M               -91.0000                         :Elevations G.L.
ELZ .M                54.9000                         :Elev. Log Zero
LMF .         DF                                      :Log Measured From

~Curve Information
#MNEM   .UNIT             API CODE Curve Description
#------------             -------- -----------------
DEPTH   .M            00 001 00 00:   0  Depth
BADDATA_FLAG.unitless 00 000 00 00:   1  Bad Data Flag
BVW     .v/v          00 000 00 00:   2  Bulk Volume Water
COAL_FLAG.unitless    00 000 00 00:   3  Coal Flag
KLOGH   .mD           00 000 00 00:   4  Permeability
PHIF    .v/v          00 000 00 00:   5  Final Porosity
SAND_FLAG.unitless    00 000 00 00:   6  Sand Flag
SW      .v/v          00 000 00 00:   7  Water Saturation
VCARB   .v/v          00 000 00 00:   8  VCARB
VSH     .v/v          00 000 00 00:   9  Volume of Shale

~Parameter Information
#MNEM.UNIT       Value           Description
#------------    -----           -----------
RUN .         1                 :Run number

~Other Information
PETROPHYSICAL INTERPRETATION: OUTPUT

# --- LOG MNEMONICS AND UNITS ---
#Depth          BADDATA_FLAG    BVW             COAL_FLAG       KLOGH           PHIF            SAND_FLAG       SW              VCARB           VSH            
#M              unitless        v/v             unitless        mD              v/v             unitless        v/v             v/v             v/v            

~A
# ...
      3785.0000          0.0000          0.0628          0.0000         32.2277          0.2129          1.0000          0.2948          0.0000          0.2439
      3785.1000          0.0000          0.0629          0.0000         25.9913          0.2109          1.0000          0.2982          0.0000          0.2525
      3785.2000          0.0000          0.0635          0.0000         21.8226          0.2096          1.0000          0.3028          0.0000          0.2597
      3785.3000          0.0000          0.0618          0.0000         16.4288          0.2085          1.0000          0.2966          0.0000          0.2725
      3785.4000          0.0000          0.0603          0.0000         16.5100          0.2080          1.0000          0.2899          0.0000          0.2718
      3785.5000          0.0000          0.0587          0.0000         18.5723          0.2065          1.0000          0.2844          0.0000          0.2648
      3785.6000          0.0000          0.0579          0.0000         16.3932          0.2051          1.0000          0.2823          0.0000          0.2696
      3785.7000          0.0000          0.0568          0.0000         16.2150          0.2038          1.0000          0.2788          0.0000          0.2690
      3785.8000          0.0000          0.0566          0.0000         11.8404          0.2023          1.0000          0.2797          0.0000          0.2828
      3785.9000          0.0000          0.0565          0.0000          8.6926          0.1992          1.0000          0.2835          0.0000          0.2949
      3786.0000          0.0000          0.0561          0.0000          7.4025          0.1963          1.0000          0.2857          0.0000          0.3001
      3786.1000          0.0000          0.0560          0.0000          7.5011          0.1932          1.0000          0.2901          0.0000          0.2967
      3786.2000          0.0000          0.0560          0.0000          5.6713          0.1899          1.0000          0.2948          0.0000          0.3073
      3786.3000          0.0000          0.0562          0.0000          5.8709          0.1860          1.0000          0.3020          0.0000          0.3022
      3786.4000          0.0000          0.0573          0.0000          5.1335          0.1818          1.0000          0.3155          0.0000          0.3049
      3786.5000          0.0000          0.0575          0.0000          3.6225          0.1760          1.0000          0.3266          0.0000          0.3165
      3786.6000          0.0000          0.0566          0.0000          3.4113          0.1703          1.0000          0.3325          0.0000          0.3143
      3786.7000          0.0000          0.0563          0.0000          4.9822          0.1677          1.0000          0.3358          0.0000          0.2938
      3786.8000          0.0000          0.0568          0.0000          4.7140          0.1680          1.0000          0.3383          0.0000          0.2967
      3786.9000          0.0000          0.0573          0.0000          4.1889          0.1721          1.0000          0.3331          0.0000          0.3061
      3787.0000          0.0000          0.0582          0.0000          5.2511          0.1777          1.0000          0.3273          0.0000          0.3002
      3787.1000          0.0000          0.0593          0.0000          3.9885          0.1852          1.0000          0.3201          0.0000          0.3201
      3787.2000          0.0000          0.0605          0.0000          4.0240          0.1934          1.0000          0.3131          0.0000          0.3269
      3787.3000          0.0000          0.0610          0.0000          4.6584          0.2015          1.0000          0.3030          0.0000          0.3271
      3787.4000          0.0000          0.0616          0.0000          6.5930          0.2086          1.0000          0.2954          0.0000          0.3166
      3787.5000          0.0000          0.0618          0.0000         11.0659          0.2161          1.0000          0.2861          0.0000          0.2983
      3787.6000          0.0000          0.0623          0.0000         10.5478          0.2225          1.0000          0.2799          0.0000          0.3063
      3787.7000          0.0000          0.0625          0.0000         14.1945          0.2268          1.0000          0.2754          0.0000          0.2958
      3787.8000          0.0000          0.0624          0.0000         18.6340          0.2282          1.0000          0.2734          0.0000          0.2839
      3787.9000          0.0000          0.0622          0.0000         24.6531          0.2277          1.0000          0.2732          0.0000          0.2699
      3788.0000          0.0000          0.0621          0.0000         20.0020          0.2271          1.0000          0.2736          0.0000          0.2795
      3788.1000          0.0000          0.0615          0.0000         22.9883          0.2280          1.0000          0.2700          0.0000          0.2736
      3788.2000          0.0000          0.0609          0.0000         31.8138          0.2311          1.0000          0.2636          0.0000          0.2607
      3788.3000          0.0000          0.0607          0.0000         30.9262          0.2327          1.0000          0.2607          0.0000          0.2635
      3788.4000          0.0000          0.0604          0.0000         38.8643          0.2342          1.0000          0.2580          0.0000          0.2537
      3788.5000          0.0000          0.0601          0.0000         42.8577          0.2347          1.0000          0.2559          0.0000          0.2495
      3788.6000          0.0000          0.0600          0.0000         36.2948          0.2356          1.0000          0.2547          0.0000          0.2584
      3788.7000          0.0000          0.0598          0.0000         37.3491          0.2356          1.0000          0.2537          0.0000          0.2570
      3788.8000          0.0000          0.0595          0.0000         46.9410          0.2350          1.0000          0.2534          0.0000          0.2454
      3788.9000          0.0000          0.0596          0.0000         44.2649          0.2332          1.0000          0.2555          0.0000          0.2466
      3789.0000          0.0000          0.0597          0.0000         39.1197          0.2304          1.0000          0.2590          0.0000          0.2501
      3789.1000          0.0000          0.0596          0.0000         32.5437          0.2276          1.0000          0.2617          0.0000          0.2564
      3789.2000          0.0000          0.0596          0.0000         26.4882          0.2255          1.0000          0.2643          0.0000          0.2645
      3789.3000          0.0000          0.0597          0.0000         15.6948          0.2253          1.0000          0.2650          0.0000          0.2896
      3789.4000          0.0000          0.0597          0.0000         14.7903          0.2260          1.0000          0.2642          0.0000          0.2931
      3789.5000          0.0000          0.0598          0.0000         16.9654          0.2283          1.0000          0.2619          0.0000          0.2885
      3789.6000          0.0000          0.0603          0.0000         21.3789          0.2299          1.0000          0.2624          0.0000          0.2788
      3789.7000          0.0000          0.0611          0.0000         28.0144          0.2307          1.0000          0.2648          0.0000          0.2665
      3789.8000          0.0000          0.0617          0.0000         28.7749          0.2321          1.0000          0.2660          0.0000          0.2664
      3789.9000          0.0000          0.0617          0.0000         37.5868          0.2328          1.0000          0.2650          0.0000          0.2541
