~Version Information
VERS.                     2.0: CWLS log ASCII Standard Version 2.00
WRAP.                      NO: One line per depth step

~Well Information Block
#MNEM.UNIT                 Value                       Information
#------------              -----                       -----------
STRT.M                   3465.0000                    :START
STOP.M                   4684.7000                    :STOP
STEP.M                      0.1000                    :STEP
NULL.                     -999.25                     :NULL VALUE
COMP.         STATOIL PETROLEUM AS                    :Company
WELL.         15/9-F-15 D                             :Well
FLD .         VOLVE                                   :Field
LOC .                                                 :Location
PROV.                                                 :Province
CNTY.         MAERSK INSPIRER                         :County
STATE.                                                 :State
CTRY.         NORWAY                                  :Country
DATE.                                                 :Log Date
SRVC.                                                 :Service Company
UWI .                                                 :Unique Well Identifier
API .                                                 :API Number
LATI.         058 26' 29.706" N    DMS                :Latitude
LONG.         001 53' 15.149" E    DMS                :Longtitude
PD  .         MSL                                     :Permanent Datum
EDF .M                54.9000                         :Elevations D.F.
EGL .M               -91.0000                         :Elevations G.L.
ELZ .M                54.9000                         :Elev. Log Zero
LMF .         DF                                      :Log Measured From
MP  .         DF                                      :Drill Measured From

~Curve Information
#MNEM   .UNIT             API CODE Curve Description
#------------             -------- -----------------
DEPTH   .M            00 001 00 00:   0  Depth
BVW     .v/v          00 000 00 00:   1  BVW:CPI:rC:0001:v1
COAL_FLAG.unitless    00 000 00 00:   2  COAL_FLAG:CPI:rC:0001:v1
KLOGH   .mD           00 000 00 00:   3  KLOGH:CPI:rC:0001:v1
PHIF    .v/v          00 000 00 00:   4  PHIF:CPI:rC:0001:v1
SAND_FLAG.unitless    00 000 00 00:   5  SAND_FLAG:CPI:rC:0001:v1
SW      .v/v          00 000 00 00:   6  SW:CPI:rC:0001:v1
VCARB   .v/v          00 000 00 00:   7  VCARB:CPI:rC:0001:v1
VSH     .v/v          00 000 00 00:   8  VSH:CPI:rC:0001:v1

~Parameter Information
#MNEM.UNIT       Value           Description
#------------    -----           -----------
RUN .         .                 :Run Number

~Other Information
PETROPHYSICAL INTERPRETATION: OUTPUT

# --- LOG MNEMONICS AND UNITS ---
#Depth          BVW             COAL_FLAG       KLOGH           PHIF            SAND_FLAG       SW              VCARB           VSH            
#M              v/v             unitless        mD              v/v             unitless        v/v             v/v             v/v            

~A
# ...
      3700.2000          0.1093          0.0000        424.3066          0.2421          1.0000          0.4513          0.0000          0.1455
      3700.3000          0.1095          0.0000        419.8366          0.2412          1.0000          0.4540          0.0000          0.1452
      3700.4000          0.1096          0.0000        359.7424          0.2404          1.0000          0.4560          0.0000          0.1519
      3700.5000          0.1094          0.0000        365.5637          0.2401          1.0000          0.4557          0.0000          0.1508
      3700.6000          0.1094          0.0000        360.3627          0.2396          1.0000          0.4567          0.0000          0.1511
      3700.7000          0.1094          0.0000        292.7119          0.2390          1.0000          0.4580          0.0000          0.1606
      3700.8000          0.1091          0.0000        450.2207          0.2383          1.0000          0.4580          0.0000          0.1392
      3700.9000          0.1090          0.0000        355.1730          0.2374          1.0000          0.4593          0.0000          0.1499
      3701.0000          0.1086          0.0000        306.2204          0.2363          1.0000          0.4595          0.0000          0.1560
      3701.1000          0.1085          0.0000        264.1521          0.2349          1.0000          0.4621          0.0000          0.1619
      3701.2000          0.1086          0.0000        220.1581          0.2338          1.0000          0.4643          0.0000          0.1698
      3701.3000          0.1086          0.0000        216.5083          0.2339          1.0000          0.4641          0.0000          0.1707
      3701.4000          0.1087          0.0000        303.7184          0.2355          1.0000          0.4616          0.0000          0.1557
      3701.5000          0.1093          0.0000        313.1470          0.2379          1.0000          0.4596          0.0000          0.1564
      3701.6000          0.1099          0.0000        296.5087          0.2399          1.0000          0.4581          0.0000          0.1608
      3701.7000          0.1104          0.0000        249.6862          0.2407          1.0000          0.4587          0.0000          0.1698
      3701.8000          0.1100          0.0000        371.0860          0.2402          1.0000          0.4579          0.0000          0.1502
      3701.9000          0.1091          0.0000        404.1158          0.2393          1.0000          0.4561          0.0000          0.1453
      3702.0000          0.1088          0.0000        343.7183          0.2386          1.0000          0.4559          0.0000          0.1525
      3702.1000          0.1087          0.0000        322.2636          0.2382          1.0000          0.4563          0.0000          0.1553
      3702.2000          0.1084          0.0000        421.2055          0.2377          1.0000          0.4558          0.0000          0.1419
      3702.3000          0.1085          0.0000        398.9487          0.2378          1.0000          0.4562          0.0000          0.1446
      3702.4000          0.1088          0.0000        335.2408          0.2390          1.0000          0.4551          0.0000          0.1541
      3702.5000          0.1091          0.0000        367.9814          0.2411          1.0000          0.4523          0.0000          0.1515
      3702.6000          0.1100          0.0000        328.9424          0.2431          1.0000          0.4524          0.0000          0.1586
      3702.7000          0.1101          0.0000        421.8018          0.2439          1.0000          0.4515          0.0000          0.1473
      3702.8000          0.1101          0.0000        546.1603          0.2434          1.0000          0.4522          0.0000          0.1345
      3702.9000          0.1102          0.0000        424.0360          0.2426          1.0000          0.4544          0.0000          0.1459
      3703.0000          0.1098          0.0000        479.6545          0.2414          1.0000          0.4547          0.0000          0.1389
      3703.1000          0.1088          0.0000        457.7290          0.2391          1.0000          0.4550          0.0000          0.1391
      3703.2000          0.1080          0.0000        387.6885          0.2354          1.0000          0.4588          0.0000          0.1438
      3703.3000          0.1079          0.0000        301.7150          0.2316          1.0000          0.4659          0.0000          0.1526
      3703.4000          0.1078          0.0000        291.7924          0.2303          1.0000          0.4681          0.0000          0.1530
      3703.5000          0.1082          0.0000        274.3144          0.2320          1.0000          0.4663          0.0000          0.1575
      3703.6000          0.1090          0.0000        330.9611          0.2355          1.0000          0.4630          0.0000          0.1516
      3703.7000          0.1096          0.0000        392.8054          0.2391          1.0000          0.4583          0.0000          0.1465
      3703.8000          0.1103          0.0000        413.2868          0.2414          1.0000          0.4569          0.0000          0.1461
      3703.9000          0.1105          0.0000        477.3345          0.2427          1.0000          0.4555          0.0000          0.1403
      3704.0000          0.1104          0.0000        514.8934          0.2431          1.0000          0.4540          0.0000          0.1370
      3704.1000          0.1103          0.0000        479.8155          0.2428          1.0000          0.4544          0.0000          0.1401
      3704.2000          0.1102          0.0000        481.0578          0.2420          1.0000          0.4556          0.0000          0.1393
      3704.3000          0.1106          0.0000        400.2872          0.2414          1.0000          0.4582          0.0000          0.1476
      3704.4000          0.1107          0.0000        386.5681          0.2416          1.0000          0.4582          0.0000          0.1495
      3704.5000          0.1106          0.0000        414.3182          0.2423          1.0000          0.4564          0.0000          0.1468
      3704.6000          0.1104          0.0000        435.3143          0.2430          1.0000          0.4543          0.0000          0.1451
      3704.7000          0.1107          0.0000        388.0534          0.2435          1.0000          0.4547          0.0000          0.1510
      3704.8000          0.1107          0.0000        395.8272          0.2432          1.0000          0.4550          0.0000          0.1498
      3704.9000          0.1106          0.0000        451.1371          0.2424          1.0000          0.4565          0.0000          0.1427
      3705.0000          0.1108          0.0000        425.6656          0.2409          1.0000          0.4598          0.0000          0.1442
      3705.1000          0.1112          0.0000        336.3279          0.2391          1.0000          0.4651          0.0000          0.1540
      3705.2000          0.1113          0.0000        428.7517          0.2376          1.0000          0.4682          0.0000          0.1410
      3705.3000          0.1116          0.0000        376.7410          0.2368          1.0000          0.4713          0.0000          0.1465
      3705.4000          0.1117          0.0000        367.1395          0.2370          1.0000          0.4713          0.0000          0.1479
      3705.5000          0.1119          0.0000        317.3761          0.2371          1.0000          0.4719          0.0000          0.1551
      3705.6000          0.1118          0.0000        271.4385          0.2370          1.0000          0.4720          0.0000          0.1625
      3705.7000          0.1118          0.0000        269.6482          0.2367          1.0000          0.4724          0.0000          0.1625
