~Version Information
VERS.                     2.0: CWLS log ASCII Standard Version 2.00
WRAP.                      NO: One line per depth step

~Well Information Block
#MNEM.UNIT                 Value                       Information
#------------              -----                       -----------
STRT.M                    4334.700                    :START
STOP.M                    4561.700                    :STOP
STEP.M                       0.100                    :STEP
NULL.                     -999.25                     :NULL VALUE
COMP.         Statoil Petroleum AS                    :Company
WELL.         15/9-F-11 T2                            :Well
FLD .         VOLVE                                   :Field
LOC .                                                 :Location
PROV.                                                 :Province
CNTY.                                                 :County
STATE.                                                 :State
CTRY.         Norway                                  :Country
DATE.                                                 :Log Date
SRVC.                                                 :Service Company
UWI .                                                 :Unique Well Identifier
API .                                                 :API Number
PD  .         MSL                                     :Permanent Datum
EDF .M            54.900                              :Elevations D.F.
EGL .M           -91.000                              :Elevations G.L.
ELZ .M            54.900                              :Elev. Log Zero
LMF .         DF                                      :Log Measured From

~Curve Information
#MNEM   .UNIT             API CODE Curve Description
#------------             -------- -----------------
DEPTH   .M            00 001 00 00:   0  Depth
BVW     .v/v          00 000 00 00:   1  BVW:CPI:rC:NONE:v1
CARB_FLAG.unitless    00 000 00 00:   2  CARB_FLAG:CPI:rC:NONE:v1
COAL_FLAG.unitless    00 000 00 00:   3  COAL_FLAG:CPI:rC:NONE:v1
KLOGH   .mD           00 000 00 00:   4  KLOGH:CPI:rC:NONE:v1
PHIF    .v/v          00 000 00 00:   5  PHIF:CPI:rC:NONE:v1
SAND_FLAG.unitless    00 000 00 00:   6  SAND_FLAG:CPI:rC:NONE:v1
SW      .v/v          00 000 00 00:   7  SW:CPI:rC:NONE:v1
VSH     .v/v          00 000 00 00:   8  VSH:CPI:rC:NONE:v1

~Parameter Information
#MNEM.UNIT       Value           Description
#------------    -----           -----------
RUN .         1                 :Run number

~Other Information
PETROPHYSICAL INTERPRETATION: OUTPUT

# --- LOG MNEMONICS AND UNITS ---
#Depth     BVW        CARB_FLAG  COAL_FLAG  KLOGH      PHIF       SAND_FLAG  SW         VSH       
#M         v/v        unitless   unitless   mD         v/v        unitless   v/v        v/v       

~A
# ...
  4399.500      0.111      0.000      0.000    184.434      0.133      1.000      0.832      0.089
  4399.600      0.117      0.000      0.000    169.624      0.131      1.000      0.887      0.091
  4399.700      0.122      0.000      0.000    140.087      0.130      1.000      0.939      0.099
  4399.800      0.128      0.000      0.000    135.899      0.129      1.000      0.989      0.100
  4399.900      0.129      0.000      0.000    131.442      0.129      1.000      1.000      0.101
  4400.000      0.128      0.000      0.000    129.358      0.128      1.000      1.000      0.102
  4400.100      0.128      0.000      0.000    137.423      0.128      1.000      1.000      0.098
  4400.200      0.127      0.000      0.000    136.147      0.127      1.000      1.000      0.098
  4400.300      0.125      0.000      0.000    136.714      0.125      1.000      1.000      0.096
  4400.400      0.122      0.000      0.000    121.756      0.122      1.000      1.000      0.099
  4400.500      0.117      0.000      0.000    109.456      0.117      1.000      1.000      0.099
  4400.600      0.111      0.000      0.000    101.908      0.111      1.000      1.000      0.098
  4400.700      0.108      0.000      0.000     78.849      0.108      1.000      1.000      0.107
  4400.800      0.108      0.000      0.000     76.856      0.108      1.000      1.000      0.108
  4400.900      0.111      0.000      0.000     96.445      0.111      1.000      1.000      0.100
  4401.000      0.115      0.000      0.000    105.325      0.115      1.000      1.000      0.100
  4401.100      0.120      0.000      0.000    110.015      0.120      1.000      1.000      0.102
  4401.200      0.123      0.000      0.000    118.993      0.123      1.000      1.000      0.101
  4401.300      0.125      0.000      0.000    115.238      0.125      1.000      1.000      0.104
  4401.400      0.126      0.000      0.000    103.519      0.126      1.000      1.000      0.110
  4401.500      0.126      0.000      0.000     90.313      0.126      1.000      1.000      0.117
  4401.600      0.127      0.000      0.000     96.340      0.127      1.000      1.000      0.115
  4401.700      0.130      0.000      0.000    102.311      0.130      1.000      1.000      0.114
  4401.800      0.134      0.000      0.000    109.684      0.134      1.000      1.000      0.114
  4401.900      0.137      0.000      0.000    109.279      0.137      1.000      1.000      0.118
  4402.000      0.139      0.000      0.000    125.686      0.139      1.000      1.000      0.112
  4402.100      0.139      0.000      0.000    117.518      0.139      1.000      1.000      0.115
  4402.200      0.136      0.000      0.000    121.576      0.136      1.000      1.000      0.112
  4402.300      0.133      0.000      0.000    109.303      0.133      1.000      1.000      0.114
  4402.400      0.130      0.000      0.000     96.519      0.130      1.000      1.000      0.117
  4402.500      0.128      0.000      0.000     83.566      0.128      1.000      1.000      0.122
  4402.600      0.125      0.000      0.000     84.909      0.125      1.000      1.000      0.119
  4402.700      0.121      0.000      0.000     78.343      0.121      1.000      1.000      0.120
  4402.800      0.117      0.000      0.000     61.244      0.117      1.000      1.000      0.128
  4402.900      0.115      0.000      0.000     56.734      0.115      1.000      1.000      0.129
  4403.000      0.115      0.000      0.000     59.151      0.115      1.000      1.000      0.128
  4403.100      0.118      0.000      0.000     59.936      0.118      1.000      1.000      0.130
  4403.200      0.121      0.000      0.000     57.005      0.121      1.000      1.000      0.135
  4403.300      0.124      0.000      0.000     57.760      0.124      1.000      1.000      0.136
  4403.400      0.124      0.000      0.000     54.684      0.124      1.000      1.000      0.139
  4403.500      0.123      0.000      0.000     57.960      0.123      1.000      1.000      0.136
  4403.600      0.121      0.000      0.000     59.052      0.121      1.000      1.000      0.133
  4403.700      0.119      0.000      0.000     62.859      0.119      1.000      1.000      0.128
  4403.800      0.115      0.000      0.000     58.432      0.115      1.000      1.000      0.128
  4403.900      0.113      0.000      0.000     62.464      0.113      1.000      1.000      0.123
  4404.000      0.112      0.000      0.000     77.632      0.112      1.000      1.000      0.112
  4404.100      0.113      0.000      0.000     88.477      0.113      1.000      1.000      0.107
  4404.200      0.116      0.000      0.000     90.552      0.116      1.000      1.000      0.108
  4404.300      0.119      0.000      0.000     89.792      0.119      1.000      1.000      0.111
  4404.400      0.121      0.000      0.000     85.679      0.121      1.000      1.000      0.115
  4404.500      0.121      0.000      0.000     90.343      0.121      1.000      1.000      0.112
  4404.600      0.119      0.000      0.000     88.723      0.119      1.000      1.000      0.112
  4404.700      0.118      0.000      0.000     92.190      0.118      1.000      1.000      0.108
  4404.800      0.119      0.000      0.000     89.284      0.119      1.000      1.000      0.112
  4404.900      0.126      0.000      0.000     98.895      0.126      1.000      1.000      0.112
  4405.000      0.136      0.000      0.000    132.269      0.136      1.000      1.000      0.107
  4405.100      0.146      0.000      0.000    170.989      0.146      1.000      1.000      0.104
  4405.200      0.156      0.000      0.000    269.310      0.156      1.000      1.000      0.091
  4405.300      0.162      0.000      0.000    372.870      0.162      1.000      1.000      0.081
  4405.400      0.165      0.000      0.000    448.728      0.165      1.000      1.000      0.074
  4405.500      0.161      0.000      0.000    442.774      0.161      1.000      1.000      0.072
  4405.600      0.150      0.000      0.000    338.613      0.150      1.000      1.000      0.075
  4405.700      0.134      0.000      0.000    238.419      0.134      1.000      1.000      0.077
  4405.800      0.118      0.000      0.000    164.907      0.118      1.000      1.000      0.081
  4405.900      0.108      0.000      0.000    136.426      0.108      1.000      1.000      0.081
  4406.000      0.107      0.000      0.000    119.800      0.107      1.000      1.000      0.087
  4406.100      0.115      0.000      0.000    127.580      0.115      1.000      1.000      0.090
  4406.200      0.125      0.000      0.000    137.329      0.125      1.000      1.000      0.096
  4406.300      0.133      0.000      0.000    171.942      0.133      1.000      1.000      0.092
  4406.400      0.137      0.000      0.000    181.258      0.137      1.000      1.000      0.093
  4406.500      0.136      0.000      0.000    175.933      0.136      1.000      1.000      0.094
  4406.600      0.133      0.000      0.000    158.856      0.133      1.000      1.000      0.095
  4406.700      0.131      0.000      0.000    173.737      0.131      1.000      1.000      0.090
  4406.800      0.134      0.000      0.000    211.426      0.134      1.000      1.000      0.083
  4406.900      0.144      0.000      0.000    255.155      0.144      1.000      1.000      0.083
  4407.000      0.158      0.000      0.000    286.784      0.158      1.000      1.000      0.089
  4407.100      0.171      0.000      0.000    319.753      0.171      1.000      1.000      0.096
  4407.200      0.181      0.000      0.000    334.192      0.181      1.000      1.000      0.103
  4407.300      0.189      0.000      0.000    283.507      0.189      1.000      1.000      0.117
  4407.400      0.194      0.000      0.000    302.331      0.194      1.000      1.000      0.119
  4407.500      0.198      0.000      0.000    312.849      0.198      1.000      1.000      0.121
