~Version Information
VERS.                     2.0: CWLS log ASCII Standard Version 2.00
WRAP.                      NO: One line per depth step

~Well Information Block
#MNEM       .UNIT          Value                       Information
#-------------------------------------------------------------------------
STRT        .M             3102.102                    :START
STOP        .M             3505.8096                   :STOP
STEP        .M             0.1524                      :STEP
NULL        .              -999.25                     :NULL VALUE
COMP        .              STATOILHYDRO                :COMPANY
WELL        .              15/9-F-12                   :WELL
FLD         .              VOLVE                       :FIELD
LOC         .              UNKNOWN                     :LOCATION
CNTY        .              UNKNOWN                     :COUNTY
STAT        .              UNKNOWN                     :STATE
CTRY        .              Norway                      :COUNTRY
SRVC        .              UNKNOWN                     :SERVICE COMPANY
DATE        .              UNKNOWN                     :LOG DATE
UWI         .              NO 15/9-F-12                :UNIQUE WELL ID
XCOORD      .              435050.170000               :SURFACE X
YCOORD      .              6478574.700000              :SURFACE Y
LAT         .              58.441713                   :LATITUDE
LON         .              1.887480                    :LONGITUDE
ELEV        .M             54.9000                     :SURFACE ELEV
ELEV_TYPE   .              KB                          :ELEV TYPE

~Curve Information
#MNEM       .UNIT             API CODE : Curve Description
#-------------------------------------------------------------------------
DEPTH       .M                UNKNOWN  : Measured Dept
BVW         .v/v_decimal      UNKNOWN  : BVW:UNKNOWN:rC:NONE:v1
KLOGH       .mD               UNKNOWN  : KLOGH:UNKNOWN:rC:NONE:v1
PHIF        .v/v_decimal      UNKNOWN  : PHIF:UNKNOWN:rC:NONE:v1
SW          .v/v_decimal      UNKNOWN  : SW:UNKNOWN:rC:NONE:v1
VSH         .v/v_decimal      UNKNOWN  : VSH:UNKNOWN:rC:NONE:v1
# --- LOG MNEMONICS AND UNITS ---
#Depth     BVW        KLOGH      PHIF       SW         VSH       
#M         v/v_decima mD         v/v_decima v/v_decima v/v_decima
~A
# ...
 3120.6948 0.00150000 0.00100000 0.00150000          1 0.36120000
 3120.8472 0.00120000 0.00100000 0.00120000          1 0.36219999
 3120.9996 0.00100000 0.00100000 0.00100000          1 0.36320000
  3121.152 0.00200000 0.00100000 0.00200000          1 0.36529999
 3121.3044 0.00300000 0.00100000 0.00300000          1 0.36739999
 3121.4568 0.00400000 0.00100000 0.00400000          1 0.36959999
 3121.6092 0.00499999 0.00100000 0.00499999          1 0.36539998
 3121.7616 0.00600000 0.00100000 0.00600000          1 0.35859999
  3121.914 0.00700000 0.00100000 0.00700000          1 0.35190001
 3122.0664 0.00800000 0.00100000 0.00800000          1 0.36269998
 3122.2188 0.00899999 0.00100000 0.00899999          1 0.39629998
 3122.3712 0.02370000 0.00100000 0.02370000          1 0.43000000
 3122.5236 0.03979999 0.00100000 0.03979999          1 0.45950001
  3122.676 0.06369999 0.00100000 0.06369999          1 0.46660000
 3122.8284 0.08410000 0.00100000 0.08760000 0.95969998 0.47380000
 3122.9808 0.07660000 0.00100000 0.11150000 0.68709999 0.48089998
 3123.1332 0.06790000 0.00100000 0.11930000 0.56889998 0.46169999
 3123.2856 0.06129999 0.00100000 0.12479999 0.49099999 0.43860000
  3123.438 0.05629999 0.00100000 0.13030000 0.43209999 0.41560000
 3123.5904 0.05380000 0.00100000 0.12049999 0.44670000 0.43140000
 3123.7428 0.05270000 0.00100000 0.10040000 0.52480000 0.47400000
 3123.8952 0.05160000 0.00100000 0.08020000 0.64329999 0.51660001
 3124.0476 0.05220000 0.00100000 0.06400000 0.81620001 0.56669998
    3124.2 0.05660000 0.00100000 0.05660000          1 0.63340002
 3124.3524 0.04930000 0.00100000 0.04930000          1 0.69999998
 3124.5048 0.04129999 0.00100000 0.04129999          1 0.76499998
 3124.6572 0.01379999 0.00100000 0.01379999          1 0.78060001
 3124.8096 0.01379999 0.00100000 0.01379999          1 0.79619997
  3124.962 0.01379999 0.00100000 0.01379999          1 0.81180000
 3125.1144 0.01379999 0.00100000 0.01379999          1 0.74019998
 3125.2668 0.01379999 0.00100000 0.01379999          1 0.63950002
 3125.4192 0.01379999 0.00100000 0.01379999          1 0.53890001
 3125.5716 0.01379999 0.00100000 0.01379999          1 0.45080000
  3125.724 0.03280000 0.15659999 0.03290000 0.99919998 0.34090000
 3125.8764 0.03089999 1.71130001 0.07469999 0.41380000 0.26269999
 3126.0288 0.01150000 15.5394001 0.11609999 0.09929999 0.19310000
 3126.1812 0.00620000 114.732101 0.18799999 0.03319999 0.16050000
 3126.3336 0.00499999 366.551208 0.21449999 0.02339999 0.12800000
  3126.486 0.00439999 1171.07495 0.24089999 0.01820000 0.09539999
 3126.6384 0.00490000 1176.57995 0.24330000 0.02019999 0.09730000
 3126.7908 0.00600000 1051.56494 0.24320000 0.02449999 0.10260000
 3126.9432 0.00870000 939.833007 0.24310000 0.03570000 0.10800000
 3127.0956 0.01290000 878.322387 0.24469999 0.05270000 0.11259999
  3127.248 0.01439999 842.900512 0.24709999 0.05840000 0.11680000
 3127.4004 0.01679999 808.908325 0.24959999 0.06729999 0.12099999
 3127.5528 0.01940000 773.198486 0.25049999 0.07739999 0.12399999
 3127.7052 0.01950000 733.528686 0.24830000 0.07850000 0.12449999
 3127.8576 0.01960000 695.894897 0.24609999 0.07970000 0.12510000
   3128.01 0.01970000 658.749694 0.24410000 0.08089999 0.12600000
 3128.1624 0.01999999 604.472290 0.24449999 0.08179999 0.13050000
 3128.3148 0.02030000 554.666870 0.24500000 0.08269999 0.13510000
 3128.4672 0.02050000 508.965393 0.24549999 0.08359999 0.13969999
 3128.6196 0.02050000 453.578094 0.24629999 0.08330000 0.14599999
  3128.772 0.02040000 400.991302 0.24729999 0.08250000 0.15279999
 3128.9244 0.02030000 354.501190 0.24830000 0.08179999 0.15960000
 3129.0768 0.02030000 306.457885 0.24860000 0.08169999 0.16689999
 3129.2292 0.02040000 259.146911 0.24819999 0.08219999 0.17470000
 3129.3816 0.02050000 219.139694 0.24779999 0.08280000 0.18240000
  3129.534 0.02070000 188.548004 0.24799999 0.08359999 0.18979999
 3129.6864 0.02140000 172.318099 0.24989999 0.08560000 0.19589999
 3129.8388 0.02209999 157.485397 0.25189998 0.08770000 0.20200000
 3129.9912 0.02290000 143.929306 0.25389999 0.09019999 0.20810000
 3130.1436 0.02309999 131.442199 0.25510001 0.09049999 0.21359999
  3130.296 0.02319999 120.033096 0.25630000 0.09049999 0.21899999
 3130.4484 0.02329999 109.614303 0.25740000 0.09070000 0.22439999
 3130.6008 0.02370000 110.166900 0.25720000 0.09200000 0.22390000
 3130.7532 0.02410000 116.289100 0.25619998 0.09409999 0.22050000
 3130.9056 0.02459999 122.751701 0.25519999 0.09629999 0.21699999
  3131.058 0.02490000 129.487304 0.25380000 0.09820000 0.21310000
 3131.2104 0.02500000 136.444900 0.25159999 0.09920000 0.20859999
 3131.3628 0.02500000 143.776596 0.24940000 0.10029999 0.20409999
 3131.5152 0.02510000 149.050292 0.24690000 0.10159999 0.20020000
 3131.6676 0.02569999 133.357192 0.24250000 0.10580000 0.20170000
   3131.82 0.02630000 119.316398 0.23810000 0.11039999 0.20309999
 3131.9724 0.02700000 106.753898 0.23370000 0.11550000 0.20450000
 3132.1248 0.02730000 105.409797 0.23430000 0.11630000 0.20569999
 3132.2772 0.02740000 106.376602 0.23600000 0.11620000 0.20679999
 3132.4296 0.02759999 107.352302 0.23770000 0.11609999 0.20790000
  3132.582 0.02759999 94.4337997 0.24289999 0.11379999 0.21860000
 3132.7344 0.02759999 73.8301010 0.25099998 0.10980000 0.23770000
 3132.8868 0.02749999 57.7218017 0.25909999 0.10610000 0.25679999
 3133.0392 0.02710000 44.4261016 0.26539999 0.10199999 0.27509999
 3133.1916 0.02580000 32.6800003 0.26679998 0.09660000 0.29120001
  3133.344 0.02470000 24.0394992 0.26820001 0.09200000 0.30720001
 3133.4964 0.02380000 17.6835002 0.26960000 0.08810000 0.32330000
 3133.6488 0.02590000 10.8500003 0.25990000 0.09960000 0.33820000
 3133.8012 0.02910000 6.62809991       0.25 0.11659999 0.35310000
 3133.9536 0.03460000 4.04899978 0.23999999 0.14429999 0.36809998
  3134.106 0.03770000 1.57729995 0.22040000 0.17090000 0.39610001
 3134.2584 0.03830000 0.50459998 0.19650000 0.19480000 0.42989999
 3134.4108 0.03900000 0.16140000 0.17260000 0.22570000 0.46369999
 3134.5632 0.03929999 0.03799999 0.12510000 0.31439998 0.49110001
 3134.7156 0.04710000 0.05930000 0.17000000 0.27720001 0.50970000
  3134.868 0.05649999 0.04690000 0.17810000 0.31749999 0.52819997
 3135.0204 0.07169999 0.04699999 0.18739999 0.38289999 0.53630000
 3135.1728 0.06610000 0.22089999 0.20499999 0.32260000 0.47729998
 3135.3252 0.06190000 1.03869998 0.22259999 0.27799999 0.41830000
 3135.4776 0.05849999 4.88430023 0.24029999 0.24359999 0.35929998
   3135.63 0.04470000 10.5676002 0.25209999 0.17710000 0.33259999
 3135.7824 0.03739999 20.0013008 0.26300001 0.14219999 0.31150001
 3135.9348 0.03319999 37.8567008 0.27390000 0.12110000 0.29039999
 3136.0872 0.03170000 51.6944999 0.27939999 0.11339999 0.28020000
 3136.2396 0.03150000 55.3013000 0.28080001 0.11209999 0.27820000
  3136.392 0.03130000 59.1598014 0.28220000 0.11089999 0.27610000
 3136.5444 0.03109999 61.9702987 0.28270000 0.11010000 0.27439999
 3136.6968 0.03109999 61.6768989 0.28099998 0.11060000 0.27309998
 3136.8492 0.03099999 61.3848991 0.27939999 0.11110000 0.27189999
 3137.0016 0.03099999 61.1125984 0.27779999 0.11159999 0.27070000
  3137.154 0.03079999 62.5929985 0.27860000 0.11060000 0.27030000
 3137.3064 0.03060000 64.1092987 0.27939999 0.10960000 0.26980000
 3137.4588 0.03040000 65.6623001 0.28029999 0.10859999 0.26940000
 3137.6112 0.03009999 62.7700996 0.28029999 0.10729999 0.27160000
 3137.7636 0.02960000 58.4911994 0.27990001 0.10589999 0.27469998
  3137.916 0.02920000 54.5038986 0.27959999 0.10450000 0.27779999
 3138.0684 0.03020000 48.9641990 0.27829998 0.10840000 0.28180000
 3138.2208 0.03339999 42.0553016 0.27570000 0.12129999 0.28690001
 3138.3732 0.03849999 36.1212997 0.27320000 0.14079999 0.29199999
 3138.5256 0.04529999 24.6573009 0.26690000 0.16990000 0.30480000
  3138.678 0.04369999 5.39519977 0.24179999 0.18080000 0.35580000
 3138.8304 0.04219999 1.18050003 0.21670000 0.19470000 0.40680000
 3138.9828 0.04069999 0.25830000 0.19149999 0.21269999 0.45780000
 3139.1352 0.04170000 0.21379999 0.17919999 0.23270000 0.45600000
