~Version Information
VERS.                     2.0: CWLS log ASCII Standard Version 2.00
WRAP.                      NO: One line per depth step

~Well Information Block
#MNEM.UNIT                 Value                       Information
#------------              -----                       -----------
STRT.M                    4334.700                    :START
STOP.M                    4561.700                    :STOP
STEP.M                       0.100                    :STEP
NULL.                     -999.25                     :NULL VALUE
COMP.         Statoil Petroleum AS                    :Company
WELL.         15/9-F-11 T2                            :Well
FLD .         VOLVE                                   :Field
LOC .                                                 :Location
PROV.                                                 :Province
CNTY.                                                 :County
STATE.                                                 :State
CTRY.         Norway                                  :Country
DATE.                                                 :Log Date
SRVC.                                                 :Service Company
UWI .                                                 :Unique Well Identifier
API .                                                 :API Number
PD  .         MSL                                     :Permanent Datum
EDF .M            54.900                              :Elevations D.F.
EGL .M           -91.000                              :Elevations G.L.
ELZ .M            54.900                              :Elev. Log Zero
LMF .         DF                                      :Log Measured From

~Curve Information
#MNEM   .UNIT             API CODE Curve Description
#------------             -------- -----------------
DEPTH   .M            00 001 00 00:   0  Depth
BVW     .v/v          00 000 00 00:   1  BVW:CPI:rC:NONE:v1
CARB_FLAG.unitless    00 000 00 00:   2  CARB_FLAG:CPI:rC:NONE:v1
COAL_FLAG.unitless    00 000 00 00:   3  COAL_FLAG:CPI:rC:NONE:v1
KLOGH   .mD           00 000 00 00:   4  KLOGH:CPI:rC:NONE:v1
PHIF    .v/v          00 000 00 00:   5  PHIF:CPI:rC:NONE:v1
SAND_FLAG.unitless    00 000 00 00:   6  SAND_FLAG:CPI:rC:NONE:v1
SW      .v/v          00 000 00 00:   7  SW:CPI:rC:NONE:v1
VSH     .v/v          00 000 00 00:   8  VSH:CPI:rC:NONE:v1

~Parameter Information
#MNEM.UNIT       Value           Description
#------------    -----           -----------
RUN .         1                 :Run number

~Other Information
PETROPHYSICAL INTERPRETATION: OUTPUT

# --- LOG MNEMONICS AND UNITS ---
#Depth     BVW        CARB_FLAG  COAL_FLAG  KLOGH      PHIF       SAND_FLAG  SW         VSH       
#M         v/v        unitless   unitless   mD         v/v        unitless   v/v        v/v       

~A
# ...
  4448.100      0.019      1.000      0.000     66.629      0.020      0.000      0.970      0.037
  4448.200      0.019      1.000      0.000     75.527      0.020      0.000      0.969      0.031
  4448.300      0.019      1.000      0.000     80.435      0.020      0.000      0.968      0.028
  4448.400      0.019      1.000      0.000     83.818      0.020      0.000      0.968      0.026
  4448.500      0.019      1.000      0.000     83.934      0.020      0.000      0.967      0.026
  4448.600      0.019      1.000      0.000     81.846      0.020      0.000      0.966      0.027
  4448.700      0.019      1.000      0.000     85.679      0.020      0.000      0.966      0.025
  4448.800      0.019      1.000      0.000     85.703      0.020      0.000      0.951      0.025
  4448.900      0.019      1.000      0.000     83.986      0.020      0.000      0.952      0.026
  4449.000      0.019      1.000      0.000     80.545      0.020      0.000      0.953      0.028
  4449.100      0.034      1.000      0.000    101.601      0.036      0.000      0.954      0.031
  4449.200      0.071      1.000      0.000    193.161      0.074      0.000      0.956      0.034
  4449.300      0.113      0.000      0.000    439.344      0.119      1.000      0.957      0.034
  4449.400      0.154      0.000      0.000    926.320      0.160      1.000      0.958      0.035
  4449.500      0.183      0.000      0.000   1443.852      0.192      1.000      0.951      0.042
  4449.600      0.199      0.000      0.000   1955.684      0.212      1.000      0.938      0.045
  4449.700      0.204      0.000      0.000   2247.904      0.221      1.000      0.925      0.046
  4449.800      0.203      0.000      0.000   2227.004      0.223      1.000      0.911      0.048
  4449.900      0.198      0.000      0.000   2226.199      0.220      1.000      0.898      0.046
  4450.000      0.191      0.000      0.000   2099.118      0.216      1.000      0.885      0.045
  4450.100      0.184      0.000      0.000   2164.115      0.211      1.000      0.872      0.039
  4450.200      0.177      0.000      0.000   1832.298      0.206      1.000      0.860      0.043
  4450.300      0.170      0.000      0.000   1565.472      0.201      1.000      0.845      0.046
  4450.400      0.168      0.000      0.000   1516.846      0.197      1.000      0.854      0.044
  4450.500      0.172      0.000      0.000   1453.457      0.192      1.000      0.894      0.042
  4450.600      0.174      0.000      0.000   1348.587      0.189      1.000      0.922      0.043
  4450.700      0.176      0.000      0.000   1337.586      0.187      1.000      0.938      0.041
  4450.800      0.174      0.000      0.000   1282.042      0.186      1.000      0.933      0.043
  4450.900      0.176      0.000      0.000   1276.018      0.187      1.000      0.944      0.043
  4451.000      0.187      0.000      0.000   1286.972      0.188      1.000      0.994      0.044
  4451.100      0.190      0.000      0.000   1289.816      0.190      1.000      1.000      0.045
  4451.200      0.193      0.000      0.000   1241.603      0.193      1.000      1.000      0.050
  4451.300      0.193      0.000      0.000   1198.651      0.195      1.000      0.992      0.053
  4451.400      0.192      0.000      0.000   1099.167      0.195      1.000      0.983      0.058
  4451.500      0.193      0.000      0.000    947.208      0.193      1.000      1.000      0.063
  4451.600      0.189      0.000      0.000    835.412      0.191      1.000      0.991      0.067
  4451.700      0.189      0.000      0.000    764.948      0.189      1.000      1.000      0.070
  4451.800      0.190      0.000      0.000    848.182      0.190      1.000      1.000      0.066
  4451.900      0.193      0.000      0.000    956.876      0.193      1.000      1.000      0.062
  4452.000      0.196      0.000      0.000   1087.904      0.196      1.000      1.000      0.059
  4452.100      0.198      0.000      0.000   1304.075      0.198      1.000      1.000      0.052
  4452.200      0.200      0.000      0.000   1446.911      0.200      1.000      1.000      0.049
  4452.300      0.200      0.000      0.000   1537.744      0.200      1.000      1.000      0.046
  4452.400      0.195      0.000      0.000   1620.061      0.200      1.000      0.974      0.044
  4452.500      0.190      0.000      0.000   1661.880      0.200      1.000      0.949      0.042
  4452.600      0.188      0.000      0.000   1674.485      0.199      1.000      0.946      0.041
  4452.700      0.187      0.000      0.000   1660.828      0.197      1.000      0.950      0.040
  4452.800      0.186      0.000      0.000   1433.816      0.193      1.000      0.968      0.043
  4452.900      0.180      0.000      0.000   1079.936      0.181      1.000      0.995      0.046
  4453.000      0.160      0.000      0.000    671.028      0.160      1.000      1.000      0.050
  4453.100      0.129      0.000      0.000    305.002      0.129      1.000      1.000      0.061
  4453.200      0.087      1.000      0.000     67.630      0.094      0.000      0.932      0.102
  4453.300      0.061      1.000      0.000     14.006      0.061      0.000      0.993      0.149
  4453.400      0.039      1.000      0.000      6.411      0.039      0.000      1.000      0.168
  4453.500      0.032      1.000      0.000      8.212      0.032      0.000      1.000      0.149
  4453.600      0.040      1.000      0.000     16.286      0.040      0.000      1.000      0.123
  4453.700      0.054      1.000      0.000     33.365      0.057      0.000      0.948      0.103
  4453.800      0.062      1.000      0.000     55.547      0.077      0.000      0.804      0.097
  4453.900      0.073      1.000      0.000     65.697      0.094      0.000      0.775      0.104
  4454.000      0.085      0.000      0.000     70.664      0.104      1.000      0.814      0.109
  4454.100      0.085      0.000      0.000     59.725      0.106      1.000      0.803      0.119
  4454.200      0.079      0.000      0.000     58.045      0.103      1.000      0.771      0.118
  4454.300      0.075      0.000      0.000     51.638      0.097      0.000      0.779      0.118
  4454.400      0.071      0.000      0.000     50.167      0.089      0.000      0.796      0.112
  4454.500      0.065      0.000      0.000     46.895      0.080      0.000      0.808      0.108
  4454.600      0.055      0.000      0.000     38.430      0.071      0.000      0.774      0.110
  4454.700      0.050      0.000      0.000     22.130      0.063      0.000      0.800      0.129
  4454.800      0.047      0.000      0.000     14.573      0.056      0.000      0.844      0.143
  4454.900      0.043      0.000      0.000     11.157      0.049      0.000      0.884      0.150
  4455.000      0.039      0.000      0.000      9.243      0.041      0.000      0.972      0.151
  4455.100      0.030      0.000      0.000      6.693      0.030      0.000      1.000      0.157
  4455.200      0.020      1.000      0.000      5.495      0.020      0.000      1.000      0.158
  4455.300      0.020      1.000      0.000      4.574      0.020      0.000      1.000      0.167
  4455.400      0.020      1.000      0.000      3.895      0.020      0.000      1.000      0.174
  4455.500      0.020      1.000      0.000      2.846      0.020      0.000      1.000      0.190
  4455.600      0.020      1.000      0.000      2.633      0.020      0.000      1.000      0.193
  4455.700      0.020      1.000      0.000      2.776      0.020      0.000      1.000      0.191
  4455.800      0.020      1.000      0.000      2.448      0.020      0.000      1.000      0.197
  4455.900      0.020      1.000      0.000      2.025      0.020      0.000      1.000      0.206
  4456.000      0.020      1.000      0.000      1.892      0.020      0.000      1.000      0.209
  4456.100      0.020      0.000      0.000      2.398      0.020      0.000      1.000      0.198
