~Version Information
VERS.                     2.0: CWLS log ASCII Standard Version 2.00
WRAP.                      NO: One line per depth step

~Well Information Block
#MNEM.UNIT                 Value                       Information
#------------              -----                       -----------
STRT.M                    4334.700                    :START
STOP.M                    4561.700                    :STOP
STEP.M                       0.100                    :STEP
NULL.                     -999.25                     :NULL VALUE
COMP.         Statoil Petroleum AS                    :Company
WELL.         15/9-F-11 T2                            :Well
FLD .         VOLVE                                   :Field
LOC .                                                 :Location
PROV.                                                 :Province
CNTY.                                                 :County
STATE.                                                 :State
CTRY.         Norway                                  :Country
DATE.                                                 :Log Date
SRVC.                                                 :Service Company
UWI .                                                 :Unique Well Identifier
API .                                                 :API Number
PD  .         MSL                                     :Permanent Datum
EDF .M            54.900                              :Elevations D.F.
EGL .M           -91.000                              :Elevations G.L.
ELZ .M            54.900                              :Elev. Log Zero
LMF .         DF                                      :Log Measured From

~Curve Information
#MNEM   .UNIT             API CODE Curve Description
#------------             -------- -----------------
DEPTH   .M            00 001 00 00:   0  Depth
BVW     .v/v          00 000 00 00:   1  BVW:CPI:rC:NONE:v1
CARB_FLAG.unitless    00 000 00 00:   2  CARB_FLAG:CPI:rC:NONE:v1
COAL_FLAG.unitless    00 000 00 00:   3  COAL_FLAG:CPI:rC:NONE:v1
KLOGH   .mD           00 000 00 00:   4  KLOGH:CPI:rC:NONE:v1
PHIF    .v/v          00 000 00 00:   5  PHIF:CPI:rC:NONE:v1
SAND_FLAG.unitless    00 000 00 00:   6  SAND_FLAG:CPI:rC:NONE:v1
SW      .v/v          00 000 00 00:   7  SW:CPI:rC:NONE:v1
VSH     .v/v          00 000 00 00:   8  VSH:CPI:rC:NONE:v1

~Parameter Information
#MNEM.UNIT       Value           Description
#------------    -----           -----------
RUN .         1                 :Run number

~Other Information
PETROPHYSICAL INTERPRETATION: OUTPUT

# --- LOG MNEMONICS AND UNITS ---
#Depth     BVW        CARB_FLAG  COAL_FLAG  KLOGH      PHIF       SAND_FLAG  SW         VSH       
#M         v/v        unitless   unitless   mD         v/v        unitless   v/v        v/v       

~A
  4334.700      0.119    -999.25    -999.25      0.001      0.119    -999.25      1.000      0.844
  4334.800      0.109    -999.25    -999.25      0.001      0.109    -999.25      1.000      0.814
  4334.900      0.098    -999.25    -999.25      0.001      0.098    -999.25      1.000      0.800
  4335.000      0.091      0.000      0.000      0.001      0.091      0.000      1.000      0.794
  4335.100      0.088      0.000      0.000      0.001      0.088      0.000      1.000      0.785
  4335.200      0.089      0.000      0.000      0.001      0.089      0.000      1.000      0.783
  4335.300      0.090      0.000      0.000      0.001      0.090      0.000      1.000      0.765
  4335.400      0.090      0.000      0.000      0.001      0.090      0.000      1.000      0.763
  4335.500      0.087      0.000      0.000      0.001      0.087      0.000      1.000      0.749
  4335.600      0.081      0.000      0.000      0.001      0.081      0.000      1.000      0.752
  4335.700      0.073      0.000      0.000      0.001      0.073      0.000      1.000      0.764
  4335.800      0.068      0.000      0.000      0.001      0.068      0.000      1.000      0.774
  4335.900      0.068      0.000      0.000      0.001      0.068      0.000      1.000      0.766
  4336.000      0.070      0.000      0.000      0.001      0.070      0.000      1.000      0.728
  4336.100      0.073      0.000      0.000      0.001      0.073      0.000      1.000      0.718
  4336.200      0.074      0.000      0.000      0.001      0.074      0.000      1.000      0.718
  4336.300      0.074      0.000      0.000      0.001      0.074      0.000      1.000      0.731
  4336.400      0.074      0.000      0.000      0.001      0.074      0.000      1.000      0.757
  4336.500      0.074      0.000      0.000      0.001      0.074      0.000      1.000      0.754
  4336.600      0.075      0.000      0.000      0.001      0.075      0.000      1.000      0.757
  4336.700      0.077      0.000      0.000      0.001      0.077      0.000      1.000      0.757
  4336.800      0.078      0.000      0.000      0.001      0.078      0.000      1.000      0.744
  4336.900      0.079      0.000      0.000      0.001      0.079      0.000      1.000      0.738
  4337.000      0.078      0.000      0.000      0.001      0.078      0.000      1.000      0.728
  4337.100      0.076      0.000      0.000      0.001      0.076      0.000      1.000      0.719
  4337.200      0.072      0.000      0.000      0.001      0.072      0.000      1.000      0.706
  4337.300      0.069      0.000      0.000      0.001      0.069      0.000      1.000      0.697
  4337.400      0.069      0.000      0.000      0.001      0.069      0.000      1.000      0.693
  4337.500      0.070      0.000      0.000      0.001      0.070      0.000      1.000      0.696
  4337.600      0.071      0.000      0.000      0.001      0.071      0.000      1.000      0.711
  4337.700      0.071      0.000      0.000      0.001      0.071      0.000      1.000      0.723
  4337.800      0.069      0.000      0.000      0.001      0.069      0.000      1.000      0.733
  4337.900      0.067      0.000      0.000      0.001      0.067      0.000      1.000      0.730
  4338.000      0.068      0.000      0.000      0.001      0.068      0.000      1.000      0.738
  4338.100      0.072      0.000      0.000      0.001      0.072      0.000      1.000      0.756
  4338.200      0.076      0.000      0.000      0.001      0.076      0.000      1.000      0.758
  4338.300      0.078      0.000      0.000      0.001      0.078      0.000      1.000      0.716
  4338.400      0.078      0.000      0.000      0.001      0.078      0.000      1.000      0.696
  4338.500      0.076      0.000      0.000      0.001      0.076      0.000      1.000      0.680
  4338.600      0.073      0.000      0.000      0.001      0.073      0.000      1.000      0.664
  4338.700      0.068      0.000      0.000      0.001      0.068      0.000      1.000      0.647
  4338.800      0.060      0.000      0.000      0.001      0.060      0.000      1.000      0.633
  4338.900      0.050      0.000      0.000      0.001      0.050      0.000      1.000      0.617
  4339.000      0.042      0.000      0.000      0.001      0.042      0.000      1.000      0.621
  4339.100      0.038      0.000      0.000      0.001      0.038      0.000      1.000      0.621
  4339.200      0.040      0.000      0.000      0.001      0.040      0.000      1.000      0.643
  4339.300      0.046      0.000      0.000      0.001      0.046      0.000      1.000      0.660
  4339.400      0.055      0.000      0.000      0.001      0.055      0.000      1.000      0.690
  4339.500      0.063      0.000      0.000      0.001      0.063      0.000      1.000      0.708
  4339.600      0.069      0.000      0.000      0.001      0.069      0.000      1.000      0.719
  4339.700      0.074      0.000      0.000      0.001      0.074      0.000      1.000      0.710
  4339.800      0.077      0.000      0.000      0.001      0.077      0.000      1.000      0.713
  4339.900      0.080      0.000      0.000      0.001      0.080      0.000      1.000      0.714
  4340.000      0.081      0.000      0.000      0.001      0.081      0.000      1.000      0.728
  4340.100      0.082      0.000      0.000      0.001      0.082      0.000      1.000      0.747
  4340.200      0.082      0.000      0.000      0.001      0.082      0.000      1.000      0.744
  4340.300      0.082      0.000      0.000      0.001      0.082      0.000      1.000      0.745
  4340.400      0.081      0.000      0.000      0.001      0.081      0.000      1.000      0.746
  4340.500      0.076      0.000      0.000      0.001      0.076      0.000      1.000      0.747
  4340.600      0.069      0.000      0.000      0.001      0.069      0.000      1.000      0.744
  4340.700      0.064      0.000      0.000      0.001      0.064      0.000      1.000      0.738
  4340.800      0.065      0.000      0.000      0.001      0.065      0.000      1.000      0.738
  4340.900      0.073      0.000      0.000      0.001      0.073      0.000      1.000      0.744
  4341.000      0.081      0.000      0.000      0.001      0.081      0.000      1.000      0.744
  4341.100      0.086      0.000      0.000      0.001      0.086      0.000      1.000      0.724
  4341.200      0.085      0.000      0.000      0.001      0.085      0.000      1.000      0.710
  4341.300      0.082      0.000      0.000      0.001      0.082      0.000      1.000      0.693
  4341.400      0.077      0.000      0.000      0.001      0.077      0.000      1.000      0.650
  4341.500      0.069      0.000      0.000      0.001      0.069      0.000      1.000      0.618
  4341.600      0.057      0.000      0.000      0.002      0.057      0.000      1.000      0.575
  4341.700      0.042      0.000      0.000      0.002      0.042      0.000      1.000      0.569
  4341.800      0.027      0.000      0.000      0.001      0.027      0.000      1.000      0.564
  4341.900      0.020      0.000      0.000      0.001      0.020      0.000      1.000      0.567
  4342.000      0.020      0.000      0.000      0.001      0.020      0.000      1.000      0.602
  4342.100      0.026      0.000      0.000      0.001      0.026      0.000      1.000      0.629
  4342.200      0.036      0.000      0.000      0.001      0.036      0.000      1.000      0.646
  4342.300      0.047      0.000      0.000      0.001      0.047      0.000      1.000      0.664
  4342.400      0.056      0.000      0.000      0.001      0.056      0.000      1.000      0.693
  4342.500      0.064      0.000      0.000      0.001      0.064      0.000      1.000      0.722
  4342.600      0.071      0.000      0.000      0.001      0.071      0.000      1.000      0.742
  4342.700      0.077      0.000      0.000      0.001      0.077      0.000      1.000      0.751
