~Version Information
VERS.                     2.0: CWLS log ASCII Standard Version 2.00
WRAP.                      NO: One line per depth step

~Well Information Block
#MNEM.UNIT                 Value                       Information
#------------              -----                       -----------
STRT.M                    4334.700                    :START
STOP.M                    4561.700                    :STOP
STEP.M                       0.100                    :STEP
NULL.                     -999.25                     :NULL VALUE
COMP.         Statoil Petroleum AS                    :Company
WELL.         15/9-F-11 T2                            :Well
FLD .         VOLVE                                   :Field
LOC .                                                 :Location
PROV.                                                 :Province
CNTY.                                                 :County
STATE.                                                 :State
CTRY.         Norway                                  :Country
DATE.                                                 :Log Date
SRVC.                                                 :Service Company
UWI .                                                 :Unique Well Identifier
API .                                                 :API Number
PD  .         MSL                                     :Permanent Datum
EDF .M            54.900                              :Elevations D.F.
EGL .M           -91.000                              :Elevations G.L.
ELZ .M            54.900                              :Elev. Log Zero
LMF .         DF                                      :Log Measured From

~Curve Information
#MNEM   .UNIT             API CODE Curve Description
#------------             -------- -----------------
DEPTH   .M            00 001 00 00:   0  Depth
BVW     .v/v          00 000 00 00:   1  BVW:CPI:rC:NONE:v1
CARB_FLAG.unitless    00 000 00 00:   2  CARB_FLAG:CPI:rC:NONE:v1
COAL_FLAG.unitless    00 000 00 00:   3  COAL_FLAG:CPI:rC:NONE:v1
KLOGH   .mD           00 000 00 00:   4  KLOGH:CPI:rC:NONE:v1
PHIF    .v/v          00 000 00 00:   5  PHIF:CPI:rC:NONE:v1
SAND_FLAG.unitless    00 000 00 00:   6  SAND_FLAG:CPI:rC:NONE:v1
SW      .v/v          00 000 00 00:   7  SW:CPI:rC:NONE:v1
VSH     .v/v          00 000 00 00:   8  VSH:CPI:rC:NONE:v1

~Parameter Information
#MNEM.UNIT       Value           Description
#------------    -----           -----------
RUN .         1                 :Run number

~Other Information
PETROPHYSICAL INTERPRETATION: OUTPUT

# --- LOG MNEMONICS AND UNITS ---
#Depth     BVW        CARB_FLAG  COAL_FLAG  KLOGH      PHIF       SAND_FLAG  SW         VSH       
#M         v/v        unitless   unitless   mD         v/v        unitless   v/v        v/v       

~A
# ...
  4383.300      0.107      0.000      0.000      0.512      0.107      0.000      1.000      0.350
  4383.400      0.110      0.000      0.000      0.435      0.110      0.000      1.000      0.360
  4383.500      0.119      0.000      0.000      0.401      0.119      0.000      1.000      0.373
  4383.600      0.130      0.000      0.000      0.668      0.130      0.000      1.000      0.357
  4383.700      0.134      0.000      0.000      1.018      0.134      0.000      1.000      0.341
  4383.800      0.131      0.000      0.000      1.941      0.131      0.000      1.000      0.307
  4383.900      0.120      0.000      0.000      1.826      0.120      0.000      1.000      0.300
  4384.000      0.105      0.000      0.000      1.438      0.105      0.000      1.000      0.298
  4384.100      0.086      0.000      0.000      1.155      0.086      0.000      1.000      0.292
  4384.200      0.068      0.000      0.000      1.013      0.068      0.000      1.000      0.282
  4384.300      0.056      0.000      0.000      0.908      0.056      0.000      1.000      0.276
  4384.400      0.050      0.000      0.000      0.789      0.050      0.000      1.000      0.279
  4384.500      0.052      0.000      0.000      0.731      0.052      0.000      1.000      0.284
  4384.600      0.058      0.000      0.000      0.683      0.058      0.000      1.000      0.292
  4384.700      0.064      0.000      0.000      0.689      0.064      0.000      1.000      0.297
  4384.800      0.069      0.000      0.000      0.699      0.069      0.000      1.000      0.300
  4384.900      0.073      0.000      0.000      0.650      0.073      0.000      1.000      0.308
  4385.000      0.078      0.000      0.000      0.774      0.078      0.000      1.000      0.304
  4385.100      0.085      0.000      0.000      0.939      0.085      0.000      1.000      0.301
  4385.200      0.090      0.000      0.000      1.255      0.090      0.000      1.000      0.291
  4385.300      0.090      0.000      0.000      1.555      0.090      0.000      1.000      0.281
  4385.400      0.086      0.000      0.000      1.341      0.086      0.000      1.000      0.284
  4385.500      0.075      0.000      0.000      1.220      0.075      0.000      1.000      0.280
  4385.600      0.060      0.000      0.000      0.927      0.060      0.000      1.000      0.279
  4385.700      0.039      0.000      0.000      0.795      0.039      0.000      1.000      0.268
  4385.800      0.020      0.000      0.000      0.001      0.020      0.000      1.000      0.247
  4385.900      0.020      1.000      0.000      0.001      0.020      0.000      1.000      0.246
  4386.000      0.020      1.000      0.000      0.001      0.020      0.000      1.000      0.272
  4386.100      0.020      1.000      0.000      0.001      0.020      0.000      1.000      0.309
  4386.200      0.020      1.000      0.000      0.001      0.020      0.000      1.000      0.364
  4386.300      0.020      1.000      0.000      0.001      0.020      0.000      1.000      0.404
  4386.400      0.020      1.000      0.000      0.001      0.020      0.000      1.000      0.450
  4386.500      0.020      0.000      0.000      0.001      0.020      0.000      1.000      0.484
  4386.600      0.020      0.000      0.000      0.001      0.020      0.000      1.000      0.526
  4386.700      0.020      0.000      0.000      0.001      0.020      0.000      1.000      0.557
  4386.800      0.020      1.000      0.000      0.002      0.020      0.000      1.000      0.553
  4386.900      0.020      1.000      0.000      0.002      0.020      0.000      1.000      0.545
  4387.000      0.020      1.000      0.000      0.002      0.020      0.000      1.000      0.538
  4387.100      0.020      1.000      0.000      0.002      0.020      0.000      1.000      0.536
  4387.200      0.020      1.000      0.000      0.001      0.020      0.000      1.000      0.561
  4387.300      0.020      1.000      0.000      0.001      0.020      0.000      1.000      0.565
  4387.400      0.020      1.000      0.000      0.001      0.020      0.000      1.000      0.558
  4387.500      0.020      1.000      0.000      0.002      0.020      0.000      1.000      0.529
  4387.600      0.020      1.000      0.000      0.003      0.020      0.000      1.000      0.473
  4387.700      0.020      1.000      0.000      0.003      0.020      0.000      1.000      0.410
  4387.800      0.020      1.000      0.000      0.003      0.020      0.000      1.000      0.372
  4387.900      0.020      1.000      0.000      0.003      0.020      0.000      1.000      0.326
  4388.000      0.020      1.000      0.000      0.003      0.020      0.000      1.000      0.278
  4388.100      0.020      1.000      0.000      0.003      0.020      0.000      1.000      0.260
  4388.200      0.020      1.000      0.000      0.003      0.020      0.000      1.000      0.269
  4388.300      0.020      1.000      0.000      0.003      0.020      0.000      1.000      0.311
  4388.400      0.020      1.000      0.000      0.003      0.020      0.000      1.000      0.359
  4388.500      0.020      1.000      0.000      0.003      0.020      0.000      1.000      0.392
  4388.600      0.020      1.000      0.000      0.003      0.020      0.000      1.000      0.408
  4388.700      0.020      1.000      0.000      0.003      0.020      0.000      1.000      0.443
  4388.800      0.020      1.000      0.000      0.003      0.020      0.000      1.000      0.484
  4388.900      0.020      1.000      0.000      0.003      0.020      0.000      1.000      0.487
  4389.000      0.020      1.000      0.000      0.003      0.020      0.000      1.000      0.477
  4389.100      0.020      1.000      0.000      0.003      0.020      0.000      1.000      0.451
  4389.200      0.020      1.000      0.000      0.003      0.020      0.000      1.000      0.443
  4389.300      0.020      1.000      0.000      0.003      0.020      0.000      1.000      0.438
  4389.400      0.020      1.000      0.000      0.003      0.020      0.000      1.000      0.399
  4389.500      0.020      1.000      0.000      0.003      0.020      0.000      1.000      0.360
  4389.600      0.020      1.000      0.000      0.003      0.020      0.000      1.000      0.329
  4389.700      0.020      1.000      0.000      0.003      0.020      0.000      1.000      0.315
  4389.800      0.020      1.000      0.000      0.003      0.020      0.000      1.000      0.308
  4389.900      0.020      1.000      0.000      0.003      0.020      0.000      1.000      0.320
  4390.000      0.020      1.000      0.000      0.003      0.020      0.000      1.000      0.324
  4390.100      0.020      1.000      0.000      0.003      0.020      0.000      1.000      0.331
  4390.200      0.020      1.000      0.000      0.003      0.020      0.000      1.000      0.335
  4390.300      0.020      1.000      0.000      0.003      0.020      0.000      1.000      0.326
  4390.400      0.020      1.000      0.000      0.003      0.020      0.000      1.000      0.320
  4390.500      0.020      1.000      0.000      0.003      0.020      0.000      1.000      0.340
  4390.600      0.020      1.000      0.000      0.003      0.020      0.000      1.000      0.351
  4390.700      0.020      1.000      0.000      0.003      0.020      0.000      1.000      0.392
  4390.800      0.020      0.000      0.000      0.003      0.020      0.000      1.000      0.450
  4390.900      0.040      0.000      0.000      0.003      0.040      0.000      1.000      0.509
  4391.000      0.063      0.000      0.000      0.003      0.063      0.000      1.000      0.554
  4391.100      0.072      0.000      0.000      0.003      0.072      0.000      1.000      0.573
  4391.200      0.072      0.000      0.000      0.002      0.072      0.000      1.000      0.592
  4391.300      0.067      0.000      0.000      0.002      0.067      0.000      1.000      0.592
