~Version Information
VERS.                     2.0: CWLS log ASCII Standard Version 2.00
WRAP.                      NO: One line per depth step

~Well Information Block
#MNEM       .UNIT          Value                       Information
#-------------------------------------------------------------------------
STRT        .M             3102.102                    :START
STOP        .M             3505.8096                   :STOP
STEP        .M             0.1524                      :STEP
NULL        .              -999.25                     :NULL VALUE
COMP        .              STATOILHYDRO                :COMPANY
WELL        .              15/9-F-12                   :WELL
FLD         .              VOLVE                       :FIELD
LOC         .              UNKNOWN                     :LOCATION
CNTY        .              UNKNOWN                     :COUNTY
STAT        .              UNKNOWN                     :STATE
CTRY        .              Norway                      :COUNTRY
SRVC        .              UNKNOWN                     :SERVICE COMPANY
DATE        .              UNKNOWN                     :LOG DATE
UWI         .              NO 15/9-F-12                :UNIQUE WELL ID
XCOORD      .              435050.170000               :SURFACE X
YCOORD      .              6478574.700000              :SURFACE Y
LAT         .              58.441713                   :LATITUDE
LON         .              1.887480                    :LONGITUDE
ELEV        .M             54.9000                     :SURFACE ELEV
ELEV_TYPE   .              KB                          :ELEV TYPE

~Curve Information
#MNEM       .UNIT             API CODE : Curve Description
#-------------------------------------------------------------------------
DEPTH       .M                UNKNOWN  : Measured Dept
BVW         .v/v_decimal      UNKNOWN  : BVW:UNKNOWN:rC:NONE:v1
KLOGH       .mD               UNKNOWN  : KLOGH:UNKNOWN:rC:NONE:v1
PHIF        .v/v_decimal      UNKNOWN  : PHIF:UNKNOWN:rC:NONE:v1
SW          .v/v_decimal      UNKNOWN  : SW:UNKNOWN:rC:NONE:v1
VSH         .v/v_decimal      UNKNOWN  : VSH:UNKNOWN:rC:NONE:v1
# --- LOG MNEMONICS AND UNITS ---
#Depth     BVW        KLOGH      PHIF       SW         VSH       
#M         v/v_decima mD         v/v_decima v/v_decima v/v_decima
~A
# ...
 3343.8084 0.07270000 0.00380000 0.07270000          1 0.61049997
 3343.9608 0.06270000 0.00289999 0.06270000          1 0.59119999
 3344.1132 0.06379999 0.00260000 0.06379999          1 0.61419999
 3344.2656 0.06880000 0.00249999 0.06880000          1 0.65189999
  3344.418 0.07379999 0.00230000 0.07379999          1 0.68959999
 3344.5704 0.07729999 0.00209999 0.07729999          1 0.72659999
 3344.7228 0.07890000 0.00170000 0.07890000          1 0.76289999
 3344.8752 0.08060000 0.00139999 0.08060000          1 0.79909998
 3345.0276 0.08320000 0.00139999 0.08320000          1 0.81699997
   3345.18 0.08980000 0.00289999 0.08980000          1 0.75150001
 3345.3324 0.09650000 0.00590000 0.09650000          1 0.68610000
 3345.4848 0.11819999 0.04430000 0.13549999 0.87250000 0.62070000
 3345.6372 0.09030000 0.00659999 0.09030000          1 0.63389998
 3345.7896 0.07530000 0.00310000 0.07530000          1 0.65579998
  3345.942 0.06030000 0.00150000 0.06030000          1 0.67769998
 3346.0944 0.05669999 0.00109999 0.05669999          1 0.69969999
 3346.2468 0.05999999 0.00109999 0.05999999          1 0.72170001
 3346.3992 0.06340000 0.00109999 0.06340000          1 0.74379998
 3346.5516 0.06499999 0.00100000 0.06499999          1 0.76190000
  3346.704 0.06329999 0.00100000 0.06329999          1 0.77240002
 3346.8564 0.06170000 0.00100000 0.06170000          1 0.78280001
 3347.0088 0.06010000 0.00100000 0.06010000          1 0.79170000
 3347.1612 0.06010000 0.00100000 0.06010000          1 0.77569997
 3347.3136 0.06010000 0.00100000 0.06010000          1 0.75970000
  3347.466 0.06010000 0.00100000 0.06010000          1 0.74370002
 3347.6184 0.06270000 0.00109999 0.06270000          1 0.73360002
 3347.7708 0.06599999 0.00130000 0.06599999          1 0.72530001
 3347.9232 0.06939999 0.00159999 0.06939999          1 0.71689999
 3348.0756 0.07020000 0.00170000 0.07020000          1 0.71770000
  3348.228 0.06849999 0.00139999 0.06849999          1 0.72790002
 3348.3804 0.06689999 0.00130000 0.06689999          1 0.73809999
 3348.5328 0.06409999 0.00100000 0.06409999          1 0.75209999
 3348.6852 0.05750000 0.00100000 0.05750000          1 0.77960002
 3348.8376 0.05079999 0.00100000 0.05079999          1 0.80720001
   3348.99 0.04419999 0.00100000 0.04419999          1 0.83469998
 3349.1424 0.04369999 0.00100000 0.04369999          1 0.84289997
 3349.2948 0.04369999 0.00100000 0.04369999          1 0.84969997
 3349.4472 0.04369999 0.00100000 0.04369999          1 0.85640001
 3349.5996 0.04809999 0.00100000 0.04809999          1 0.85820001
  3349.752 0.05469999 0.00100000 0.05469999          1 0.85729998
 3349.9044 0.06140000 0.00100000 0.06140000          1 0.85629999
 3350.0568 0.07050000 0.00100000 0.07050000          1 0.84659999
 3350.2092 0.08389999 0.00139999 0.08389999          1 0.82230001
 3350.3616 0.09719999 0.00279999 0.09719999          1 0.79790002
  3350.514 0.10790000 0.00490000 0.10790000          1 0.77810001
 3350.6664 0.09290000 0.00230000 0.09290000          1 0.80430001
 3350.8188 0.07789999 0.00100000 0.07789999          1 0.83050000
 3350.9712 0.06289999 0.00100000 0.06289999          1 0.85670000
 3351.1236 0.06419999 0.00100000 0.06419999          1 0.86330002
  3351.276 0.06920000 0.00100000 0.06920000          1 0.86540001
 3351.4284 0.07419999 0.00100000 0.07419999          1 0.86750000
 3351.5808 0.08359999 0.00109999 0.08359999          1 0.85850000
 3351.7332 0.09690000 0.00209999 0.09690000          1 0.83950001
 3351.8856 0.11020000 0.00400000 0.11020000          1 0.82050001
  3352.038 0.11860000 0.00639999 0.11860000          1 0.80279999
 3352.1904 0.11190000 0.00540000 0.11190000          1 0.78860002
 3352.3428 0.10520000 0.00449999 0.10520000          1 0.77450001
 3352.4952 0.09860000 0.00380000 0.09860000          1 0.76039999
 3352.6476 0.09350000 0.00480000 0.09350000          1 0.69809997
    3352.8 0.08850000 0.00609999 0.08850000          1 0.63419997
 3352.9524 0.08349999 0.00779999 0.08349999          1 0.57039999
 3353.1048 0.08429999 0.01190000 0.08429999          1 0.51399999
 3353.2572 0.08760000 0.01950000 0.08760000          1 0.46099999
 3353.4096 0.09089999 0.03220000 0.09089999          1 0.40810000
  3353.562 0.09560000 0.03979999 0.09560000          1 0.40459999
 3353.7144 0.10230000 0.03240000 0.10230000          1 0.47310000
 3353.8668 0.10890000 0.02630000 0.10890000          1 0.54170000
 3354.0192 0.11429999 0.02050000 0.11429999          1 0.60909998
 3354.1716 0.11100000 0.01190000 0.11100000          1 0.66860002
  3354.324 0.10769999 0.00689999 0.10769999          1 0.72820001
 3354.4764 0.10429999 0.00400000 0.10429999          1 0.78769999
 3354.6288 0.08969999 0.00240000 0.08969999          1 0.77929997
 3354.7812 0.07310000 0.00139999 0.07310000          1 0.75840002
 3354.9336 0.05640000 0.00100000 0.05640000          1 0.73750001
  3355.086 0.05579999 0.00100000 0.05579999          1 0.71560001
 3355.2384 0.06740000 0.00179999 0.06740000          1 0.69300001
 3355.3908 0.07909999 0.00329999 0.07909999          1 0.67040002
 3355.5432 0.08980000 0.00559999 0.08980000          1 0.65380001
 3355.6956 0.09809999 0.00789999 0.09809999          1 0.65280002
  3355.848 0.10639999 0.01109999 0.10639999          1 0.65179997
 3356.0004 0.13320000 0.05620000 0.14669999 0.90829998 0.65079998
 3356.1528 0.10469999 0.01119999 0.10469999          1 0.64069998
 3356.3052 0.09470000 0.00810000 0.09470000          1 0.63050001
 3356.4576 0.08470000 0.00579999 0.08470000          1 0.62040001
   3356.61 0.08439999 0.00559999 0.08439999          1 0.62410002
 3356.7624 0.08770000 0.00600000 0.08770000          1 0.63309997
 3356.9148 0.09099999 0.00639999 0.09099999          1 0.64219999
 3357.0672 0.09510000 0.00719999 0.09510000          1 0.64950001
 3357.2196 0.10010000 0.00850000 0.10010000          1 0.65490001
  3357.372 0.10509999 0.00999999 0.10509999          1 0.66019999
 3357.5244 0.10899999 0.01130000 0.10899999          1 0.66479998
 3357.6768 0.10740000 0.01049999 0.10740000          1 0.66579997
 3357.8292 0.10570000 0.00970000 0.10570000          1 0.66670000
 3357.9816 0.10400000 0.00910000 0.10400000          1 0.66759997
  3358.134 0.09939999 0.00789999 0.09939999          1 0.66089999
 3358.2864 0.09440000 0.00680000 0.09440000          1 0.65310001
 3358.4388 0.08940000 0.00590000 0.08940000          1 0.64539998
 3358.5912 0.08839999 0.00570000 0.08839999          1 0.64490002
 3358.7436 0.09009999 0.00590000 0.09009999          1 0.64920002
  3358.896 0.09179999 0.00609999 0.09179999          1 0.65359997
 3359.0484 0.09290000 0.00630000 0.09290000          1 0.65469998
 3359.2008 0.09290000 0.00659999 0.09290000          1 0.64889997
 3359.3532 0.09290000 0.00689999 0.09290000          1 0.64319998
 3359.5056 0.09269999 0.00710000 0.09269999          1 0.63800001
  3359.658 0.08770000 0.00540000 0.08770000          1 0.64829999
 3359.8104 0.08269999 0.00410000 0.08269999          1 0.65869998
 3359.9628 0.07769999 0.00310000 0.07769999          1 0.66909998
 3360.1152 0.08030000 0.00350000 0.08030000          1 0.66670000
 3360.2676 0.08529999 0.00449999 0.08529999          1 0.66030001
   3360.42 0.09030000 0.00570000 0.09030000          1 0.65380001
 3360.5724 0.09610000 0.00749999 0.09610000          1 0.64800000
 3360.7248 0.10270000 0.01020000 0.10270000          1 0.64310002
 3360.8772 0.10939999 0.01379999 0.10939999          1 0.63810002
 3361.0296 0.12909999 0.06880000 0.14890000 0.86699998 0.63470000
  3361.182 0.13120000 0.07379999 0.15119999 0.86790001 0.63749998
 3361.3344 0.13339999 0.07930000 0.15350000 0.86940002 0.64039999
 3361.4868 0.13570000 0.08510000 0.15569999 0.87159997 0.64319998
 3361.6392 0.13639999 0.07639999 0.15430000 0.88419997 0.65049999
 3361.7916 0.13689999 0.06740000 0.15250000 0.89800000 0.65820002
  3361.944 0.13740000 0.05950000 0.15070000 0.91210001 0.66579997
 3362.0964 0.13740000 0.05950000 0.14959999 0.91829997 0.65950000
 3362.2488 0.11479999 0.01630000 0.11479999          1 0.64509999
