~Version Information
VERS.                     2.0: CWLS log ASCII Standard Version 2.00
WRAP.                      NO: One line per depth step

~Well Information Block
#MNEM.UNIT                 Value                       Information
#------------              -----                       -----------
STRT.M                     188.500                    :START
STOP.M                     346.700                    :STOP
STEP.M                       0.100                    :STEP
NULL.                     -999.25                     :NULL VALUE
COMP.         STATOIL PETRPOLEUM AS                   :Company
WELL.         15/9-F-11                               :Well
FLD .         VOLVE                                   :Field
LOC .         Maersk Inspirer                         :Location
PROV.                                                 :Province
CNTY.                                                 :County
STATE.                                                 :State
CTRY.         Norway                                  :Country
DATE.                                                 :Log Date
SRVC.                                                 :Service Company
UWI .                                                 :Unique Well Identifier
API .                                                 :API Number
LATI.         058 26' 29.960" N    DMS                :Latitude
LONG.         001 53' 14.870" E    DMS                :Longtitude
PD  .         MSL                                     :Permanent Datum
EDF .M            54.900                              :Elevations D.F.
EGL .M           -91.000                              :Elevations G.L.
WD  .M           -91.000                              :Water Depth
ELZ .M            54.900                              :Elev. Log Zero

~Curve Information
#MNEM   .UNIT             API CODE Curve Description
#------------             -------- -----------------
DEPTH   .M            00 001 00 00:   0  Depth
BS      .inches       00 000 00 00:   1  BS:COMPOSITE:rC:NONE:v1
GR      .API          30 150 01 01:   2  GR:COMPOSITE:rC:NONE:v1
RACEHM  .ohm.m        95 220 00 01:   3  RACEHM:COMPOSITE:rC:NONE:v1
RACELM  .ohm.m        00 524 01 00:   4  RACELM:COMPOSITE:rC:NONE:v1
RD      .ohm.m        00 000 00 00:   5  RD:COMPOSITE:rC:NONE:v1
RM      .ohm.m        00 000 00 00:   6  RM:COMPOSITE:rC:NONE:v1
ROP     .m/hr         00 000 00 00:   7  ROP:COMPOSITE:rC:NONE:v1
RPCEHM  .ohm.m        00 000 00 00:   8  RPCEHM:COMPOSITE:rC:NONE:v1
RPCELM  .ohm.m        00 000 00 00:   9  RPCELM:COMPOSITE:rC:NONE:v1
RT      .ohm.m        00 000 00 00:  10  RT:COMPOSITE:rC:NONE:v1

~Parameter Information
#MNEM.UNIT       Value           Description
#------------    -----           -----------
RUN .         1                 :Run number

~Other Information
PETROPHYSICAL INTERPRETATION: INPUT

# --- LOG MNEMONICS AND UNITS ---
#Depth     BS         GR         RACEHM     RACELM     RD         RM         ROP        RPCEHM     RPCELM     RT        
#M         inches     API        ohm.m      ohm.m      ohm.m      ohm.m      m/hr       ohm.m      ohm.m      ohm.m     

~A
# ...
   248.800     26.000      2.300      0.279      0.366      0.293      0.287      8.614      0.287      0.293      0.287
   248.900     26.000      2.900      0.271      0.373      0.289      0.263      8.771      0.263      0.289      0.263
   249.000     26.000      3.600      0.262      0.354      0.283      0.270      8.929      0.270      0.283      0.270
   249.100     26.000      4.200      0.263      0.345      0.276      0.271      9.081      0.271      0.276      0.271
   249.200     26.000      4.900      0.261      0.328      0.276      0.274      9.232      0.274      0.276      0.274
   249.300     26.000      4.700      0.264      0.350      0.282      0.272      9.384      0.272      0.282      0.272
   249.400     26.000      4.900      0.255      0.347      0.278      0.276      9.531      0.276      0.278      0.276
   249.500     26.000      4.700      0.259      0.343      0.275      0.274      9.677      0.274      0.275      0.274
   249.600     26.000      4.900      0.265      0.354      0.287      0.270      9.824      0.270      0.287      0.270
   249.700     26.000      4.400      0.265      0.362      0.295      0.269     10.092      0.269      0.294      0.269
   249.800     26.000      3.800      0.284      0.371      0.307      0.273     10.361      0.273      0.307      0.273
   249.900     26.000      3.400      0.297      0.374      0.313      0.280     10.629      0.280      0.313      0.280
   250.000     26.000      3.500      0.308      0.381      0.319      0.283     11.082      0.283      0.319      0.283
   250.100     26.000      3.600      0.333      0.395      0.335      0.293     11.535      0.293      0.335      0.293
   250.200     26.000      3.900      0.335      0.404      0.343      0.300     11.988      0.299      0.343      0.300
   250.300     26.000      4.700      0.347      0.412      0.355      0.313     12.490      0.313      0.355      0.313
   250.400     26.000      4.700      0.355      0.426      0.358      0.336     12.993      0.336      0.358      0.336
   250.500     26.000      5.400      0.362      0.441      0.368      0.355     13.496      0.355      0.368      0.355
   250.600     26.000      6.300      0.356      0.461      0.378      0.356     13.968      0.356      0.378      0.356
   250.700     26.000      6.600      0.371      0.481      0.391      0.380     14.439      0.380      0.391      0.380
   250.800     26.000      6.800      0.364      0.499      0.396      0.404     14.911      0.404      0.396      0.404
   250.900     26.000      7.800      0.382      0.539      0.426      0.405     15.342      0.405      0.426      0.405
   251.000     26.000      9.500      0.438      0.581      0.466      0.400     15.773      0.400      0.466      0.400
   251.100     26.000     10.200      0.514      0.624      0.513      0.413     16.204      0.413      0.513      0.413
   251.200     26.000     10.200      0.556      0.661      0.556      0.428     16.107      0.428      0.556      0.428
   251.300     26.000      9.200      0.572      0.658      0.568      0.465     16.010      0.465      0.568      0.465
   251.400     26.000     10.100      0.622      0.716      0.595      0.463     15.913      0.463      0.595      0.463
   251.500     26.000     10.600      0.642      0.738      0.656      0.517     11.808      0.517      0.656      0.517
   251.600     26.000      9.500      0.645      0.742      0.593      0.566      7.703      0.566      0.593      0.566
   251.700     26.000      9.300      0.690      0.746      0.634      0.426      3.598      0.426      0.635      0.426
   251.800     26.000      9.200      0.642      0.766      0.620      0.521      3.787      0.521      0.620      0.521
   251.900     26.000     10.300      0.650      0.766      0.617      0.509      3.976      0.509      0.617      0.509
   252.000     26.000     10.000      0.610      0.771      0.577      0.486      4.165      0.486      0.577      0.486
   252.100     26.000      9.700      0.607      0.794      0.558      0.490      4.353      0.490      0.558      0.490
   252.200     26.000     10.300      0.674      0.773      0.559      0.420      4.542      0.420      0.559      0.420
   252.300     26.000     10.500      0.607      0.760      0.579      0.411      4.731      0.411      0.579      0.411
   252.400     26.000      9.900      0.575      0.770      0.574      0.428      4.920      0.428      0.574      0.428
   252.500     26.000      9.100      0.566      0.782      0.532      0.423      5.108      0.423      0.532      0.423
   252.600     26.000      8.900      0.577      0.756      0.541      0.385      5.297      0.385      0.541      0.385
   252.700     26.000      9.200      0.530      0.765      0.537      0.473      5.486      0.473      0.537      0.473
   252.800     26.000      9.600      0.525      0.716      0.571      0.521      5.675      0.521      0.571      0.521
   252.900     26.000      9.500      0.502      0.747      0.513      0.472      5.863      0.472      0.513      0.472
   253.000     26.000      9.100      0.500      0.736      0.510      0.454      5.352      0.454      0.510      0.454
   253.100     26.000      9.900      0.539      0.718      0.530      0.424      4.841      0.424      0.530      0.424
   253.200     26.000     11.100      0.501      0.755      0.492      0.423      4.330      0.423      0.491      0.423
   253.300     26.000     11.200      0.525      0.726      0.517      0.426      7.107      0.426      0.517      0.426
   253.400     26.000     10.500      0.552      0.724      0.528      0.462      9.883      0.462      0.528      0.462
   253.500     26.000     10.300      0.594      0.696      0.507      0.427     12.660      0.427      0.507      0.427
   253.600     26.000      9.200      0.619      0.693      0.551      0.377     15.467      0.377      0.551      0.377
   253.700     26.000      8.900      0.613      0.697      0.530      0.344     18.274      0.344      0.530      0.344
   253.800     26.000      9.900      0.655      0.722      0.512      0.517     21.081      0.517      0.512      0.517
   253.900     26.000      9.300      0.582      0.703      0.535      0.323     22.969      0.323      0.535      0.323
   254.000     26.000      8.700      0.603      0.700      0.503      0.386     24.858      0.387      0.503      0.386
   254.100     26.000     10.200      0.590      0.717      0.460      0.375     26.746      0.375      0.460      0.375
   254.200     26.000     10.300      0.526      0.693      0.468      0.388     27.032      0.388      0.468      0.388
   254.300     26.000     11.200      0.464      0.685      0.460      0.341     27.318      0.341      0.460      0.341
   254.400     26.000     12.800      0.456      0.671      0.449      0.347     27.605      0.347      0.449      0.347
   254.500     26.000     12.900      0.442      0.664      0.443      0.387     28.052      0.387      0.442      0.387
   254.600     26.000     12.400      0.427      0.673      0.451      0.395     28.500      0.395      0.451      0.395
   254.700     26.000     11.400      0.406      0.667      0.420      0.334     28.947      0.334      0.420      0.334
   254.800     26.000     10.900      0.401      0.657      0.437      0.385     29.243      0.385      0.437      0.385
   254.900     26.000     11.400      0.420      0.685      0.442      0.406     29.539      0.406      0.442      0.406
   255.000     26.000     11.200      0.458      0.688      0.494      0.433     29.835      0.433      0.494      0.433
   255.100     26.000     11.900      0.512      0.693      0.506      0.462     29.375      0.462      0.506      0.462
   255.200     26.000     13.100      0.508      0.724      0.525      0.463     28.915      0.463      0.525      0.463
   255.300     26.000     14.400      0.532      0.752      0.554      0.458     28.455      0.458      0.554      0.458
   255.400     26.000     15.100      0.558      0.769      0.579      0.513     27.860      0.513      0.579      0.513
