~Version Information
VERS.                     2.0: CWLS log ASCII Standard Version 2.00
WRAP.                      NO: One line per depth step

~Well Information Block
#MNEM.UNIT                 Value                       Information
#------------              -----                       -----------
STRT.M                     188.500                    :START
STOP.M                     346.700                    :STOP
STEP.M                       0.100                    :STEP
NULL.                     -999.25                     :NULL VALUE
COMP.         STATOIL PETRPOLEUM AS                   :Company
WELL.         15/9-F-11                               :Well
FLD .         VOLVE                                   :Field
LOC .         Maersk Inspirer                         :Location
PROV.                                                 :Province
CNTY.                                                 :County
STATE.                                                 :State
CTRY.         Norway                                  :Country
DATE.                                                 :Log Date
SRVC.                                                 :Service Company
UWI .                                                 :Unique Well Identifier
API .                                                 :API Number
LATI.         058 26' 29.960" N    DMS                :Latitude
LONG.         001 53' 14.870" E    DMS                :Longtitude
PD  .         MSL                                     :Permanent Datum
EDF .M            54.900                              :Elevations D.F.
EGL .M           -91.000                              :Elevations G.L.
WD  .M           -91.000                              :Water Depth
ELZ .M            54.900                              :Elev. Log Zero

~Curve Information
#MNEM   .UNIT             API CODE Curve Description
#------------             -------- -----------------
DEPTH   .M            00 001 00 00:   0  Depth
BS      .inches       00 000 00 00:   1  BS:COMPOSITE:rC:NONE:v1
GR      .API          30 150 01 01:   2  GR:COMPOSITE:rC:NONE:v1
RACEHM  .ohm.m        95 220 00 01:   3  RACEHM:COMPOSITE:rC:NONE:v1
RACELM  .ohm.m        00 524 01 00:   4  RACELM:COMPOSITE:rC:NONE:v1
RD      .ohm.m        00 000 00 00:   5  RD:COMPOSITE:rC:NONE:v1
RM      .ohm.m        00 000 00 00:   6  RM:COMPOSITE:rC:NONE:v1
ROP     .m/hr         00 000 00 00:   7  ROP:COMPOSITE:rC:NONE:v1
RPCEHM  .ohm.m        00 000 00 00:   8  RPCEHM:COMPOSITE:rC:NONE:v1
RPCELM  .ohm.m        00 000 00 00:   9  RPCELM:COMPOSITE:rC:NONE:v1
RT      .ohm.m        00 000 00 00:  10  RT:COMPOSITE:rC:NONE:v1

~Parameter Information
#MNEM.UNIT       Value           Description
#------------    -----           -----------
RUN .         1                 :Run number

~Other Information
PETROPHYSICAL INTERPRETATION: INPUT

# --- LOG MNEMONICS AND UNITS ---
#Depth     BS         GR         RACEHM     RACELM     RD         RM         ROP        RPCEHM     RPCELM     RT        
#M         inches     API        ohm.m      ohm.m      ohm.m      ohm.m      m/hr       ohm.m      ohm.m      ohm.m     

~A
# ...
   289.000     26.000     24.300      0.921      0.879      0.933      0.972     42.870      0.972      0.933      0.972
   289.100     26.000     24.900      0.921      0.881      0.937      0.970     43.643      0.970      0.937      0.970
   289.200     26.000     29.400      0.926      0.884      0.937      0.979     44.416      0.979      0.937      0.979
   289.300     26.000     29.800      0.920      0.883      0.938      0.987     44.983      0.987      0.938      0.987
   289.400     26.000     28.000      0.914      0.881      0.938      0.995     45.549      0.996      0.938      0.995
   289.500     26.000     28.100      0.905      0.881      0.931      0.986     46.116      0.986      0.931      0.986
   289.600     26.000     28.600      0.896      0.881      0.924      0.976     44.898      0.976      0.924      0.976
   289.700     26.000     29.200      0.871      0.873      0.905      0.946     43.680      0.946      0.905      0.946
   289.800     26.000     30.000      0.865      0.869      0.899      0.929     42.462      0.929      0.899      0.929
   289.900     26.000     30.300      0.859      0.865      0.892      0.911     41.408      0.911      0.892      0.911
   290.000     26.000     30.500      0.851      0.867      0.886      0.875     40.354      0.875      0.886      0.875
   290.100     26.000     30.800      0.842      0.869      0.880      0.839     39.300      0.839      0.881      0.839
   290.200     26.000     29.900      0.839      0.855      0.862      0.836     37.876      0.836      0.862      0.836
   290.300     26.000     28.200      0.856      0.850      0.853      0.864     36.451      0.864      0.853      0.864
   290.400     26.000     28.600      0.848      0.870      0.858      0.878     35.027      0.878      0.858      0.878
   290.500     26.000     29.200      0.841      0.890      0.863      0.893     33.499      0.893      0.863      0.893
   290.600     26.000     29.100      0.833      0.911      0.868      0.907     31.971      0.907      0.868      0.907
   290.700     26.000     29.100      0.826      0.931      0.873      0.922     30.443      0.922      0.873      0.922
   290.800     26.000     27.500      0.835      0.877      0.872      0.911     28.863      0.911      0.872      0.911
   290.900     26.000     25.600      0.844      0.823      0.870      0.899     27.282      0.899      0.870      0.899
   291.000     26.000     28.000      0.837      0.815      0.867      0.897     25.701      0.897      0.867      0.897
   291.100     26.000     30.100      0.830      0.807      0.864      0.896     25.727      0.896      0.864      0.896
   291.200     26.000     29.600      0.821      0.814      0.856      0.887     25.753      0.887      0.856      0.887
   291.300     26.000     29.400      0.813      0.820      0.848      0.879     25.779      0.879      0.848      0.879
   291.400     26.000     28.700      0.811      0.814      0.837      0.865     26.372      0.865      0.837      0.865
   291.500     26.000     28.400      0.808      0.807      0.826      0.852     26.964      0.852      0.826      0.852
   291.600     26.000     27.600      0.807      0.797      0.812      0.837     27.556      0.837      0.812      0.837
   291.700     26.000     27.200      0.805      0.786      0.798      0.823     24.458      0.823      0.798      0.823
   291.800     26.000     28.000      0.798      0.790      0.811      0.830     21.360      0.830      0.811      0.830
   291.900     26.000     27.900      0.791      0.794      0.823      0.836     18.263      0.836      0.823      0.836
   292.000     26.000     26.000      0.803      0.769      0.832      0.896     19.114      0.896      0.832      0.896
   292.100     26.000     26.600      0.805      0.777      0.832      0.913     19.966      0.913      0.832      0.913
   292.200     26.000     30.200      0.805      0.777      0.830      0.902     20.817      0.902      0.830      0.902
   292.300     26.000     30.200      0.805      0.777      0.828      0.890     22.338      0.890      0.828      0.890
   292.400     26.000     28.700      0.806      0.778      0.826      0.879     23.859      0.879      0.826      0.879
   292.500     26.000     28.600      0.798      0.770      0.835      0.879     25.379      0.879      0.835      0.879
   292.600     26.000     28.200      0.784      0.761      0.833      0.879     27.356      0.879      0.833      0.879
   292.700     26.000     29.900      0.770      0.753      0.831      0.878     29.333      0.878      0.831      0.878
   292.800     26.000     31.500      0.753      0.745      0.817      0.863     31.310      0.863      0.817      0.863
   292.900     26.000     29.700      0.736      0.737      0.804      0.847     33.313      0.847      0.804      0.847
   293.000     26.000     28.600      0.725      0.732      0.789      0.823     35.317      0.823      0.789      0.823
   293.100     26.000     28.200      0.715      0.728      0.775      0.798     37.320      0.798      0.775      0.798
   293.200     26.000     27.900      0.704      0.716      0.762      0.787     38.218      0.787      0.762      0.787
   293.300     26.000     24.700      0.694      0.703      0.748      0.776     39.116      0.775      0.748      0.776
   293.400     26.000     22.200      0.674      0.695      0.737      0.783     40.014      0.783      0.737      0.783
   293.500     26.000     22.300      0.654      0.686      0.725      0.789     41.349      0.789      0.725      0.789
   293.600     26.000     22.200      0.650      0.686      0.719      0.779     42.684      0.779      0.719      0.779
   293.700     26.000     21.700      0.645      0.685      0.713      0.769     44.019      0.769      0.713      0.769
   293.800     26.000     21.600      0.640      0.692      0.704      0.730     45.891      0.730      0.704      0.730
   293.900     26.000     22.400      0.635      0.699      0.696      0.690     47.762      0.690      0.696      0.690
   294.000     26.000     22.500      0.641      0.699      0.694      0.696     49.634      0.696      0.694      0.696
   294.100     26.000     22.000      0.646      0.699      0.693      0.702     51.926      0.702      0.693      0.702
   294.200     26.000     20.900      0.660      0.705      0.697      0.712     54.219      0.712      0.697      0.712
   294.300     26.000     18.300      0.674      0.711      0.702      0.721     56.512      0.721      0.702      0.721
   294.400     26.000     17.600      0.702      0.725      0.708      0.718     58.496      0.718      0.708      0.718
   294.500     26.000     16.400      0.730      0.738      0.714      0.714     60.480      0.714      0.714      0.714
   294.600     26.000     16.800      0.730      0.744      0.720      0.706     62.464      0.706      0.720      0.706
   294.700     26.000     17.800      0.730      0.751      0.726      0.697     64.846      0.697      0.726      0.697
   294.800     26.000     18.000      0.741      0.756      0.734      0.703     67.228      0.703      0.734      0.703
   294.900     26.000     18.400      0.754      0.762      0.736      0.732     69.611      0.732      0.736      0.732
   295.000     26.000     16.900      0.766      0.769      0.739      0.762     70.148      0.762      0.738      0.762
   295.100     26.000     15.200      0.772      0.771      0.747      0.762     70.686      0.762      0.747      0.762
   295.200     26.000     16.500      0.779      0.773      0.756      0.763     71.224      0.763      0.756      0.763
   295.300     26.000     17.600      0.787      0.786      0.767      0.768     71.117      0.768      0.767      0.768
   295.400     26.000     20.100      0.795      0.799      0.779      0.774     71.010      0.774      0.779      0.774
   295.500     26.000     22.000      0.787      0.809      0.784      0.789     70.902      0.789      0.784      0.789
   295.600     26.000     22.500      0.779      0.819      0.789      0.804     70.730      0.804      0.789      0.804
