~Version Information
VERS.                     2.0: CWLS log ASCII Standard Version 2.00
WRAP.                      NO: One line per depth step

~Well Information Block
#MNEM.UNIT                 Value                       Information
#------------              -----                       -----------
STRT.M                   3465.0000                    :START
STOP.M                   4684.7000                    :STOP
STEP.M                      0.1000                    :STEP
NULL.                     -999.25                     :NULL VALUE
COMP.         STATOIL PETROLEUM AS                    :Company
WELL.         15/9-F-15 D                             :Well
FLD .         VOLVE                                   :Field
LOC .                                                 :Location
PROV.                                                 :Province
CNTY.         MAERSK INSPIRER                         :County
STATE.                                                 :State
CTRY.         NORWAY                                  :Country
DATE.                                                 :Log Date
SRVC.                                                 :Service Company
UWI .                                                 :Unique Well Identifier
API .                                                 :API Number
LATI.         058 26' 29.706" N    DMS                :Latitude
LONG.         001 53' 15.149" E    DMS                :Longtitude
PD  .         MSL                                     :Permanent Datum
EDF .M                54.9000                         :Elevations D.F.
EGL .M               -91.0000                         :Elevations G.L.
ELZ .M                54.9000                         :Elev. Log Zero
LMF .         DF                                      :Log Measured From
MP  .         DF                                      :Drill Measured From

~Curve Information
#MNEM   .UNIT             API CODE Curve Description
#------------             -------- -----------------
DEPTH   .M            00 001 00 00:   0  Depth
BVW     .v/v          00 000 00 00:   1  BVW:CPI:rC:0001:v1
COAL_FLAG.unitless    00 000 00 00:   2  COAL_FLAG:CPI:rC:0001:v1
KLOGH   .mD           00 000 00 00:   3  KLOGH:CPI:rC:0001:v1
PHIF    .v/v          00 000 00 00:   4  PHIF:CPI:rC:0001:v1
SAND_FLAG.unitless    00 000 00 00:   5  SAND_FLAG:CPI:rC:0001:v1
SW      .v/v          00 000 00 00:   6  SW:CPI:rC:0001:v1
VCARB   .v/v          00 000 00 00:   7  VCARB:CPI:rC:0001:v1
VSH     .v/v          00 000 00 00:   8  VSH:CPI:rC:0001:v1

~Parameter Information
#MNEM.UNIT       Value           Description
#------------    -----           -----------
RUN .         .                 :Run Number

~Other Information
PETROPHYSICAL INTERPRETATION: OUTPUT

# --- LOG MNEMONICS AND UNITS ---
#Depth          BVW             COAL_FLAG       KLOGH           PHIF            SAND_FLAG       SW              VCARB           VSH            
#M              v/v             unitless        mD              v/v             unitless        v/v             v/v             v/v            

~A
# ...
      4573.8000          0.0200          0.0000          0.0162          0.0200          0.0000          1.0000          0.1308          0.4389
      4573.9000          0.0200          0.0000          0.0181          0.0200          0.0000          1.0000          0.1363          0.4337
      4574.0000          0.0200          0.0000          0.0266          0.0200          0.0000          1.0000          0.1567          0.4151
      4574.1000          0.0200          0.0000          0.0185          0.0200          0.0000          1.0000          0.1374          0.4326
      4574.2000          0.0200          0.0000          0.0130          0.0200          0.0000          1.0000          0.1196          0.4497
      4574.3000          0.0200          0.0000          0.0092          0.0200          0.0000          1.0000          0.1031          0.4662
      4574.4000          0.0200          0.0000          0.0118          0.0200          0.0000          1.0000          0.1150          0.4542
      4574.5000          0.0200          0.0000          0.0111          0.0200          0.0000          1.0000          0.1121          0.4571
      4574.6000          0.0200          0.0000          0.0063          0.0200          0.0000          1.0000          0.0858          0.4846
      4574.7000          0.0200          0.0000          0.0043          0.0200          0.0000          1.0000          0.0693          0.5031
      4574.8000          0.0200          0.0000          0.0022          0.0200          0.0000          1.0000          0.0429          0.5356
      4574.9000          0.0200          0.0000          0.0017          0.0200          0.0000          1.0000          0.0345          0.5470
      4575.0000          0.0200          0.0000          0.0022          0.0200          0.0000          1.0000          0.0435          0.5349
      4575.1000          0.0200          0.0000          0.0045          0.0200          0.0000          1.0000          0.0716          0.5004
      4575.2000          0.0200          0.0000          0.0128          0.0200          0.0000          1.0000          0.1188          0.4505
      4575.3000          0.0200          0.0000          0.0177          0.0200          0.0000          1.0000          0.1353          0.4346
      4575.4000          0.0200          0.0000          0.0197          0.0200          0.0000          1.0000          0.1407          0.4296
      4575.5000          0.0200          0.0000          0.0342          0.0200          0.0000          1.0000          0.1706          0.4029
      4575.6000          0.0200          0.0000          0.0345          0.0200          0.0000          1.0000          0.1711          0.4025
      4575.7000          0.0200          0.0000          0.0419          0.0200          0.0000          1.0000          0.1822          0.3931
      4575.8000          0.0200          0.0000          0.0579          0.0200          0.0000          1.0000          0.2011          0.3775
      4575.9000          0.0200          0.0000          0.0620          0.0200          0.0000          1.0000          0.2052          0.3742
      4576.0000          0.0200          0.0000          0.0565          0.0200          0.0000          1.0000          0.1996          0.3787
      4576.1000          0.0200          0.0000          0.0309          0.0200          0.0000          1.0000          0.1650          0.4078
      4576.2000          0.0200          0.0000          0.0148          0.0200          0.0000          1.0000          0.1261          0.4434
      4576.3000          0.0200          0.0000          0.0173          0.0200          0.0000          1.0000          0.1340          0.4358
      4576.4000          0.0200          0.0000          0.0163          0.0200          0.0000          1.0000          0.1310          0.4387
      4576.5000          0.0200          0.0000          0.0168          0.0200          0.0000          1.0000          0.1327          0.4371
      4576.6000          0.0200          0.0000          0.0194          0.0200          0.0000          1.0000          0.1399          0.4303
      4576.7000          0.0200          0.0000          0.0150          0.0200          0.0000          1.0000          0.1269          0.4426
      4576.8000          0.0200          0.0000          0.0087          0.0200          0.0000          1.0000          0.1004          0.4690
      4576.9000          0.0200          0.0000          0.0087          0.0200          0.0000          1.0000          0.1004          0.4691
      4577.0000          0.0200          0.0000          0.0123          0.0200          0.0000          1.0000          0.1172          0.4520
      4577.1000          0.0200          0.0000          0.0292          0.0200          0.0000          1.0000          0.1618          0.4106
      4577.2000          0.0200          0.0000          0.0437          0.0200          0.0000          1.0000          0.1846          0.3911
      4577.3000          0.0200          0.0000          0.0582          0.0200          0.0000          1.0000          0.2014          0.3773
      4577.4000          0.0200          0.0000          0.0592          0.0200          0.0000          1.0000          0.2024          0.3764
      4577.5000          0.0200          0.0000          0.0218          0.0200          0.0000          1.0000          0.1460          0.4247
      4577.6000          0.0200          0.0000          0.0179          0.0200          0.0000          1.0000          0.1358          0.4342
      4577.7000          0.0200          0.0000          0.0285          0.0200          0.0000          1.0000          0.1606          0.4117
      4577.8000          0.0200          0.0000          0.0376          0.0200          0.0000          1.0000          0.1760          0.3983
      4577.9000          0.0200          0.0000          0.0382          0.0200          0.0000          1.0000          0.1769          0.3976
      4578.0000          0.0200          0.0000          0.0397          0.0200          0.0000          1.0000          0.1791          0.3956
      4578.1000          0.0200          0.0000          0.0344          0.0200          0.0000          1.0000          0.1710          0.4026
      4578.2000          0.0200          0.0000          0.0144          0.0200          0.0000          1.0000          0.1246          0.4448
      4578.3000          0.0200          0.0000          0.0076          0.0200          0.0000          1.0000          0.0943          0.4754
      4578.4000          0.0200          0.0000          0.0069          0.0200          0.0000          1.0000          0.0901          0.4799
      4578.5000          0.0200          0.0000          0.0063          0.0200          0.0000          1.0000          0.0859          0.4845
      4578.6000          0.0200          0.0000          0.0049          0.0200          0.0000          1.0000          0.0747          0.4969
      4578.7000          0.0200          0.0000          0.0050          0.0200          0.0000          1.0000          0.0754          0.4961
      4578.8000          0.0200          0.0000          0.0048          0.0200          0.0000          1.0000          0.0741          0.4976
      4578.9000          0.0200          0.0000          0.0063          0.0200          0.0000          1.0000          0.0860          0.4843
      4579.0000          0.0200          0.0000          0.0093          0.0200          0.0000          1.0000          0.1038          0.4655
      4579.1000          0.0200          0.0000          0.0073          0.0200          0.0000          1.0000          0.0927          0.4771
      4579.2000          0.0200          0.0000          0.0113          0.0200          0.0000          1.0000          0.1127          0.4565
      4579.3000          0.0200          0.0000          0.0224          0.0200          0.0000          1.0000          0.1475          0.4234
