~Version Information
VERS.                     2.0: CWLS log ASCII Standard Version 2.00
WRAP.                      NO: One line per depth step

~Well Information Block
#MNEM.UNIT                 Value                       Information
#------------              -----                       -----------
STRT.M                   3271.0000                    :START
STOP.M                   3631.9000                    :STOP
STEP.M                      0.1000                    :STEP
NULL.                     -999.25                     :NULL VALUE
COMP.         Statoil Petroleum                       :Company
WELL.         15/9-F-1                                :Well
FLD .         VOLVE                                   :Field
LOC .         Maersk Inspirer                         :Location
PROV.                                                 :Province
CNTY.                                                 :County
STATE.                                                 :State
CTRY.                                                 :Country
DATE.                                                 :Log Date
SRVC.                                                 :Service Company
UWI .                                                 :Unique Well Identifier
API .                                                 :API Number
LATI.         058 26' 29.907" N    DMS                :Latitude
LONG.         001 53' 14.708" E    DMS                :Longtitude
PD  .         MSL                                     :Permanent Datum
ELZ .M                 0.0000                         :Elev. Log Zero

~Curve Information
#MNEM   .UNIT             API CODE Curve Description
#------------             -------- -----------------
DEPTH   .M            00 001 00 00:   0  Depth
BVW     .V/V          00 000 00 00:   1  Bound Volume Water
COAL_FLAG.unitless    00 000 00 00:   2  Coal Flag
KLOGH   .MD           00 000 00 00:   3  Calculated Horizontal PERMEABILITY from logs
PHIF    .V/V          00 000 00 00:   4  Final porosity
SAND_FLAG.unitless    00 000 00 00:   5  Sand Flag
SW      .V/V          00 000 00 00:   6  Water Saturation (Archie)
VCARB   .V/V          00 000 00 00:   7  Volume of calcite; dolomite and siderite from log analysis; repo
VSH     .V/V          00 000 00 00:   8  (GR-15)/(250-15)

~Parameter Information
#MNEM.UNIT       Value           Description
#------------    -----           -----------
HLD .         Terms and Conditions.:Header Legal Disclaimer
RUN .         1                 :Run number

~Other Information
PETROPHYSICAL INTERPRETATION: OUTPUT

# --- LOG MNEMONICS AND UNITS ---
#Depth          BVW             COAL_FLAG       KLOGH           PHIF            SAND_FLAG       SW              VCARB           VSH            
#M              V/V             unitless        MD              V/V             unitless        V/V             V/V             V/V            

~A
# ...
      3394.2000          0.0955          0.0000          0.0675          0.0955          0.0000          1.0000          0.0183          0.3273
      3394.3000          0.1030          0.0000          0.0882          0.1030          1.0000          1.0000          0.0000          0.3319
      3394.4000          0.1062          0.0000          0.1226          0.1062          1.0000          1.0000          0.0086          0.3030
      3394.5000          0.1030          0.0000          0.1390          0.1030          1.0000          1.0000          0.0544          0.2661
      3394.6000          0.0947          0.0000          0.1037          0.0947          0.0000          1.0000          0.0873          0.2607
      3394.7000          0.0843          0.0000          0.0502          0.0843          0.0000          1.0000          0.0738          0.3052
      3394.8000          0.0736          0.0000          0.0255          0.0736          0.0000          1.0000          0.0700          0.3415
      3394.9000          0.0634          0.0000          0.0153          0.0634          0.0000          1.0000          0.0862          0.3564
      3395.0000          0.0545          0.0000          0.0104          0.0545          0.0000          1.0000          0.1091          0.3607
      3395.1000          0.0496          0.0000          0.0091          0.0496          0.0000          1.0000          0.1355          0.3507
      3395.2000          0.0502          0.0000          0.0106          0.0502          0.0000          1.0000          0.1542          0.3327
      3395.3000          0.0533          0.0000          0.0121          0.0533          0.0000          1.0000          0.1446          0.3320
      3395.4000          0.0537          0.0000          0.0099          0.0537          0.0000          1.0000          0.1093          0.3629
      3395.5000          0.0498          0.0000          0.0076          0.0498          0.0000          1.0000          0.1042          0.3791
      3395.6000          0.0438          0.0000          0.0055          0.0438          0.0000          1.0000          0.1094          0.3914
      3395.7000          0.0401          0.0000          0.0046          0.0401          0.0000          1.0000          0.1185          0.3936
      3395.8000          0.0420          0.0000          0.0048          0.0420          0.0000          1.0000          0.1079          0.3982
      3395.9000          0.0483          0.0000          0.0070          0.0483          0.0000          1.0000          0.1074          0.3805
      3396.0000          0.0560          0.0000          0.0118          0.0560          0.0000          1.0000          0.1147          0.3510
      3396.1000          0.0621          0.0000          0.0204          0.0621          0.0000          1.0000          0.1440          0.3073
      3396.2000          0.0654          0.0000          0.0275          0.0654          0.0000          1.0000          0.1625          0.2827
      3396.3000          0.0667          0.0000          0.0286          0.0667          0.0000          1.0000          0.1554          0.2847
      3396.4000          0.0666          0.0000          0.0295          0.0666          0.0000          1.0000          0.1620          0.2795
      3396.5000          0.0663          0.0000          0.0293          0.0663          0.0000          1.0000          0.1642          0.2786
      3396.6000          0.0663          0.0000          0.0320          0.0663          0.0000          1.0000          0.1800          0.2660
      3396.7000          0.0664          0.0000          0.0281          0.0664          0.0000          1.0000          0.1550          0.2856
      3396.8000          0.0661          0.0000          0.0252          0.0661          0.0000          1.0000          0.1398          0.2994
      3396.9000          0.0648          0.0000          0.0235          0.0648          0.0000          1.0000          0.1415          0.3019
      3397.0000          0.0638          0.0000          0.0212          0.0638          0.0000          1.0000          0.1340          0.3112
      3397.1000          0.0653          0.0000          0.0231          0.0653          0.0000          1.0000          0.1328          0.3078
      3397.2000          0.0682          0.0000          0.0277          0.0682          0.0000          1.0000          0.1340          0.2983
      3397.3000          0.0676          0.0000          0.0303          0.0676          0.0000          1.0000          0.1553          0.2820
      3397.4000          0.0601          0.0000          0.0259          0.0601          0.0000          1.0000          0.2101          0.2603
      3397.5000          0.0478          0.0000          0.0177          0.0478          0.0000          1.0000          0.2793          0.2443
      3397.6000          0.0394          0.0000          0.0154          0.0394          0.0000          1.0000          0.3573          0.2156
      3397.7000          0.0433          0.0000          0.0193          0.0433          0.0000          1.0000          0.3554          0.2064
      3397.8000          0.0596          0.0000          0.0334          0.0596          0.0000          1.0000          0.2665          0.2210
      3397.9000          0.0795          0.0000          0.0632          0.0795          0.0000          1.0000          0.1597          0.2442
      3398.0000          0.0934          0.0000          0.0877          0.0934          0.0000          1.0000          0.0732          0.2776
      3398.1000          0.0964          0.0000          0.0895          0.0964          0.0000          1.0000          0.0487          0.2921
      3398.2000          0.0903          0.0000          0.0651          0.0903          0.0000          1.0000          0.0577          0.3024
      3398.3000          0.0822          0.0000          0.0527          0.0822          0.0000          1.0000          0.1004          0.2865
      3398.4000          0.0791          0.0000          0.0531          0.0791          0.0000          1.0000          0.1331          0.2672
      3398.5000          0.0813          0.0000          0.0668          0.0813          0.0000          1.0000          0.1508          0.2463
      3398.6000          0.0843          0.0000          0.0859          0.0843          0.0000          1.0000          0.1636          0.2273
      3398.7000          0.0855          0.0000          0.0949          0.0855          0.0000          1.0000          0.1680          0.2203
      3398.8000          0.0848          0.0000          0.0931          0.0848          0.0000          1.0000          0.1730          0.2186
      3398.9000          0.0828          0.0000          0.0924          0.0828          0.0000          1.0000          0.1941          0.2082
      3399.0000          0.0811          0.0000          0.0979          0.0811          0.0000          1.0000          0.2248          0.1904
      3399.1000          0.0815          0.0000          0.1176          0.0815          0.0000          1.0000          0.2590          0.1657
      3399.2000          0.0844          0.0000          0.1527          0.0844          0.0000          1.0000          0.2783          0.1447
      3399.3000          0.0880          0.0000          0.1677          0.0880          0.0000          1.0000          0.2523          0.1521
      3399.4000          0.0896          0.0000          0.1671          0.0896          0.0000          1.0000          0.2317          0.1618
      3399.5000          0.0878          0.0000          0.1450          0.0878          0.0000          1.0000          0.2247          0.1718
      3399.6000          0.0826          0.0000          0.1226          0.0826          0.0000          1.0000          0.2534          0.1663
      3399.7000          0.0743          0.0000          0.0974          0.0743          0.0000          1.0000          0.3105          0.1515
