~Version Information
VERS.                     2.0: CWLS log ASCII Standard Version 2.00
WRAP.                      NO: One line per depth step

~Well Information Block
#MNEM.UNIT                 Value                       Information
#------------              -----                       -----------
STRT.M                    3351.600                    :START
STOP.M                    4759.200                    :STOP
STEP.M                       0.100                    :STEP
NULL.                     -999.25                     :NULL VALUE
COMP.         Statoil Petroleum AS                    :Company
WELL.         15/9-F-11 B                             :Well
FLD .         VOLVE                                   :Field
LOC .         Maersk Inspirer                         :Location
PROV.                                                 :Province
CNTY.                                                 :County
STATE.                                                 :State
CTRY.                                                 :Country
DATE.                                                 :Log Date
SRVC.                                                 :Service Company
UWI .                                                 :Unique Well Identifier
API .                                                 :API Number
LATI.         058 26' 29.960" N    DMS                :Latitude
LONG.         001 53' 14.870" E    DMS                :Longtitude
PD  .         MSL                                     :Permanent Datum
EDF .M            54.900                              :Elevations D.F.
EGL .M           -91.000                              :Elevations G.L.
ELZ .M            54.900                              :Elev. Log Zero
LMF .         DF                                      :Log Measured From

~Curve Information
#MNEM   .UNIT             API CODE Curve Description
#------------             -------- -----------------
DEPTH   .M            00 001 00 00:   0  Depth
BVW     .v/v          00 000 00 00:   1  BVW:CPI:rC:NONE:v1
CARB_FLAG.unitless    00 000 00 00:   2  CARB_FLAG:CPI:rC:NONE:v1
COAL_FLAG.unitless    00 000 00 00:   3  COAL_FLAG:CPI:rC:NONE:v1
KLOGH   .mD           00 000 00 00:   4  KLOGH:CPI:rC:NONE:v1
PHIF    .v/v          00 000 00 00:   5  PHIF:CPI:rC:NONE:v1
SAND_FLAG.UNKNOWN     00 000 00 00:   6  SAND_FLAG:CPI:rC:NONE:v1
SW      .v/v          00 000 00 00:   7  SW:CPI:rC:NONE:v1
VSH     .v/v          00 000 00 00:   8  VSH:CPI:rC:NONE:v1

~Parameter Information
#MNEM.UNIT       Value           Description
#------------    -----           -----------
RUN .         1                 :Run number

~Other Information
PETROPHYSICAL_INTERPRETATION: OUTPUT

# --- LOG MNEMONICS AND UNITS ---
#Depth     BVW        CARB_FLAG  COAL_FLAG  KLOGH      PHIF       SAND_FLAG  SW         VSH       
#M         v/v        unitless   unitless   mD         v/v        UNKNOWN    v/v        v/v       

~A
# ...
  4461.300      0.055      0.000      0.000      0.002      0.055      0.000      1.000      0.584
  4461.400      0.049      0.000      0.000      0.002      0.049      0.000      1.000      0.575
  4461.500      0.039      0.000      0.000      0.002      0.039      0.000      1.000      0.562
  4461.600      0.026      0.000      0.000      0.003      0.026      0.000      1.000      0.530
  4461.700      0.020      0.000      0.000      0.007      0.020      0.000      1.000      0.483
  4461.800      0.020      0.000      0.000      0.010      0.020      0.000      1.000      0.463
  4461.900      0.020      1.000      0.000      0.012      0.020      0.000      1.000      0.456
  4462.000      0.020      1.000      0.000      0.009      0.020      0.000      1.000      0.468
  4462.100      0.020      1.000      0.000      0.007      0.020      0.000      1.000      0.477
  4462.200      0.020      1.000      0.000      0.004      0.020      0.000      1.000      0.503
  4462.300      0.020      1.000      0.000      0.004      0.020      0.000      1.000      0.504
  4462.400      0.020      0.000      0.000      0.002      0.020      0.000      1.000      0.534
  4462.500      0.020      0.000      0.000      0.001      0.020      0.000      1.000      0.561
  4462.600      0.020      0.000      0.000      0.001      0.020      0.000      1.000      0.592
  4462.700      0.030      0.000      0.000      0.001      0.030      0.000      1.000      0.598
  4462.800      0.043      0.000      0.000      0.001      0.043      0.000      1.000      0.614
  4462.900      0.054      0.000      0.000      0.001      0.054      0.000      1.000      0.616
  4463.000      0.060      0.000      0.000      0.001      0.060      0.000      1.000      0.601
  4463.100      0.063      0.000      0.000      0.001      0.063      0.000      1.000      0.608
  4463.200      0.063      0.000      0.000      0.001      0.063      0.000      1.000      0.608
  4463.300      0.064      0.000      0.000      0.001      0.064      0.000      1.000      0.598
  4463.400      0.065      0.000      0.000      0.002      0.065      0.000      1.000      0.595
  4463.500      0.066      0.000      0.000      0.002      0.066      0.000      1.000      0.595
  4463.600      0.067      0.000      0.000      0.002      0.067      0.000      1.000      0.571
  4463.700      0.068      0.000      0.000      0.003      0.068      0.000      1.000      0.564
  4463.800      0.068      0.000      0.000      0.002      0.068      0.000      1.000      0.574
  4463.900      0.068      0.000      0.000      0.002      0.068      0.000      1.000      0.592
  4464.000      0.068      0.000      0.000      0.002      0.068      0.000      1.000      0.594
  4464.100      0.066      0.000      0.000      0.002      0.066      0.000      1.000      0.583
  4464.200      0.061      0.000      0.000      0.001      0.061      0.000      1.000      0.597
  4464.300      0.056      0.000      0.000      0.001      0.056      0.000      1.000      0.599
  4464.400      0.050      0.000      0.000      0.001      0.050      0.000      1.000      0.605
  4464.500      0.047      0.000      0.000      0.001      0.047      0.000      1.000      0.614
  4464.600      0.046      0.000      0.000      0.001      0.046      0.000      1.000      0.601
  4464.700      0.047      0.000      0.000      0.001      0.047      0.000      1.000      0.613
  4464.800      0.048      0.000      0.000      0.001      0.048      0.000      1.000      0.627
  4464.900      0.049      0.000      0.000      0.001      0.049      0.000      1.000      0.642
  4465.000      0.050      0.000      0.000      0.001      0.050      0.000      1.000      0.659
  4465.100      0.052      0.000      0.000      0.001      0.052      0.000      1.000      0.663
  4465.200      0.052      0.000      0.000      0.001      0.052      0.000      1.000      0.662
  4465.300      0.051      0.000      0.000      0.001      0.051      0.000      1.000      0.643
  4465.400      0.048      0.000      0.000      0.001      0.048      0.000      1.000      0.637
  4465.500      0.046      0.000      0.000      0.001      0.046      0.000      1.000      0.652
  4465.600      0.044      0.000      0.000      0.001      0.044      0.000      1.000      0.693
  4465.700      0.040      0.000      0.000      0.001      0.040      0.000      1.000      0.693
  4465.800      0.038      0.000      0.000      0.001      0.038      0.000      1.000      0.690
  4465.900      0.038      0.000      0.000      0.001      0.038      0.000      1.000      0.689
  4466.000      0.040      0.000      0.000      0.001      0.040      0.000      1.000      0.703
  4466.100      0.041      0.000      0.000      0.001      0.041      0.000      1.000      0.684
  4466.200      0.038      0.000      0.000      0.001      0.038      0.000      1.000      0.660
  4466.300      0.032      0.000      0.000      0.001      0.032      0.000      1.000      0.642
  4466.400      0.027      0.000      0.000      0.001      0.027      0.000      1.000      0.684
  4466.500      0.029      0.000      0.000      0.001      0.029      0.000      1.000      0.706
  4466.600      0.035      0.000      0.000      0.001      0.035      0.000      1.000      0.715
  4466.700      0.039      0.000      0.000      0.001      0.039      0.000      1.000      0.703
  4466.800      0.038      0.000      0.000      0.001      0.038      0.000      1.000      0.668
  4466.900      0.032      0.000      0.000      0.001      0.032      0.000      1.000      0.646
  4467.000      0.025      0.000      0.000      0.001      0.025      0.000      1.000      0.616
  4467.100      0.021      0.000      0.000      0.001      0.021      0.000      1.000      0.605
  4467.200      0.022      0.000      0.000      0.001      0.022      0.000      1.000      0.593
  4467.300      0.026      0.000      0.000      0.001      0.026      0.000      1.000      0.617
  4467.400      0.030      0.000      0.000      0.001      0.030      0.000      1.000      0.656
  4467.500      0.036      0.000      0.000      0.001      0.036      0.000      1.000      0.668
  4467.600      0.038      0.000      0.000      0.001      0.038      0.000      1.000      0.648
  4467.700      0.034      0.000      0.000      0.001      0.034      0.000      1.000      0.632
  4467.800      0.024      0.000      0.000      0.001      0.024      0.000      1.000      0.619
  4467.900      0.020      0.000      0.000      0.001      0.020      0.000      1.000      0.630
  4468.000      0.020      0.000      0.000      0.001      0.020      0.000      1.000      0.634
  4468.100      0.020      0.000      0.000      0.001      0.020      0.000      1.000      0.636
  4468.200      0.020      0.000      0.000      0.001      0.020      0.000      1.000      0.631
  4468.300      0.020      0.000      0.000      0.001      0.020      0.000      1.000      0.612
  4468.400      0.020      1.000      0.000      0.001      0.020      0.000      1.000      0.563
  4468.500      0.020      1.000      0.000      0.003      0.020      0.000      1.000      0.515
  4468.600      0.020      1.000      0.000      0.009      0.020      0.000      1.000      0.467
  4468.700      0.020      1.000      0.000      0.019      0.020      0.000      1.000      0.432
  4468.800      0.020      1.000      0.000      0.024      0.020      0.000      1.000      0.421
  4468.900      0.020      1.000      0.000      0.015      0.020      0.000      1.000      0.444
  4469.000      0.020      1.000      0.000      0.014      0.020      0.000      1.000      0.447
  4469.100      0.020      1.000      0.000      0.016      0.020      0.000      1.000      0.439
  4469.200      0.020      1.000      0.000      0.030      0.020      0.000      1.000      0.410
  4469.300      0.020      1.000      0.000      0.056      0.020      0.000      1.000      0.379
