~Version Information
VERS.                     2.0: CWLS log ASCII Standard Version 2.00
WRAP.                      NO: One line per depth step

~Well Information Block
#MNEM.UNIT                 Value                       Information
#------------              -----                       -----------
STRT.M                   3271.0000                    :START
STOP.M                   3631.9000                    :STOP
STEP.M                      0.1000                    :STEP
NULL.                     -999.25                     :NULL VALUE
COMP.         Statoil Petroleum                       :Company
WELL.         15/9-F-1                                :Well
FLD .         VOLVE                                   :Field
LOC .         Maersk Inspirer                         :Location
PROV.                                                 :Province
CNTY.                                                 :County
STATE.                                                 :State
CTRY.                                                 :Country
DATE.                                                 :Log Date
SRVC.                                                 :Service Company
UWI .                                                 :Unique Well Identifier
API .                                                 :API Number
LATI.         058 26' 29.907" N    DMS                :Latitude
LONG.         001 53' 14.708" E    DMS                :Longtitude
PD  .         MSL                                     :Permanent Datum
ELZ .M                 0.0000                         :Elev. Log Zero

~Curve Information
#MNEM   .UNIT             API CODE Curve Description
#------------             -------- -----------------
DEPTH   .M            00 001 00 00:   0  Depth
BVW     .V/V          00 000 00 00:   1  Bound Volume Water
COAL_FLAG.unitless    00 000 00 00:   2  Coal Flag
KLOGH   .MD           00 000 00 00:   3  Calculated Horizontal PERMEABILITY from logs
PHIF    .V/V          00 000 00 00:   4  Final porosity
SAND_FLAG.unitless    00 000 00 00:   5  Sand Flag
SW      .V/V          00 000 00 00:   6  Water Saturation (Archie)
VCARB   .V/V          00 000 00 00:   7  Volume of calcite; dolomite and siderite from log analysis; repo
VSH     .V/V          00 000 00 00:   8  (GR-15)/(250-15)

~Parameter Information
#MNEM.UNIT       Value           Description
#------------    -----           -----------
HLD .         Terms and Conditions.:Header Legal Disclaimer
RUN .         1                 :Run number

~Other Information
PETROPHYSICAL INTERPRETATION: OUTPUT

# --- LOG MNEMONICS AND UNITS ---
#Depth          BVW             COAL_FLAG       KLOGH           PHIF            SAND_FLAG       SW              VCARB           VSH            
#M              V/V             unitless        MD              V/V             unitless        V/V             V/V             V/V            

~A
# ...
      3338.2000          0.1377          0.0000          2.3211          0.1377          1.0000          1.0000          0.0000          0.3040
      3338.3000          0.1359          0.0000          1.9738          0.1359          1.0000          1.0000          0.0000          0.3102
      3338.4000          0.1372          0.0000          1.8287          0.1372          1.0000          1.0000          0.0000          0.3150
      3338.5000          0.1415          0.0000          2.4069          0.1415          1.0000          1.0000          0.0000          0.3056
      3338.6000          0.1484          0.0000          3.3876          0.1484          1.0000          1.0000          0.0000          0.2952
      3338.7000          0.1559          0.0000          5.6704          0.1559          1.0000          1.0000          0.0000          0.2771
      3338.8000          0.1622          0.0000          6.2430          0.1622          1.0000          1.0000          0.0000          0.2780
      3338.9000          0.1658          0.0000          6.1075          0.1658          1.0000          1.0000          0.0000          0.2823
      3339.0000          0.1668          0.0000          5.1899          0.1668          1.0000          1.0000          0.0000          0.2910
      3339.1000          0.1657          0.0000          4.0719          0.1657          1.0000          1.0000          0.0000          0.3017
      3339.2000          0.1624          0.0000          5.0811          0.1624          1.0000          1.0000          0.0000          0.2881
      3339.3000          0.1568          0.0000          7.5954          0.1568          1.0000          1.0000          0.0000          0.2637
      3339.4000          0.1495          0.0000          9.7890          0.1495          1.0000          1.0000          0.0000          0.2451
      3339.5000          0.1415          0.0000         14.0456          0.1415          1.0000          1.0000          0.0000          0.2205
      3339.6000          0.1336          0.0000         17.7671          0.1336          1.0000          1.0000          0.0192          0.2021
      3339.7000          0.1261          0.0000         19.0408          0.1261          1.0000          1.0000          0.0555          0.1921
      3339.8000          0.1204          0.0000         16.7083          0.1204          1.0000          1.0000          0.0741          0.1934
      3339.9000          0.1183          0.0000         17.3040          0.1183          1.0000          1.0000          0.0857          0.1898
      3340.0000          0.1199          0.0000         21.8216          0.1199          1.0000          1.0000          0.0914          0.1800
      3340.1000          0.1221          0.0000         19.8152          0.1221          1.0000          1.0000          0.0757          0.1866
      3340.2000          0.1216          0.0000         21.7832          0.1216          1.0000          1.0000          0.0833          0.1816
      3340.3000          0.1181          0.0000         21.1019          0.1181          1.0000          1.0000          0.0977          0.1801
      3340.4000          0.1138          0.0000         19.4381          0.1138          1.0000          1.0000          0.1137          0.1801
      3340.5000          0.1106          0.0000         22.5354          0.1106          1.0000          1.0000          0.1377          0.1702
      3340.6000          0.1088          0.0000         30.5935          0.1088          1.0000          1.0000          0.1663          0.1538
      3340.7000          0.1073          0.0000         42.5603          0.1073          1.0000          1.0000          0.1957          0.1366
      3340.8000          0.1058          0.0000         51.3609          0.1058          1.0000          1.0000          0.2164          0.1262
      3340.9000          0.1049          0.0000         47.9597          0.1049          1.0000          1.0000          0.2162          0.1287
      3341.0000          0.1051          0.0000         49.4779          0.1051          1.0000          1.0000          0.2178          0.1273
      3341.1000          0.1059          0.0000         51.8703          0.1059          1.0000          1.0000          0.2164          0.1258
      3341.2000          0.1065          0.0000         51.2549          0.1065          1.0000          1.0000          0.2123          0.1269
      3341.3000          0.1062          0.0000         50.5954          0.1062          1.0000          1.0000          0.2132          0.1273
      3341.4000          0.1052          0.0000         51.9241          0.1052          1.0000          1.0000          0.2202          0.1252
      3341.5000          0.1046          0.0000         47.9785          0.1046          1.0000          1.0000          0.2181          0.1284
      3341.6000          0.1053          0.0000         50.8603          0.1053          1.0000          1.0000          0.2185          0.1262
      3341.7000          0.1079          0.0000         42.6304          0.1079          1.0000          1.0000          0.1925          0.1371
      3341.8000          0.1119          0.0000         38.5933          0.1119          1.0000          1.0000          0.1653          0.1454
      3341.9000          0.1162          0.0000         38.6828          0.1162          1.0000          1.0000          0.1435          0.1491
      3342.0000          0.1195          0.0000         46.2764          0.1195          1.0000          1.0000          0.1382          0.1434
      3342.1000          0.1215          0.0000         41.2037          0.1215          1.0000          1.0000          0.1211          0.1508
      3342.2000          0.1225          0.0000         30.5038          0.1225          1.0000          1.0000          0.0983          0.1662
      3342.3000          0.1223          0.0000         39.0959          0.1223          1.0000          1.0000          0.1141          0.1540
      3342.4000          0.1203          0.0000         48.7983          0.1203          1.0000          1.0000          0.1372          0.1416
      3342.5000          0.1162          0.0000         39.4320          0.1162          1.0000          1.0000          0.1447          0.1482
      3342.6000          0.1105          0.0000         48.6125          0.1105          1.0000          1.0000          0.1875          0.1330
      3342.7000          0.1044          0.0000         39.0707          0.1044          1.0000          1.0000          0.2052          0.1381
      3342.8000          0.0986          0.0000         38.7695          0.0986          0.0000          1.0000          0.2359          0.1333
      3342.9000          0.0936          0.0000         45.2811          0.0936          0.0000          1.0000          0.2744          0.1215
      3343.0000          0.0898          0.0000         32.9715          0.0898          0.0000          1.0000          0.2728          0.1333
      3343.1000          0.0869          0.0000         21.5274          0.0869          0.0000          1.0000          0.2580          0.1513
      3343.2000          0.0848          0.0000         15.9905          0.0848          0.0000          1.0000          0.2483          0.1638
      3343.3000          0.0835          0.0000         17.7833          0.0835          0.0000          1.0000          0.2629          0.1575
      3343.4000          0.0825          0.0000         17.9790          0.0825          0.0000          1.0000          0.2690          0.1561
      3343.5000          0.0809          0.0000         15.7835          0.0809          0.0000          1.0000          0.2686          0.1610
      3343.6000          0.0785          0.0000         14.5712          0.0785          0.0000          1.0000          0.2759          0.1627
      3343.7000          0.0765          0.0000         16.9213          0.0765          0.0000          1.0000          0.2980          0.1537
