~Version Information
VERS.                     2.0: CWLS log ASCII Standard Version 2.00
WRAP.                      NO: One line per depth step

~Well Information Block
#MNEM.UNIT                 Value                       Information
#------------              -----                       -----------
STRT.M                   3204.0000                    :START
STOP.M                   3464.9000                    :STOP
STEP.M                      0.1000                    :STEP
NULL.                     -999.25                     :NULL VALUE
COMP.         Statoil Petroleum                       :Company
WELL.         15/9-F-1 B                              :Well
FLD .         VOLVE                                   :Field
LOC .         Maersk Inspirer                         :Location
PROV.                                                 :Province
CNTY.                                                 :County
STATE.                                                 :State
CTRY.                                                 :Country
DATE.                                                 :Log Date
SRVC.                                                 :Service Company
UWI .                                                 :Unique Well Identifier
API .                                                 :API Number
LATI.         058 26' 29.907" N    DMS                :Latitude
LONG.         001 53' 14.708" E    DMS                :Longtitude
PD  .         MSL                                     :Permanent Datum
ELZ .M                 0.0000                         :Elev. Log Zero

~Curve Information
#MNEM   .UNIT             API CODE Curve Description
#------------             -------- -----------------
DEPTH   .M            00 001 00 00:   0  Depth
BVW     .V/V          00 000 00 00:   1  Bulk Volume Water
CARB_FLAG.V/V         00 000 00 00:   2  Carbonate Flag
COAL_FLAG.UNITLESS    00 000 00 00:   3  Coal flag
KLOGH   .mD           00 000 00 00:   4  Calculated Horizontal PERMEABILITY from logs
PHIF    .V/V          00 000 00 00:   5  Final Porosity
SAND_FLAG.UNITLESS    00 000 00 00:   6  Sand Flag
SW      .V/V          00 000 00 00:   7  Water Saturation
VCARB   .V/V          00 000 00 00:   8  VCARB
VSH     .V/V          00 000 00 00:   9  Volume of Shale

~Parameter Information
#MNEM.UNIT       Value           Description
#------------    -----           -----------
HLD .         Terms and Conditions.:Header Legal Disclaimer
RUN .         1                 :Run number

~Other Information
PETROPHYSICAL INTERPRETATION: OUTPUT

# --- LOG MNEMONICS AND UNITS ---
#Depth          BVW             CARB_FLAG       COAL_FLAG       KLOGH           PHIF            SAND_FLAG       SW              VCARB           VSH            
#M              V/V             V/V             UNITLESS        mD              V/V             UNITLESS        V/V             V/V             V/V            

~A
# ...
      3434.0000          0.0810          0.0000          0.0000          0.0275          0.0810          0.0000          1.0000          0.0000          0.5765
      3434.1000          0.0775          0.0000          0.0000          0.0236          0.0775          0.0000          1.0000          0.0000          0.5540
      3434.2000          0.0766          0.0000          0.0000          0.0272          0.0766          0.0000          1.0000          0.0000          0.5080
      3434.3000          0.0781          0.0000          0.0000          0.0345          0.0781          0.0000          1.0000          0.0000          0.4807
      3434.4000          0.0814          0.0000          0.0000          0.0449          0.0814          0.0000          1.0000          0.0000          0.4768
      3434.5000          0.0854          0.0000          0.0000          0.0669          0.0854          0.0000          1.0000          0.0000          0.4533
      3434.6000          0.0889          0.0000          0.0000          0.0994          0.0889          0.0000          1.0000          0.0000          0.4230
      3434.7000          0.0911          0.0000          0.0000          0.1207          0.0911          0.0000          1.0000          0.0000          0.4165
      3434.8000          0.0918          0.0000          0.0000          0.1290          0.0918          0.0000          1.0000          0.0000          0.4139
      3434.9000          0.0915          0.0000          0.0000          0.1277          0.0915          0.0000          1.0000          0.0000          0.4116
      3435.0000          0.0912          0.0000          0.0000          0.1009          0.0912          0.0000          1.0000          0.0000          0.4572
      3435.1000          0.0919          0.0000          0.0000          0.0777          0.0919          0.0000          1.0000          0.0000          0.5250
      3435.2000          0.0943          0.0000          0.0000          0.0708          0.0943          0.0000          1.0000          0.0000          0.5835
      3435.3000          0.0980          0.0000          0.0000          0.0839          0.0980          0.0000          1.0000          0.0000          0.6060
      3435.4000          0.1010          0.0000          0.0000          0.1114          0.1010          0.0000          1.0000          0.0000          0.5921
      3435.5000          0.1020          0.0000          0.0000          0.1159          0.1020          0.0000          1.0000          0.0000          0.5999
      3435.6000          0.1005          0.0000          0.0000          0.1255          0.1005          0.0000          1.0000          0.0000          0.5765
      3435.7000          0.0990          0.0000          0.0000          0.1360          0.0990          0.0000          1.0000          0.0000          0.5178
      3435.8000          0.0962          0.0000          0.0000          0.1185          0.0962          0.0000          1.0000          0.0000          0.5028
      3435.9000          0.0925          0.0000          0.0000          0.0824          0.0925          0.0000          1.0000          0.0000          0.5215
      3436.0000          0.0885          0.0000          0.0000          0.0606          0.0885          0.0000          1.0000          0.0000          0.5242
      3436.1000          0.0852          0.0000          0.0000          0.0437          0.0852          0.0000          1.0000          0.0000          0.5431
      3436.2000          0.0838          0.0000          0.0000          0.0417          0.0838          0.0000          1.0000          0.0000          0.5304
      3436.3000          0.0849          0.0000          0.0000          0.0486          0.0849          0.0000          1.0000          0.0000          0.5143
      3436.4000          0.0879          0.0000          0.0000          0.0666          0.0879          0.0000          1.0000          0.0000          0.4943
      3436.5000          0.0933          0.0000          0.0000          0.1077          0.0933          0.0000          1.0000          0.0000          0.4768
      3436.6000          0.1005          0.0000          0.0000          0.2236          0.1005          0.0000          1.0000          0.0000          0.4335
      3436.7000          0.1073          0.0000          0.0000          0.3930          0.1073          0.0000          1.0000          0.0000          0.4189
      3436.8000          0.1098          0.0000          0.0000          0.4736          0.1098          0.0000          1.0000          0.0000          0.4195
      3436.9000          0.1062          0.0000          0.0000          0.3368          0.1062          0.0000          1.0000          0.0000          0.4360
      3437.0000          0.0987          0.0000          0.0000          0.1560          0.0987          0.0000          1.0000          0.0000          0.4833
      3437.1000          0.0915          0.0000          0.0000          0.0775          0.0915          0.0000          1.0000          0.0000          0.5191
      3437.2000          0.0878          0.0000          0.0000          0.0513          0.0878          0.0000          1.0000          0.0000          0.5492
      3437.3000          0.0877          0.0000          0.0000          0.0441          0.0877          0.0000          1.0000          0.0000          0.5804
      3437.4000          0.0891          0.0000          0.0000          0.0445          0.0891          0.0000          1.0000          0.0000          0.6013
      3437.5000          0.0910          0.0000          0.0000          0.0448          0.0910          0.0000          1.0000          0.0000          0.6307
      3437.6000          0.0929          0.0000          0.0000          0.0481          0.0929          0.0000          1.0000          0.0000          0.6448
      3437.7000          0.0941          0.0000          0.0000          0.0562          0.0941          0.0000          1.0000          0.0000          0.6309
      3437.8000          0.0936          0.0000          0.0000          0.0644          0.0936          0.0000          1.0000          0.0000          0.5930
      3437.9000          0.0904          0.0000          0.0000          0.0595          0.0904          0.0000          1.0000          0.0000          0.5591
      3438.0000          0.0859          0.0000          0.0000          0.0420          0.0859          0.0000          1.0000          0.0000          0.5624
      3438.1000          0.0828          0.0000          0.0000          0.0348          0.0828          0.0000          1.0000          0.0000          0.5538
      3438.2000          0.0830          0.0000          0.0000          0.0386          0.0830          0.0000          1.0000          0.0000          0.5343
      3438.3000          0.0859          0.0000          0.0000          0.0661          0.0859          0.0000          1.0000          0.0000          0.4640
      3438.4000          0.0891          0.0000          0.0000          0.1012          0.0891          0.0000          1.0000          0.0000          0.4237
      3438.5000          0.0906          0.0000          0.0000          0.1164          0.0906          0.0000          1.0000          0.0000          0.4172
      3438.6000          0.0898          0.0000          0.0000          0.1029          0.0898          0.0000          1.0000          0.0000          0.4302
      3438.7000          0.0873          0.0000          0.0000          0.0767          0.0873          0.0000          1.0000          0.0000          0.4545
      3438.8000          0.0838          0.0000          0.0000          0.0583          0.0838          0.0000          1.0000          0.0000          0.4585
      3438.9000          0.0799          0.0000          0.0000          0.0438          0.0799          0.0000          1.0000          0.0000          0.4582
