~Version Information
VERS.                     2.0: CWLS log ASCII Standard Version 2.00
WRAP.                      NO: One line per depth step

~Well Information Block
#MNEM.UNIT                 Value                       Information
#------------              -----                       -----------
STRT.M                     188.500                    :START
STOP.M                     346.700                    :STOP
STEP.M                       0.100                    :STEP
NULL.                     -999.25                     :NULL VALUE
COMP.         STATOIL PETRPOLEUM AS                   :Company
WELL.         15/9-F-11                               :Well
FLD .         VOLVE                                   :Field
LOC .         Maersk Inspirer                         :Location
PROV.                                                 :Province
CNTY.                                                 :County
STATE.                                                 :State
CTRY.         Norway                                  :Country
DATE.                                                 :Log Date
SRVC.                                                 :Service Company
UWI .                                                 :Unique Well Identifier
API .                                                 :API Number
LATI.         058 26' 29.960" N    DMS                :Latitude
LONG.         001 53' 14.870" E    DMS                :Longtitude
PD  .         MSL                                     :Permanent Datum
EDF .M            54.900                              :Elevations D.F.
EGL .M           -91.000                              :Elevations G.L.
WD  .M           -91.000                              :Water Depth
ELZ .M            54.900                              :Elev. Log Zero

~Curve Information
#MNEM   .UNIT             API CODE Curve Description
#------------             -------- -----------------
DEPTH   .M            00 001 00 00:   0  Depth
BS      .inches       00 000 00 00:   1  BS:COMPOSITE:rC:NONE:v1
GR      .API          30 150 01 01:   2  GR:COMPOSITE:rC:NONE:v1
RACEHM  .ohm.m        95 220 00 01:   3  RACEHM:COMPOSITE:rC:NONE:v1
RACELM  .ohm.m        00 524 01 00:   4  RACELM:COMPOSITE:rC:NONE:v1
RD      .ohm.m        00 000 00 00:   5  RD:COMPOSITE:rC:NONE:v1
RM      .ohm.m        00 000 00 00:   6  RM:COMPOSITE:rC:NONE:v1
ROP     .m/hr         00 000 00 00:   7  ROP:COMPOSITE:rC:NONE:v1
RPCEHM  .ohm.m        00 000 00 00:   8  RPCEHM:COMPOSITE:rC:NONE:v1
RPCELM  .ohm.m        00 000 00 00:   9  RPCELM:COMPOSITE:rC:NONE:v1
RT      .ohm.m        00 000 00 00:  10  RT:COMPOSITE:rC:NONE:v1

~Parameter Information
#MNEM.UNIT       Value           Description
#------------    -----           -----------
RUN .         1                 :Run number

~Other Information
PETROPHYSICAL INTERPRETATION: INPUT

# --- LOG MNEMONICS AND UNITS ---
#Depth     BS         GR         RACEHM     RACELM     RD         RM         ROP        RPCEHM     RPCELM     RT        
#M         inches     API        ohm.m      ohm.m      ohm.m      ohm.m      m/hr       ohm.m      ohm.m      ohm.m     

~A
# ...
   315.800     26.000      3.700      0.352      0.577      0.392      0.357     70.523      0.357      0.392      0.357
   315.900     26.000      5.000      0.336      0.571      0.388      0.371     70.722      0.371      0.388      0.371
   316.000     26.000      5.300      0.330      0.567      0.389      0.378     70.920      0.378      0.389      0.378
   316.100     26.000      4.600      0.334      0.571      0.391      0.384     71.118      0.384      0.391      0.384
   316.200     26.000      4.500      0.372      0.610      0.428      0.411     71.315      0.411      0.428      0.411
   316.300     26.000      4.900      0.387      0.624      0.449      0.402     71.552      0.402      0.449      0.402
   316.400     26.000      5.200      0.405      0.644      0.452      0.409     71.788      0.409      0.452      0.409
   316.500     26.000      5.100      0.417      0.653      0.444      0.369     72.024      0.369      0.444      0.369
   316.600     26.000      5.100      0.429      0.673      0.454      0.353     71.979      0.353      0.454      0.353
   316.700     26.000      4.800      0.449      0.682      0.465      0.371     71.933      0.371      0.465      0.371
   316.800     26.000      5.400      0.468      0.686      0.480      0.393     71.887      0.393      0.480      0.393
   316.900     26.000      5.700      0.507      0.691      0.496      0.413     71.872      0.413      0.496      0.413
   317.000     26.000      4.800      0.515      0.690      0.510      0.450     71.856      0.450      0.510      0.450
   317.100     26.000      4.300      0.540      0.697      0.523      0.465     71.841      0.465      0.523      0.465
   317.200     26.000      5.300      0.557      0.706      0.538      0.473     71.861      0.473      0.538      0.473
   317.300     26.000      6.200      0.570      0.722      0.546      0.472     71.882      0.472      0.546      0.472
   317.400     26.000      6.000      0.575      0.729      0.568      0.509     71.902      0.508      0.568      0.509
   317.500     26.000      5.500      0.584      0.738      0.575      0.518     71.899      0.518      0.575      0.518
   317.600     26.000      5.800      0.626      0.766      0.567      0.475     71.897      0.475      0.567      0.475
   317.700     26.000      6.800      0.689      0.789      0.574      0.427     71.894      0.427      0.574      0.427
   317.800     26.000      6.400      0.748      0.794      0.573      0.413     71.935      0.413      0.573      0.413
   317.900     26.000      7.000      0.770      0.820      0.575      0.418     71.976      0.418      0.575      0.418
   318.000     26.000      7.300      0.717      0.825      0.563      0.399     72.017      0.399      0.563      0.399
   318.100     26.000      6.600      0.670      0.831      0.564      0.407     72.020      0.407      0.564      0.407
   318.200     26.000      7.100      0.617      0.825      0.531      0.390     72.022      0.391      0.531      0.390
   318.300     26.000      7.700      0.544      0.813      0.514      0.379     72.024      0.379      0.514      0.379
   318.400     26.000      8.000      0.508      0.810      0.505      0.369     72.058      0.369      0.505      0.369
   318.500     26.000      8.200      0.487      0.807      0.494      0.366     72.091      0.366      0.494      0.366
   318.600     26.000      9.300      0.466      0.815      0.497      0.360     72.124      0.360      0.497      0.360
   318.700     26.000     10.100      0.476      0.824      0.507      0.360     72.100      0.360      0.507      0.360
   318.800     26.000     11.100      0.527      0.833      0.533      0.370     72.076      0.370      0.533      0.370
   318.900     26.000     10.400      0.624      0.864      0.593      0.416     72.052      0.416      0.593      0.416
   319.000     26.000     11.100      0.715      0.856      0.631      0.499     68.657      0.499      0.631      0.499
   319.100     26.000     15.100      0.807      0.835      0.695      0.535     65.262      0.535      0.695      0.535
   319.200     26.000     18.600      0.821      0.817      0.795      0.704     61.866      0.704      0.795      0.704
   319.300     26.000     20.500      0.785      0.817      0.906      0.919     56.769      0.919      0.906      0.919
   319.400     26.000     20.200      0.763      0.794      0.937      1.144     51.672      1.144      0.937      1.144
   319.500     26.000     18.100      0.772      0.771      0.895      1.236     46.574      1.236      0.895      1.236
   319.600     26.000     15.600      0.791      0.765      0.915      1.283     44.199      1.283      0.915      1.283
   319.700     26.000     13.600      0.728      0.771      0.911      1.173     41.823      1.173      0.911      1.173
   319.800     26.000     12.600      0.711      0.730      0.873      1.257     39.448      1.257      0.873      1.257
   319.900     26.000     10.700      0.666      0.721      0.857      1.118     36.796      1.118      0.857      1.118
   320.000     26.000     10.700      0.658      0.714      0.842      1.059     34.145      1.059      0.842      1.059
   320.100     26.000      9.800      0.631      0.715      0.802      0.972     31.493      0.972      0.802      0.972
   320.200     26.000      8.100      0.635      0.719      0.783      0.853     26.370      0.853      0.783      0.853
   320.300     26.000      7.700      0.637      0.687      0.736      0.806     21.246      0.806      0.736      0.806
   320.400     26.000      8.400      0.616      0.689      0.722      0.781     16.124      0.781      0.722      0.781
   320.500     26.000      8.700      0.614      0.658      0.665      0.768     15.451      0.768      0.665      0.768
   320.600     26.000      9.100      0.646      0.648      0.674      0.788     14.778      0.788      0.674      0.788
   320.700     26.000      8.600      0.687      0.650      0.687      0.816     14.105      0.817      0.687      0.816
   320.800     26.000      7.900      0.688      0.647      0.697      0.786     14.995      0.786      0.697      0.786
   320.900     26.000      8.500      0.687      0.649      0.698      0.748     15.885      0.748      0.698      0.748
   321.000     26.000      8.300      0.681      0.654      0.698      0.706     16.775      0.706      0.698      0.706
   321.100     26.000      7.000      0.665      0.660      0.688      0.695     18.128      0.695      0.688      0.695
   321.200     26.000      7.200      0.638      0.651      0.674      0.695     19.481      0.695      0.674      0.695
   321.300     26.000      7.500      0.680      0.662      0.691      0.703     20.834      0.703      0.691      0.703
   321.400     26.000      6.800      0.714      0.664      0.702      0.688     22.435      0.688      0.702      0.688
   321.500     26.000      6.900      0.713      0.673      0.706      0.697     24.036      0.697      0.706      0.697
   321.600     26.000      7.800      0.707      0.677      0.701      0.681     25.637      0.681      0.701      0.681
   321.700     26.000      7.300      0.700      0.680      0.704      0.652     27.112      0.652      0.704      0.652
   321.800     26.000      9.000      0.695      0.681      0.692      0.658     28.588      0.658      0.692      0.658
   321.900     26.000      9.200      0.677      0.680      0.673      0.646     30.063      0.646      0.673      0.646
   322.000     26.000     10.000      0.660      0.684      0.664      0.625     32.007      0.625      0.664      0.625
   322.100     26.000     11.000      0.632      0.679      0.639      0.615     33.951      0.615      0.639      0.615
   322.200     26.000      9.800      0.590      0.680      0.621      0.595     35.896      0.595      0.621      0.595
   322.300     26.000     11.100      0.597      0.681      0.604      0.553     38.970      0.553      0.604      0.553
   322.400     26.000     12.300      0.604      0.683      0.586      0.512     42.045      0.512      0.586      0.512
