~Version Information
VERS.                     2.0: CWLS log ASCII Standard Version 2.00
WRAP.                      NO: One line per depth step

~Well Information Block
#MNEM.UNIT                 Value                       Information
#------------              -----                       -----------
STRT.M                   3358.0000                    :START
STOP.M                   3681.9000                    :STOP
STEP.M                      0.1000                    :STEP
NULL.                     -999.25                     :NULL VALUE
COMP.         Statoil Petroleum AS                    :Company
WELL.         15/9-F-1 A                              :Well
FLD .         VOLVE                                   :Field
LOC .         Maersk Inspirer                         :Location
PROV.                                                 :Province
CNTY.         Unused                                  :County
STATE.                                                 :State
CTRY.                                                 :Country
DATE.                                                 :Log Date
SRVC.                                                 :Service Company
UWI .                                                 :Unique Well Identifier
API .                                                 :API Number
LATI.         058 26' 29.907" N    DMS                :Latitude
LONG.         001 53' 14.708" E    DMS                :Longtitude
PD  .         MSL                                     :Permanent Datum
ELZ .M                 0.0000                         :Elev. Log Zero

~Curve Information
#MNEM   .UNIT             API CODE Curve Description
#------------             -------- -----------------
DEPTH   .M            00 001 00 00:   0  Depth
BVW     .V/V          00 000 00 00:   1  Bound Volume Water
COAL_FLAG.unitless    00 000 00 00:   2  Coal Flag
KLOGH   .mD           00 000 00 00:   3  Calculated Horizontal PERMEABILITY from logs
PHIF    .V/V          00 000 00 00:   4  Final porosity
SAND_FLAG.unitless    00 000 00 00:   5  Sand Flag
SW      .V/V          00 000 00 00:   6  Water Saturation (Archie)
VCARB   .V/V          00 000 00 00:   7  IFC(CARB_FLAG>0.5,1-VSH, VCARB)
VSH     .V/V          00 000 00 00:   8  Volume of Shale

~Parameter Information
#MNEM.UNIT       Value           Description
#------------    -----           -----------
HLD .         Terms and Conditions.:Header Legal Disclaimer
RUN .         1                 :Run number

~Other Information
PETROPHYSICAL INTERPRETATION: OUTPUT

# --- LOG MNEMONICS AND UNITS ---
#Depth          BVW             COAL_FLAG       KLOGH           PHIF            SAND_FLAG       SW              VCARB           VSH            
#M              V/V             unitless        mD              V/V             unitless        V/V             V/V             V/V            

~A
# ...
      3610.0000          0.0200          0.0000          0.0010          0.0200          0.0000          1.0000          0.0000          0.7683
      3610.1000          0.0200          0.0000          0.0010          0.0200          0.0000          1.0000          0.0000          0.7646
      3610.2000          0.0200          0.0000          0.0010          0.0200          0.0000          1.0000          0.0000          0.7345
      3610.3000          0.0200          0.0000          0.0010          0.0200          0.0000          1.0000          0.0000          0.6879
      3610.4000          0.0200          0.0000          0.0010          0.0200          0.0000          1.0000          0.0000          0.6769
      3610.5000          0.0200          0.0000          0.0010          0.0200          0.0000          1.0000          0.0000          0.6895
      3610.6000          0.0200          0.0000          0.0010          0.0200          0.0000          1.0000          0.0000          0.7042
      3610.7000          0.0200          0.0000          0.0010          0.0200          0.0000          1.0000          0.0000          0.7068
      3610.8000          0.0200          0.0000          0.0010          0.0200          0.0000          1.0000          0.0000          0.6771
      3610.9000          0.0200          0.0000          0.0010          0.0200          0.0000          1.0000          0.0000          0.6730
      3611.0000          0.0200          0.0000          0.0010          0.0200          0.0000          1.0000          0.0000          0.6524
      3611.1000          0.0200          0.0000          0.0010          0.0200          0.0000          1.0000          0.0000          0.6318
      3611.2000          0.0200          0.0000          0.0010          0.0200          0.0000          1.0000          0.0000          0.6145
      3611.3000          0.0200          0.0000          0.0010          0.0200          0.0000          1.0000          0.0000          0.6113
      3611.4000          0.0204          0.0000          0.0010          0.0204          0.0000          1.0000          0.0000          0.6336
      3611.5000          0.0242          0.0000          0.0010          0.0242          0.0000          1.0000          0.0000          0.6283
      3611.6000          0.0267          0.0000          0.0010          0.0267          0.0000          1.0000          0.0000          0.6325
      3611.7000          0.0251          0.0000          0.0010          0.0251          0.0000          1.0000          0.0000          0.6090
      3611.8000          0.0200          0.0000          0.0010          0.0200          0.0000          1.0000          0.0185          0.5700
      3611.9000          0.0200          0.0000          0.0010          0.0200          0.0000          1.0000          0.0291          0.5544
      3612.0000          0.0200          0.0000          0.0010          0.0200          0.0000          1.0000          0.0313          0.5513
      3612.1000          0.0200          0.0000          0.0010          0.0200          0.0000          1.0000          0.0342          0.5473
      3612.2000          0.0200          0.0000          0.0010          0.0200          0.0000          1.0000          0.0037          0.5937
      3612.3000          0.0255          0.0000          0.0010          0.0255          0.0000          1.0000          0.0000          0.6908
      3612.4000          0.0322          0.0000          0.0010          0.0322          0.0000          1.0000          0.0000          0.7372
      3612.5000          0.0383          0.0000          0.0010          0.0383          0.0000          1.0000          0.0000          0.7372
      3612.6000          0.0466          0.0000          0.0010          0.0466          0.0000          1.0000          0.0000          0.7199
      3612.7000          0.0579          0.0000          0.0018          0.0579          0.0000          1.0000          0.0000          0.6379
      3612.8000          0.0709          0.0000          0.0072          0.0709          0.0000          1.0000          0.0000          0.5094
      3612.9000          0.0798          0.0000          0.0293          0.0823          0.0000          0.9694          0.0166          0.3719
      3613.0000          0.0891          0.0000          0.0617          0.0891          0.0000          1.0000          0.0600          0.3036
      3613.1000          0.0910          0.0000          0.0740          0.0910          0.0000          1.0000          0.0699          0.2882
      3613.2000          0.0895          0.0000          0.0640          0.0895          0.0000          1.0000          0.0618          0.3006
      3613.3000          0.0874          0.0000          0.0571          0.0874          0.0000          1.0000          0.0642          0.3048
      3613.4000          0.0867          0.0000          0.0505          0.0867          0.0000          1.0000          0.0524          0.3188
      3613.5000          0.0873          0.0000          0.0493          0.0873          0.0000          1.0000          0.0441          0.3255
      3613.6000          0.0874          0.0000          0.0454          0.0874          0.0000          1.0000          0.0326          0.3376
      3613.7000          0.0840          0.0000          0.0416          0.0840          0.0000          1.0000          0.0490          0.3308
      3613.8000          0.0747          0.0000          0.0262          0.0747          0.0000          1.0000          0.0639          0.3442
      3613.9000          0.0599          0.0000          0.0108          0.0599          0.0000          1.0000          0.0663          0.3870
      3614.0000          0.0421          0.0000          0.0037          0.0421          0.0000          1.0000          0.0679          0.4391
      3614.1000          0.0257          0.0000          0.0012          0.0257          0.0000          1.0000          0.0512          0.5078
      3614.2000          0.0200          0.0000          0.0010          0.0200          0.0000          1.0000          0.0062          0.5894
      3614.3000          0.0200          0.0000          0.0010          0.0200          0.0000          1.0000          0.0000          0.6486
      3614.4000          0.0200          0.0000          0.0010          0.0200          0.0000          1.0000          0.0000          0.6851
      3614.5000          0.0200          0.0000          0.0010          0.0200          0.0000          1.0000          0.0000          0.6993
      3614.6000          0.0200          0.0000          0.0010          0.0200          0.0000          1.0000          0.0000          0.6682
      3614.7000          0.0200          0.0000          0.0010          0.0200          0.0000          1.0000          0.0000          0.6247
      3614.8000          0.0200          0.0000          0.0010          0.0200          0.0000          1.0000          0.0000          0.6379
      3614.9000          0.0200          0.0000          0.0010          0.0200          0.0000          1.0000          0.0000          0.6925
      3615.0000          0.0200          0.0000          0.0010          0.0200          0.0000          1.0000          0.0000          0.7324
      3615.1000          0.0200          0.0000          0.0010          0.0200          0.0000          1.0000          0.0000          0.7589
      3615.2000          0.0200          0.0000          0.0010          0.0200          0.0000          1.0000          0.0000          0.7564
      3615.3000          0.0200          0.0000          0.0010          0.0200          0.0000          1.0000          0.0000          0.7354
      3615.4000          0.0200          0.0000          0.0010          0.0200          0.0000          1.0000          0.0000          0.7048
      3615.5000          0.0200          0.0000          0.0010          0.0200          0.0000          1.0000          0.0000          0.6906
