~Version Information
VERS.                     2.0: CWLS log ASCII Standard Version 2.00
WRAP.                      NO: One line per depth step

~Well Information Block
#MNEM.UNIT                 Value                       Information
#------------              -----                       -----------
STRT.M                   3465.0000                    :START
STOP.M                   4684.7000                    :STOP
STEP.M                      0.1000                    :STEP
NULL.                     -999.25                     :NULL VALUE
COMP.         STATOIL PETROLEUM AS                    :Company
WELL.         15/9-F-15 D                             :Well
FLD .         VOLVE                                   :Field
LOC .                                                 :Location
PROV.                                                 :Province
CNTY.         MAERSK INSPIRER                         :County
STATE.                                                 :State
CTRY.         NORWAY                                  :Country
DATE.                                                 :Log Date
SRVC.                                                 :Service Company
UWI .                                                 :Unique Well Identifier
API .                                                 :API Number
LATI.         058 26' 29.706" N    DMS                :Latitude
LONG.         001 53' 15.149" E    DMS                :Longtitude
PD  .         MSL                                     :Permanent Datum
EDF .M                54.9000                         :Elevations D.F.
EGL .M               -91.0000                         :Elevations G.L.
ELZ .M                54.9000                         :Elev. Log Zero
LMF .         DF                                      :Log Measured From
MP  .         DF                                      :Drill Measured From

~Curve Information
#MNEM   .UNIT             API CODE Curve Description
#------------             -------- -----------------
DEPTH   .M            00 001 00 00:   0  Depth
BVW     .v/v          00 000 00 00:   1  BVW:CPI:rC:0001:v1
COAL_FLAG.unitless    00 000 00 00:   2  COAL_FLAG:CPI:rC:0001:v1
KLOGH   .mD           00 000 00 00:   3  KLOGH:CPI:rC:0001:v1
PHIF    .v/v          00 000 00 00:   4  PHIF:CPI:rC:0001:v1
SAND_FLAG.unitless    00 000 00 00:   5  SAND_FLAG:CPI:rC:0001:v1
SW      .v/v          00 000 00 00:   6  SW:CPI:rC:0001:v1
VCARB   .v/v          00 000 00 00:   7  VCARB:CPI:rC:0001:v1
VSH     .v/v          00 000 00 00:   8  VSH:CPI:rC:0001:v1

~Parameter Information
#MNEM.UNIT       Value           Description
#------------    -----           -----------
RUN .         .                 :Run Number

~Other Information
PETROPHYSICAL INTERPRETATION: OUTPUT

# --- LOG MNEMONICS AND UNITS ---
#Depth          BVW             COAL_FLAG       KLOGH           PHIF            SAND_FLAG       SW              VCARB           VSH            
#M              v/v             unitless        mD              v/v             unitless        v/v             v/v             v/v            

~A
# ...
      4176.2000          0.0487          0.0000         70.1027          0.2421          1.0000          0.2013          0.0000          0.2324
      4176.3000          0.0486          0.0000         73.5534          0.2415          1.0000          0.2011          0.0000          0.2295
      4176.4000          0.0485          0.0000         68.9867          0.2403          1.0000          0.2018          0.0000          0.2315
      4176.5000          0.0482          0.0000         92.7129          0.2378          1.0000          0.2026          0.0000          0.2151
      4176.6000          0.0481          0.0000         78.2889          0.2358          1.0000          0.2040          0.0000          0.2214
      4176.7000          0.0479          0.0000         89.0805          0.2340          1.0000          0.2048          0.0000          0.2136
      4176.8000          0.0479          0.0000         78.4637          0.2340          1.0000          0.2045          0.0000          0.2197
      4176.9000          0.0478          0.0000         83.4345          0.2340          1.0000          0.2042          0.0000          0.2168
      4177.0000          0.0478          0.0000         81.2312          0.2340          1.0000          0.2044          0.0000          0.2180
      4177.1000          0.0477          0.0000         90.6549          0.2336          1.0000          0.2042          0.0000          0.2124
      4177.2000          0.0476          0.0000         97.2203          0.2334          1.0000          0.2042          0.0000          0.2088
      4177.3000          0.0478          0.0000         69.3052          0.2340          1.0000          0.2042          0.0000          0.2257
      4177.4000          0.0479          0.0000         56.1576          0.2351          1.0000          0.2037          0.0000          0.2368
      4177.5000          0.0479          0.0000         51.0579          0.2360          1.0000          0.2031          0.0000          0.2422
      4177.6000          0.0478          0.0000         60.5341          0.2360          1.0000          0.2025          0.0000          0.2340
      4177.7000          0.0476          0.0000         95.6999          0.2356          1.0000          0.2019          0.0000          0.2116
      4177.8000          0.0476          0.0000         87.8427          0.2358          1.0000          0.2020          0.0000          0.2159
      4177.9000          0.0478          0.0000         75.5555          0.2369          1.0000          0.2019          0.0000          0.2241
      4178.0000          0.0481          0.0000         64.6449          0.2379          1.0000          0.2020          0.0000          0.2325
      4178.1000          0.0481          0.0000         77.4992          0.2382          1.0000          0.2019          0.0000          0.2240
      4178.2000          0.0482          0.0000         83.8489          0.2380          1.0000          0.2025          0.0000          0.2200
      4178.3000          0.0482          0.0000         90.5869          0.2382          1.0000          0.2023          0.0000          0.2165
      4178.4000          0.0483          0.0000         99.8862          0.2391          1.0000          0.2018          0.0000          0.2126
      4178.5000          0.0483          0.0000         94.2317          0.2401          1.0000          0.2014          0.0000          0.2163
      4178.6000          0.0484          0.0000        106.5425          0.2408          1.0000          0.2010          0.0000          0.2109
      4178.7000          0.0485          0.0000         87.7186          0.2414          1.0000          0.2008          0.0000          0.2209
      4178.8000          0.0485          0.0000         76.4339          0.2422          1.0000          0.2001          0.0000          0.2283
      4178.9000          0.0485          0.0000         71.7124          0.2428          1.0000          0.1998          0.0000          0.2319
      4179.0000          0.0485          0.0000         71.7671          0.2427          1.0000          0.1997          0.0000          0.2317
      4179.1000          0.0482          0.0000        102.0403          0.2419          1.0000          0.1992          0.0000          0.2140
      4179.2000          0.0480          0.0000        106.5558          0.2406          1.0000          0.1994          0.0000          0.2108
      4179.3000          0.0479          0.0000         87.7555          0.2391          1.0000          0.2003          0.0000          0.2189
      4179.4000          0.0478          0.0000         73.7259          0.2376          1.0000          0.2011          0.0000          0.2259
      4179.5000          0.0477          0.0000         66.8564          0.2365          1.0000          0.2016          0.0000          0.2297
      4179.6000          0.0475          0.0000         64.9019          0.2357          1.0000          0.2016          0.0000          0.2303
      4179.7000          0.0475          0.0000         48.8463          0.2348          1.0000          0.2021          0.0000          0.2433
      4179.8000          0.0470          0.0000         84.8913          0.2343          1.0000          0.2008          0.0000          0.2162
      4179.9000          0.0468          0.0000        125.1798          0.2344          1.0000          0.1995          0.0000          0.1975
      4180.0000          0.0468          0.0000        106.1639          0.2356          1.0000          0.1985          0.0000          0.2065
      4180.1000          0.0471          0.0000         63.2987          0.2374          1.0000          0.1983          0.0000          0.2331
      4180.2000          0.0471          0.0000         59.2578          0.2387          1.0000          0.1972          0.0000          0.2375
      4180.3000          0.0469          0.0000         77.0492          0.2391          1.0000          0.1963          0.0000          0.2251
      4180.4000          0.0469          0.0000         85.4600          0.2386          1.0000          0.1964          0.0000          0.2197
      4180.5000          0.0468          0.0000         63.4095          0.2380          1.0000          0.1966          0.0000          0.2335
      4180.6000          0.0467          0.0000         63.7428          0.2381          1.0000          0.1960          0.0000          0.2334
      4180.7000          0.0464          0.0000         86.0903          0.2392          1.0000          0.1942          0.0000          0.2199
      4180.8000          0.0465          0.0000         88.8173          0.2410          1.0000          0.1930          0.0000          0.2199
      4180.9000          0.0467          0.0000         50.4220          0.2429          1.0000          0.1921          0.0000          0.2489
      4181.0000          0.0464          0.0000         68.7376          0.2440          1.0000          0.1904          0.0000          0.2349
      4181.1000          0.0461          0.0000        116.7301          0.2439          1.0000          0.1892          0.0000          0.2094
      4181.2000          0.0460          0.0000        111.5042          0.2430          1.0000          0.1892          0.0000          0.2107
      4181.3000          0.0459          0.0000         86.7744          0.2420          1.0000          0.1898          0.0000          0.2220
      4181.4000          0.0459          0.0000         73.6600          0.2416          1.0000          0.1900          0.0000          0.2295
      4181.5000          0.0457          0.0000         72.0017          0.2417          1.0000          0.1893          0.0000          0.2307
      4181.6000          0.0455          0.0000        104.8183          0.2416          1.0000          0.1884          0.0000          0.2125
      4181.7000          0.0454          0.0000        103.1539          0.2410          1.0000          0.1884          0.0000          0.2127
