~Version Information
VERS.                     2.0: CWLS log ASCII Standard Version 2.00
WRAP.                      NO: One line per depth step

~Well Information Block
#MNEM       .UNIT          Value                       Information
#-------------------------------------------------------------------------
STRT        .M             3102.102                    :START
STOP        .M             3505.8096                   :STOP
STEP        .M             0.1524                      :STEP
NULL        .              -999.25                     :NULL VALUE
COMP        .              STATOILHYDRO                :COMPANY
WELL        .              15/9-F-12                   :WELL
FLD         .              VOLVE                       :FIELD
LOC         .              UNKNOWN                     :LOCATION
CNTY        .              UNKNOWN                     :COUNTY
STAT        .              UNKNOWN                     :STATE
CTRY        .              Norway                      :COUNTRY
SRVC        .              UNKNOWN                     :SERVICE COMPANY
DATE        .              UNKNOWN                     :LOG DATE
UWI         .              NO 15/9-F-12                :UNIQUE WELL ID
XCOORD      .              435050.170000               :SURFACE X
YCOORD      .              6478574.700000              :SURFACE Y
LAT         .              58.441713                   :LATITUDE
LON         .              1.887480                    :LONGITUDE
ELEV        .M             54.9000                     :SURFACE ELEV
ELEV_TYPE   .              KB                          :ELEV TYPE

~Curve Information
#MNEM       .UNIT             API CODE : Curve Description
#-------------------------------------------------------------------------
DEPTH       .M                UNKNOWN  : Measured Dept
BVW         .v/v_decimal      UNKNOWN  : BVW:UNKNOWN:rC:NONE:v1
KLOGH       .mD               UNKNOWN  : KLOGH:UNKNOWN:rC:NONE:v1
PHIF        .v/v_decimal      UNKNOWN  : PHIF:UNKNOWN:rC:NONE:v1
SW          .v/v_decimal      UNKNOWN  : SW:UNKNOWN:rC:NONE:v1
VSH         .v/v_decimal      UNKNOWN  : VSH:UNKNOWN:rC:NONE:v1
# --- LOG MNEMONICS AND UNITS ---
#Depth     BVW        KLOGH      PHIF       SW         VSH       
#M         v/v_decima mD         v/v_decima v/v_decima v/v_decima
~A
# ...
 3250.8444 0.03530000 0.74870002 0.24120000 0.14650000 0.45059999
 3250.9968 0.03550000 0.56449997 0.23420000 0.15170000 0.45800000
 3251.1492 0.03579999 0.61189997 0.23860000 0.15009999 0.45800000
 3251.3016 0.03610000 0.66829997 0.24310000 0.14830000 0.45780000
  3251.454 0.03629999 0.73000001 0.24770000 0.14669999 0.45759999
 3251.6064 0.03640000 0.82150000 0.25060001 0.14519999 0.45449998
 3251.7588 0.03640000 0.93650001 0.25279998 0.14380000 0.45010000
 3251.9112 0.03629999 1.06749999 0.25499999 0.14249999 0.44569998
 3252.0636 0.03599999 1.22990000 0.25369998 0.14169999 0.43770000
  3252.216 0.03519999 1.43819999 0.24760000 0.14200000 0.42469999
 3252.3684 0.03440000 1.68190002 0.24140000 0.14239999 0.41170001
 3252.5208 0.03400000 1.91530001 0.23589999 0.14390000 0.40059998
 3252.6732 0.03579999 1.84329998 0.23450000 0.15289999 0.40110000
 3252.8256 0.03819999 1.77400004 0.23309999 0.16380000 0.40169999
  3252.978 0.04109999 1.70739996 0.23170000 0.17759999 0.40230000
 3253.1304 0.04109999 1.61119997 0.22939999 0.17910000 0.40320000
 3253.2828 0.04050000 1.51549994 0.22709999 0.17829999 0.40400001
 3253.4352 0.03990000 1.42540001 0.22480000 0.17749999 0.40490001
 3253.5876 0.04199999 1.48140001 0.22609999 0.18590000 0.40430000
   3253.74 0.04769999 1.65760004 0.23029999 0.20700000 0.40250000
 3253.8924 0.05700000 1.85479998 0.23440000 0.24310000 0.40079998
 3254.0448 0.07039999 2.09439992 0.23729999 0.29660001 0.39750000
 3254.1972 0.07450000 2.41750001 0.23739999 0.31360000 0.39059999
 3254.3496 0.07949999 2.79049992 0.23749999 0.33480000 0.38379999
  3254.502 0.08590000 3.21289992 0.23759999 0.36169999 0.37709999
 3254.6544 0.08760000     3.0625 0.24079999 0.36399999 0.38220000
 3254.8068 0.08940000 2.91910004 0.24400000 0.36649999 0.38740000
 3254.9592 0.09130000 2.78239989 0.24719999 0.36930000 0.39259999
 3255.1116 0.09279999 2.70029997 0.25189998 0.36840000 0.39820000
  3255.264 0.09420000 2.63790011 0.25720000 0.36610001 0.40400001
 3255.4164 0.09560000 2.57699990 0.26249998 0.36410000 0.40990000
 3255.5688 0.09629999 2.59929990 0.26519998 0.36300000 0.41190001
 3255.7212 0.09600000 2.72569990 0.26480001 0.36259999 0.40920001
 3255.8736 0.09579999 2.85820007 0.26440000 0.36230000 0.40659999
  3256.026 0.09560000 2.96959996 0.26409998 0.36199998 0.40450000
 3256.1784 0.09560000 2.94939994 0.26399999 0.36190000 0.40470001
 3256.3308 0.09549999 2.92939996 0.26399999 0.36190000 0.40500000
 3256.4832 0.09549999 2.90949988 0.26390001 0.36179998 0.40529999
 3256.6356 0.09610000 2.73489999 0.26399999 0.36410000 0.40830001
  3256.788 0.09679999 2.55320000 0.26409998 0.36660000 0.41170001
 3256.9404 0.09749999 2.38369989 0.26420000 0.36919999 0.41510000
 3257.0928 0.09749999 2.28489995 0.26449999 0.36869999 0.41749998
 3257.2452 0.09709999 2.22769999 0.26499998 0.36620000 0.41909998
 3257.3976 0.09660000 2.17199993 0.26550000 0.36379998 0.42080000
   3257.55 0.09589999 2.07879996 0.26539999 0.36129999 0.42280000
 3257.7024 0.09470000 1.91550004 0.26399999 0.35879999 0.42550000
 3257.8548 0.09359999 1.76499998 0.26260000 0.35640001 0.42829999
 3258.0072 0.09250000 1.63530004 0.26109999 0.35420000 0.43059998
 3258.1596 0.09080000 1.69200003 0.25580000 0.35499998 0.42429998
  3258.312 0.08919999 1.75059998 0.25060001 0.35600000 0.41800001
 3258.4644 0.08770000 1.81120002 0.24539999 0.35730001 0.41170001
 3258.6168 0.08529999 1.91400003 0.24060000 0.35429999 0.40479999
 3258.7692 0.08280000 2.03570008 0.23600000 0.35060000 0.39770001
 3258.9216 0.08039999 2.16519999 0.23139999 0.34760001 0.39070001
  3259.074 0.07720000 2.04250001 0.21750000 0.35510000 0.38109999
 3259.2264 0.07310000 1.69669997 0.19359999 0.37740001 0.36880001
 3259.3788 0.06899999 1.40939998 0.16979999 0.40659999 0.35659998
 3259.5312 0.06570000 1.15030002 0.15000000 0.43810001 0.34880000
 3259.6836 0.06509999 0.87660002 0.14609999 0.44539999 0.35839998
  3259.836 0.06440000 0.66799998 0.14219999 0.45320001 0.36809998
 3259.9884 0.06010000 0.26699998 0.10329999 0.58249998 0.37770000
 3260.1408 0.06480000 0.49750000 0.14460000 0.44780001 0.38449999
 3260.2932 0.06589999 0.49630001 0.15180000 0.43380001 0.39100000
 3260.4456 0.06689999 0.49509999 0.15899999 0.42089998 0.39750000
  3260.598 0.06700000 0.55739998 0.16410000 0.40830001 0.39629998
 3260.7504 0.06660000 0.67089998 0.16820000 0.39610001 0.39089998
 3260.9028 0.06620000 0.80760002 0.17219999 0.38449999 0.38560000
 3261.0552 0.06490000 0.92909997 0.17630000 0.36829999 0.38249999
 3261.2076     0.0625 0.98689997 0.18070000 0.34549999 0.38350000
   3261.36 0.06030000 1.04820001 0.18520000 0.32580000 0.38449999
 3261.5124 0.05869999 1.12189996 0.19009999 0.30880001 0.38560000
 3261.6648 0.05990000 1.30949997 0.20069999 0.29840001 0.38760000
 3261.8172 0.06109999 1.52830004 0.21119999 0.28909999 0.38949999
 3261.9696 0.06230000 1.78380000 0.22179999 0.28069999 0.39140000
  3262.122 0.06270000 2.10190010 0.22490000 0.27900001 0.38620001
 3262.2744 0.06310000 2.48270010 0.22599999 0.27889999 0.37929999
 3262.4268 0.06340000 2.93249988 0.22720000 0.27880001 0.37229999
 3262.5792 0.06469999 2.81590008 0.22619999 0.28589999 0.37329998
 3262.7316 0.06710000 2.23300004 0.22310000 0.30090001 0.38179999
  3262.884 0.07000000 1.77079999 0.21999999 0.31810000 0.39019998
 3263.0364 0.07249999 1.59039998 0.21750000 0.33349999 0.39320001
 3263.1888 0.07280000 2.12369990 0.21690000 0.33579999 0.37869998
 3263.3412 0.07310000 2.83579993 0.21629999 0.33809998 0.36419999
 3263.4936 0.07339999 3.78679990 0.21559999 0.34049999 0.34959998
  3263.646 0.07310000 3.39840006 0.21619999 0.33829998 0.35530000
 3263.7984 0.07280000 2.99729990 0.21670000 0.33579999 0.36190000
 3263.9508 0.07249999 2.64339995 0.21729999 0.33349999 0.36849999
 3264.1032 0.07079999 3.08360004 0.21729999 0.32580000 0.36100000
 3264.2556 0.06859999 4.11019992 0.21699999 0.31630000 0.34689998
  3264.408 0.06669999 5.47840023 0.21670000 0.30770000 0.33280000
 3264.5604 0.06530000 6.79339981 0.21619999 0.30189999 0.32190001
 3264.7128 0.06449999 7.54659986 0.21529999 0.29960000 0.31600001
 3264.8652 0.06379999 8.38319969 0.21439999 0.29750001 0.31020000
 3265.0176 0.06300000 9.04740047 0.21289999 0.29580000 0.30509999
   3265.17 0.06140000 7.82590007 0.20640000 0.29730001 0.30640000
 3265.3224 0.05990000 6.76919984 0.20000000 0.29929998 0.30770000
 3265.4748 0.05840000 5.85519981 0.19359999 0.30180001 0.30899998
 3265.6272 0.05730000 6.20340013 0.19130000 0.29980000 0.30419999
 3265.7796 0.05640000 6.84170007 0.18979999 0.29710000 0.29809999
  3265.932 0.05550000 7.54559993 0.18829999 0.29460000 0.29199999
 3266.0844 0.05389999 7.08750009 0.18050000 0.29890000 0.28810000
 3266.2368 0.05200000 5.84919977 0.16760000 0.31000000 0.28600001
 3266.3892 0.05009999 4.82730007 0.15479999 0.32330000 0.28389999
 3266.5416 0.04830000 4.37179994 0.14540000 0.33210000 0.28029999
  3266.694 0.04699999 5.07110023 0.14530000 0.32339999 0.27309998
 3266.8464 0.04580000 5.88219976 0.14519999 0.31540000 0.26579999
 3266.9988 0.04470000 6.82310009 0.14509999 0.30799999 0.25850000
 3267.1512 0.04540000 7.11819982 0.14669999 0.30959999 0.25789999
 3267.3036 0.04619999 7.41979980 0.14830000 0.31159999 0.25729998
  3267.456 0.04699999 7.73420000 0.14980000 0.31369999 0.25670000
 3267.6084 0.04780000 7.04589986 0.15819999 0.30239999 0.26859998
 3267.7608 0.04859999 6.07730007 0.16930000 0.28729999 0.28560000
 3267.9132 0.04940000 5.24179983 0.18039999 0.27369999 0.30259999
 3268.0656 0.05070000 5.07089996 0.18950000 0.26739999 0.31229999
  3268.218 0.05290000 5.70989990 0.19609999 0.27000001 0.31240001
 3268.3704 0.05550000 6.42950010 0.20260000 0.27390000     0.3125
 3268.5228 0.05730000 6.55670022 0.20829999 0.27520000 0.31670001
 3268.6752 0.05370000 3.80719995 0.20929999 0.25650000 0.34380000
 3268.8276 0.05079999 2.21059989 0.21029999 0.24169999 0.37090000
   3268.98 0.04850000 1.28359997 0.21130000 0.22949999 0.39800000
 3269.1324 0.05009999 0.99430000 0.21220000 0.23630000 0.41110000
 3269.2848 0.05260000 0.80449998 0.21299999 0.24709999 0.42210000
