~Version Information
VERS.                     2.0: CWLS log ASCII Standard Version 2.00
WRAP.                      NO: One line per depth step

~Well Information Block
#MNEM.UNIT                 Value                       Information
#------------              -----                       -----------
STRT.M                   3465.0000                    :START
STOP.M                   4684.7000                    :STOP
STEP.M                      0.1000                    :STEP
NULL.                     -999.25                     :NULL VALUE
COMP.         STATOIL PETROLEUM AS                    :Company
WELL.         15/9-F-15 D                             :Well
FLD .         VOLVE                                   :Field
LOC .                                                 :Location
PROV.                                                 :Province
CNTY.         MAERSK INSPIRER                         :County
STATE.                                                 :State
CTRY.         NORWAY                                  :Country
DATE.                                                 :Log Date
SRVC.                                                 :Service Company
UWI .                                                 :Unique Well Identifier
API .                                                 :API Number
LATI.         058 26' 29.706" N    DMS                :Latitude
LONG.         001 53' 15.149" E    DMS                :Longtitude
PD  .         MSL                                     :Permanent Datum
EDF .M                54.9000                         :Elevations D.F.
EGL .M               -91.0000                         :Elevations G.L.
ELZ .M                54.9000                         :Elev. Log Zero
LMF .         DF                                      :Log Measured From
MP  .         DF                                      :Drill Measured From

~Curve Information
#MNEM   .UNIT             API CODE Curve Description
#------------             -------- -----------------
DEPTH   .M            00 001 00 00:   0  Depth
BVW     .v/v          00 000 00 00:   1  BVW:CPI:rC:0001:v1
COAL_FLAG.unitless    00 000 00 00:   2  COAL_FLAG:CPI:rC:0001:v1
KLOGH   .mD           00 000 00 00:   3  KLOGH:CPI:rC:0001:v1
PHIF    .v/v          00 000 00 00:   4  PHIF:CPI:rC:0001:v1
SAND_FLAG.unitless    00 000 00 00:   5  SAND_FLAG:CPI:rC:0001:v1
SW      .v/v          00 000 00 00:   6  SW:CPI:rC:0001:v1
VCARB   .v/v          00 000 00 00:   7  VCARB:CPI:rC:0001:v1
VSH     .v/v          00 000 00 00:   8  VSH:CPI:rC:0001:v1

~Parameter Information
#MNEM.UNIT       Value           Description
#------------    -----           -----------
RUN .         .                 :Run Number

~Other Information
PETROPHYSICAL INTERPRETATION: OUTPUT

# --- LOG MNEMONICS AND UNITS ---
#Depth          BVW             COAL_FLAG       KLOGH           PHIF            SAND_FLAG       SW              VCARB           VSH            
#M              v/v             unitless        mD              v/v             unitless        v/v             v/v             v/v            

~A
# ...
      4417.0000          0.0643          0.0000        245.5016          0.1900          1.0000          0.3383          0.0000          0.1255
      4417.1000          0.0643          0.0000        326.8460          0.1894          1.0000          0.3394          0.0000          0.1112
      4417.2000          0.0643          0.0000        393.7545          0.1891          1.0000          0.3403          0.0000          0.1020
      4417.3000          0.0646          0.0000        428.1570          0.1897          1.0000          0.3403          0.0000          0.0985
      4417.4000          0.0649          0.0000        455.4493          0.1915          1.0000          0.3389          0.0000          0.0970
      4417.5000          0.0651          0.0000        483.3448          0.1937          1.0000          0.3364          0.0000          0.0961
      4417.6000          0.0655          0.0000        481.1398          0.1958          1.0000          0.3348          0.0000          0.0982
      4417.7000          0.0657          0.0000        508.5071          0.1977          1.0000          0.3322          0.0000          0.0973
      4417.8000          0.0659          0.0000        577.4570          0.2007          1.0000          0.3286          0.0000          0.0938
      4417.9000          0.0662          0.0000        552.2735          0.2024          1.0000          0.3271          0.0000          0.0975
      4418.0000          0.0663          0.0000        626.1193          0.2030          1.0000          0.3264          0.0000          0.0920
      4418.1000          0.0664          0.0000        598.1476          0.2025          1.0000          0.3278          0.0000          0.0937
      4418.2000          0.0667          0.0000        493.3134          0.2014          1.0000          0.3309          0.0000          0.1020
      4418.3000          0.0670          0.0000        438.3951          0.2006          1.0000          0.3339          0.0000          0.1070
      4418.4000          0.0672          0.0000        413.1534          0.2000          1.0000          0.3361          0.0000          0.1093
      4418.5000          0.0680          0.0000        400.7161          0.1990          1.0000          0.3419          0.0000          0.1099
      4418.6000          0.0687          0.0000        407.3159          0.1971          1.0000          0.3484          0.0000          0.1075
      4418.7000          0.0686          0.0000        393.0587          0.1939          1.0000          0.3536          0.0000          0.1063
      4418.8000          0.0682          0.0000        436.2662          0.1901          1.0000          0.3589          0.0000          0.0979
      4418.9000          0.0680          0.0000        421.9436          0.1866          1.0000          0.3641          0.0000          0.0964
      4419.0000          0.0680          0.0000        331.6764          0.1837          1.0000          0.3702          0.0000          0.1054
      4419.1000          0.0675          0.0000        285.6576          0.1824          1.0000          0.3702          0.0000          0.1115
      4419.2000          0.0672          0.0000        227.1480          0.1820          1.0000          0.3692          0.0000          0.1222
      4419.3000          0.0674          0.0000        273.3127          0.1805          1.0000          0.3732          0.0000          0.1119
      4419.4000          0.0671          0.0000        373.8127          0.1797          1.0000          0.3736          0.0000          0.0961
      4419.5000          0.0672          0.0000        297.1119          0.1797          1.0000          0.3739          0.0000          0.1072
      4419.6000          0.0677          0.0000        221.4973          0.1804          1.0000          0.3754          0.0000          0.1220
      4419.7000          0.0673          0.0000        185.8182          0.1813          1.0000          0.3711          0.0000          0.1313
      4419.8000          0.0659          0.0000        217.6779          0.1822          1.0000          0.3618          0.0000          0.1244
      4419.9000          0.0629          0.0000        301.5545          0.1832          1.0000          0.3431          0.0000          0.1096
      4420.0000          0.0623          0.0000        242.0630          0.1849          1.0000          0.3370          0.0000          0.1217
      4420.1000          0.0623          0.0000        295.3112          0.1863          1.0000          0.3343          0.0000          0.1133
      4420.2000          0.0627          0.0000        332.2330          0.1883          1.0000          0.3331          0.0000          0.1094
      4420.3000          0.0619          0.0000        351.5974          0.1862          1.0000          0.3328          0.0000          0.1048
      4420.4000          0.0628          0.0000        235.6536          0.1792          1.0000          0.3503          0.0000          0.1179
      4420.5000          0.0631          0.0000        166.8476          0.1709          1.0000          0.3693          0.0000          0.1272
      4420.6000          0.0638          0.0000        153.1048          0.1630          1.0000          0.3916          0.0000          0.1243
      4420.7000          0.0632          0.0000        120.6917          0.1568          1.0000          0.4032          0.0145          0.1303
      4420.8000          0.0630          0.0000        108.1669          0.1532          1.0000          0.4111          0.0255          0.1324
      4420.9000          0.0537          0.0000        121.2224          0.1505          1.0000          0.3568          0.0440          0.1245
      4421.0000          0.0484          0.0000        103.7050          0.1530          1.0000          0.3165          0.0239          0.1342
      4421.1000          0.0497          0.0000        117.1601          0.1601          1.0000          0.3107          0.0000          0.1346
      4421.2000          0.0494          0.0000        138.6500          0.1703          1.0000          0.2903          0.0000          0.1356
      4421.3000          0.0540          0.0000        182.4640          0.1785          1.0000          0.3025          0.0000          0.1296
      4421.4000          0.0585          0.0000        222.0472          0.1831          1.0000          0.3194          0.0000          0.1242
      4421.5000          0.0653          0.0000        254.3482          0.1843          1.0000          0.3546          0.0000          0.1187
      4421.6000          0.0656          0.0000        247.1838          0.1834          1.0000          0.3579          0.0000          0.1193
      4421.7000          0.0626          0.0000        156.5576          0.1811          1.0000          0.3458          0.0000          0.1393
      4421.8000          0.0603          0.0000        143.5707          0.1776          1.0000          0.3394          0.0000          0.1404
      4421.9000          0.0611          0.0000         88.3469          0.1731          1.0000          0.3532          0.0000          0.1598
      4422.0000          0.0621          0.0000         85.5562          0.1709          1.0000          0.3635          0.0000          0.1594
      4422.1000          0.0622          0.0000        149.3118          0.1719          1.0000          0.3618          0.0000          0.1334
      4422.2000          0.0639          0.0000        174.2093          0.1741          1.0000          0.3671          0.0000          0.1279
      4422.3000          0.0664          0.0000        157.4811          0.1756          1.0000          0.3780          0.0000          0.1342
      4422.4000          0.0685          0.0000        139.9211          0.1761          1.0000          0.3889          0.0000          0.1403
      4422.5000          0.0674          0.0000        116.3743          0.1734          1.0000          0.3888          0.0000          0.1468
