~Version Information
VERS.                     2.0: CWLS log ASCII Standard Version 2.00
WRAP.                      NO: One line per depth step

~Well Information Block
#MNEM.UNIT                 Value                       Information
#------------              -----                       -----------
STRT.M                   3204.0000                    :START
STOP.M                   3464.9000                    :STOP
STEP.M                      0.1000                    :STEP
NULL.                     -999.25                     :NULL VALUE
COMP.         Statoil Petroleum                       :Company
WELL.         15/9-F-1 B                              :Well
FLD .         VOLVE                                   :Field
LOC .         Maersk Inspirer                         :Location
PROV.                                                 :Province
CNTY.                                                 :County
STATE.                                                 :State
CTRY.                                                 :Country
DATE.                                                 :Log Date
SRVC.                                                 :Service Company
UWI .                                                 :Unique Well Identifier
API .                                                 :API Number
LATI.         058 26' 29.907" N    DMS                :Latitude
LONG.         001 53' 14.708" E    DMS                :Longtitude
PD  .         MSL                                     :Permanent Datum
ELZ .M                 0.0000                         :Elev. Log Zero

~Curve Information
#MNEM   .UNIT             API CODE Curve Description
#------------             -------- -----------------
DEPTH   .M            00 001 00 00:   0  Depth
BVW     .V/V          00 000 00 00:   1  Bulk Volume Water
CARB_FLAG.V/V         00 000 00 00:   2  Carbonate Flag
COAL_FLAG.UNITLESS    00 000 00 00:   3  Coal flag
KLOGH   .mD           00 000 00 00:   4  Calculated Horizontal PERMEABILITY from logs
PHIF    .V/V          00 000 00 00:   5  Final Porosity
SAND_FLAG.UNITLESS    00 000 00 00:   6  Sand Flag
SW      .V/V          00 000 00 00:   7  Water Saturation
VCARB   .V/V          00 000 00 00:   8  VCARB
VSH     .V/V          00 000 00 00:   9  Volume of Shale

~Parameter Information
#MNEM.UNIT       Value           Description
#------------    -----           -----------
HLD .         Terms and Conditions.:Header Legal Disclaimer
RUN .         1                 :Run number

~Other Information
PETROPHYSICAL INTERPRETATION: OUTPUT

# --- LOG MNEMONICS AND UNITS ---
#Depth          BVW             CARB_FLAG       COAL_FLAG       KLOGH           PHIF            SAND_FLAG       SW              VCARB           VSH            
#M              V/V             V/V             UNITLESS        mD              V/V             UNITLESS        V/V             V/V             V/V            

~A
# ...
      3379.0000          0.1066          0.0000          0.0000          0.5722          0.1066          1.0000          1.0000          0.0000          0.3264
      3379.1000          0.1066          0.0000          0.0000          0.8476          0.1110          1.0000          0.9602          0.0000          0.3114
      3379.2000          0.1007          0.0000          0.0000          0.6690          0.1064          1.0000          0.9463          0.0202          0.2897
      3379.3000          0.0973          0.0000          0.0000          0.3478          0.0973          0.0000          1.0000          0.0528          0.2855
      3379.4000          0.0895          0.0000          0.0000          0.2079          0.0895          0.0000          1.0000          0.0914          0.2729
      3379.5000          0.0869          0.0000          0.0000          0.1758          0.0869          0.0000          1.0000          0.1065          0.2672
      3379.6000          0.0888          0.0000          0.0000          0.2071          0.0888          0.0000          1.0000          0.1050          0.2627
      3379.7000          0.0925          0.0000          0.0000          0.2818          0.0925          0.0000          1.0000          0.1008          0.2552
      3379.8000          0.0943          0.0000          0.0000          0.2859          0.0943          0.0000          1.0000          0.0675          0.2805
      3379.9000          0.0925          0.0000          0.0000          0.2195          0.0925          0.0000          1.0000          0.0448          0.3086
      3380.0000          0.0895          0.0000          0.0000          0.1461          0.0895          0.0000          1.0000          0.0150          0.3503
      3380.1000          0.0890          0.0000          0.0000          0.1287          0.0890          0.0000          1.0000          0.0011          0.3688
      3380.2000          0.0922          0.0000          0.0000          0.1710          0.0922          0.0000          1.0000          0.0010          0.3583
      3380.3000          0.0978          0.0000          0.0000          0.2838          0.0978          0.0000          1.0000          0.0016          0.3387
      3380.4000          0.1011          0.0000          0.0000          0.4805          0.1030          1.0000          0.9814          0.0148          0.3067
      3380.5000          0.1028          0.0000          0.0000          0.6354          0.1061          1.0000          0.9687          0.0149          0.2963
      3380.6000          0.1018          0.0000          0.0000          0.6555          0.1065          1.0000          0.9558          0.0151          0.2950
      3380.7000          0.0994          0.0000          0.0000          0.5677          0.1047          1.0000          0.9493          0.0167          0.2988
      3380.8000          0.0987          0.0000          0.0000          0.4624          0.1022          1.0000          0.9662          0.0213          0.3022
      3380.9000          0.1000          0.0000          0.0000          0.4009          0.1000          1.0000          1.0000          0.0314          0.2985
      3381.0000          0.0983          0.0000          0.0000          0.3653          0.0983          0.0000          1.0000          0.0438          0.2913
      3381.1000          0.0960          0.0000          0.0000          0.2821          0.0960          0.0000          1.0000          0.0319          0.3108
      3381.2000          0.0923          0.0000          0.0000          0.1981          0.0923          0.0000          1.0000          0.0269          0.3281
      3381.3000          0.0881          0.0000          0.0000          0.1494          0.0881          0.0000          1.0000          0.0454          0.3218
      3381.4000          0.0852          0.0000          0.0000          0.1269          0.0852          0.0000          1.0000          0.0644          0.3115
      3381.5000          0.0846          0.0000          0.0000          0.1349          0.0846          0.0000          1.0000          0.0897          0.2891
      3381.6000          0.0862          0.0000          0.0000          0.1525          0.0862          0.0000          1.0000          0.0868          0.2871
      3381.7000          0.0886          0.0000          0.0000          0.1903          0.0886          0.0000          1.0000          0.0883          0.2783
      3381.8000          0.0906          0.0000          0.0000          0.2300          0.0906          0.0000          1.0000          0.0928          0.2683
      3381.9000          0.0907          0.0000          0.0000          0.2225          0.0907          0.0000          1.0000          0.0814          0.2782
      3382.0000          0.0886          0.0000          0.0000          0.1828          0.0886          0.0000          1.0000          0.0800          0.2862
      3382.1000          0.0857          0.0000          0.0000          0.1562          0.0857          0.0000          1.0000          0.1020          0.2746
      3382.2000          0.0859          0.0000          0.0000          0.1741          0.0859          0.0000          1.0000          0.1242          0.2546
      3382.3000          0.0934          0.0000          0.0000          0.3132          0.0934          0.0000          1.0000          0.1084          0.2460
      3382.4000          0.1101          0.0000          0.0000          1.1339          0.1101          1.0000          1.0000          0.0640          0.2345
      3382.5000          0.1323          0.0000          0.0000          6.2782          0.1323          1.0000          1.0000          0.0068          0.2186
      3382.6000          0.1525          0.0000          0.0000         30.8654          0.1526          1.0000          0.9992          0.0000          0.1973
      3382.7000          0.1542          0.0000          0.0000         65.3487          0.1618          1.0000          0.9529          0.0000          0.1816
      3382.8000          0.1417          0.0000          0.0000         43.2192          0.1562          1.0000          0.9071          0.0000          0.1818
      3382.9000          0.1271          0.0000          0.0000         10.8761          0.1393          1.0000          0.9125          0.0000          0.2108
      3383.0000          0.1112          0.0000          0.0000          2.2953          0.1200          1.0000          0.9270          0.0260          0.2396
      3383.1000          0.1042          0.0000          0.0000          0.7002          0.1066          1.0000          0.9775          0.0265          0.2825
      3383.2000          0.1010          0.0000          0.0000          0.4174          0.1010          1.0000          1.0000          0.0211          0.3062
      3383.3000          0.0991          0.0000          0.0000          0.4224          0.1009          1.0000          0.9828          0.0266          0.3009
      3383.4000          0.0964          0.0000          0.0000          0.4383          0.1019          1.0000          0.9457          0.0157          0.3093
      3383.5000          0.0950          0.0000          0.0000          0.4014          0.1015          1.0000          0.9354          0.0046          0.3229
      3383.6000          0.0942          0.0000          0.0000          0.3257          0.0999          0.0000          0.9431          0.0000          0.3418
      3383.7000          0.0954          0.0000          0.0000          0.2737          0.0986          0.0000          0.9672          0.0000          0.3594
      3383.8000          0.0963          0.0000          0.0000          0.2651          0.0994          0.0000          0.9687          0.0000          0.3792
      3383.9000          0.0956          0.0000          0.0000          0.3007          0.1014          0.0000          0.9429          0.0000          0.3838
