~Version Information
VERS.                     2.0: CWLS log ASCII Standard Version 2.00
WRAP.                      NO: One line per depth step

~Well Information Block
#MNEM.UNIT                 Value                       Information
#------------              -----                       -----------
STRT.M                    3575.000                    :START
STOP.M                    3761.800                    :STOP
STEP.M                       0.100                    :STEP
NULL.                     -999.25                     :NULL VALUE
COMP.         Statoil Petroleum AS                    :Company
WELL.         15/9-F-11 A                             :Well
FLD .         VOLVE                                   :Field
LOC .         Maersk Inspirer                         :Location
PROV.                                                 :Province
CNTY.                                                 :County
STATE.                                                 :State
CTRY.         Norway                                  :Country
DATE.                                                 :Log Date
SRVC.                                                 :Service Company
UWI .                                                 :Unique Well Identifier
API .                                                 :API Number
LATI.         058 26' 29.956" N    DMS                :Latitude
LONG.         001 53' 14.866" E    DMS                :Longtitude
PD  .         MSL                                     :Permanent Datum
EDF .M            54.900                              :Elevations D.F.
EGL .M           -91.000                              :Elevations G.L.
ELZ .M            54.900                              :Elev. Log Zero
LMF .         DF                                      :Log Measured From

~Curve Information
#MNEM   .UNIT             API CODE Curve Description
#------------             -------- -----------------
DEPTH   .M            00 001 00 00:   0  Depth
BVW     .v/v          00 000 00 00:   1  BVW:CPI:rC:NONE:v1
CARB_FLAG.UNKNOWN     00 000 00 00:   2  CARB_FLAG:CPI:rC:NONE:v1
COAL_FLAG.UNKNOWN     00 000 00 00:   3  COAL_FLAG:CPI:rC:NONE:v1
KLOGH   .mD           00 000 00 00:   4  KLOGH:CPI:rC:NONE:v1
PHIF    .v/v          00 000 00 00:   5  PHIF:CPI:rC:NONE:v1
SAND_FLAG.UNKNOWN     00 000 00 00:   6  SAND_FLAG:CPI:rC:NONE:v1
SW      .v/v          00 000 00 00:   7  SW:CPI:rC:NONE:v1
VSH     .v/v          00 000 00 00:   8  VSH:CPI:rC:NONE:v1

~Parameter Information
#MNEM.UNIT       Value           Description
#------------    -----           -----------
RUN .         1                 :Run number

~Other Information
PETROPHYSICAL_INTERPRETATION: OUTPUT

# --- LOG MNEMONICS AND UNITS ---
#Depth     BVW        CARB_FLAG  COAL_FLAG  KLOGH      PHIF       SAND_FLAG  SW         VSH       
#M         v/v        UNKNOWN    UNKNOWN    mD         v/v        UNKNOWN    v/v        v/v       

~A
# ...
  3599.300      0.062      0.000      0.000     24.804      0.106      1.000      0.582      0.162
  3599.400      0.063      0.000      0.000     27.722      0.109      1.000      0.576      0.159
  3599.500      0.064      0.000      0.000     42.949      0.114      1.000      0.562      0.142
  3599.600      0.065      0.000      0.000     44.970      0.121      1.000      0.539      0.146
  3599.700      0.066      0.000      0.000     37.224      0.128      1.000      0.515      0.161
  3599.800      0.066      0.000      0.000     42.873      0.132      1.000      0.502      0.158
  3599.900      0.066      0.000      0.000     58.552      0.132      1.000      0.501      0.143
  3600.000      0.066      0.000      0.000     62.876      0.129      1.000      0.510      0.137
  3600.100      0.065      0.000      0.000     57.344      0.126      1.000      0.514      0.139
  3600.200      0.065      0.000      0.000     48.293      0.125      1.000      0.517      0.146
  3600.300      0.068      0.000      0.000     46.740      0.127      1.000      0.536      0.150
  3600.400      0.070      0.000      0.000     74.502      0.131      1.000      0.532      0.131
  3600.500      0.068      0.000      0.000     96.765      0.134      1.000      0.510      0.121
  3600.600      0.068      0.000      0.000     82.541      0.137      1.000      0.497      0.131
  3600.700      0.070      0.000      0.000     63.543      0.140      1.000      0.498      0.146
  3600.800      0.070      0.000      0.000     72.258      0.140      1.000      0.499      0.140
  3600.900      0.068      0.000      0.000     67.453      0.139      1.000      0.492      0.143
  3601.000      0.068      0.000      0.000     58.095      0.141      1.000      0.487      0.151
  3601.100      0.069      0.000      0.000     50.036      0.142      1.000      0.483      0.160
  3601.200      0.068      0.000      0.000     63.313      0.147      1.000      0.463      0.153
  3601.300      0.066      0.000      0.000     80.936      0.153      1.000      0.429      0.146
  3601.400      0.062      0.000      0.000     98.548      0.159      1.000      0.391      0.142
  3601.500      0.060      0.000      0.000    192.079      0.163      1.000      0.367      0.113
  3601.600      0.058      0.000      0.000    353.187      0.165      1.000      0.353      0.086
  3601.700      0.056      0.000      0.000    403.985      0.167      1.000      0.335      0.081
  3601.800      0.055      0.000      0.000    439.368      0.171      1.000      0.320      0.081
  3601.900      0.056      0.000      0.000    429.696      0.177      1.000      0.317      0.087
  3602.000      0.058      0.000      0.000    497.956      0.185      1.000      0.314      0.087
  3602.100      0.059      0.000      0.000    454.963      0.192      1.000      0.308      0.098
  3602.200      0.060      0.000      0.000    370.128      0.198      1.000      0.301      0.112
  3602.300      0.061      0.000      0.000    253.011      0.201      1.000      0.304      0.134
  3602.400      0.063      0.000      0.000    186.417      0.202      1.000      0.311      0.150
  3602.500      0.064      0.000      0.000    117.783      0.203      1.000      0.314      0.172
  3602.600      0.064      0.000      0.000     86.577      0.206      1.000      0.313      0.190
  3602.700      0.066      0.000      0.000     53.685      0.208      1.000      0.316      0.215
  3602.800      0.069      0.000      0.000     32.122      0.209      1.000      0.331      0.241
  3602.900      0.073      0.000      0.000     16.413      0.209      1.000      0.352      0.273
  3603.000      0.082      0.000      0.000      7.844      0.208      1.000      0.395      0.308
  3603.100      0.090      0.000      0.000      6.306      0.208      1.000      0.435      0.318
  3603.200      0.099      0.000      0.000      6.364      0.211      1.000      0.472      0.320
  3603.300      0.098      0.000      0.000      9.598      0.213      1.000      0.461      0.302
  3603.400      0.091      0.000      0.000     17.494      0.218      1.000      0.420      0.278
  3603.500      0.083      0.000      0.000     30.130      0.223      1.000      0.373      0.256
  3603.600      0.080      0.000      0.000     29.119      0.228      1.000      0.350      0.262
  3603.700      0.078      0.000      0.000     29.284      0.232      1.000      0.337      0.266
  3603.800      0.078      0.000      0.000     28.952      0.235      1.000      0.331      0.268
  3603.900      0.082      0.000      0.000     22.143      0.233      1.000      0.352      0.280
  3604.000      0.092      0.000      0.000      7.814      0.224      1.000      0.413      0.322
  3604.100      0.095      0.000      0.000      2.794      0.206      1.000      0.464      0.355
  3604.200      0.096      0.000      0.000      0.966      0.184      1.000      0.524      0.387
  3604.300      0.099      0.000      0.000      0.439      0.165      1.000      0.598      0.409
  3604.400      0.113      0.000      0.000      0.267      0.159      1.000      0.714      0.427
  3604.500      0.117      0.000      0.000      0.367      0.165      1.000      0.710      0.417
  3604.600      0.116      0.000      0.000      0.643      0.177      1.000      0.657      0.401
  3604.700      0.117      0.000      0.000      0.775      0.187      1.000      0.623      0.401
  3604.800      0.121      0.000      0.000      0.912      0.193      1.000      0.628      0.398
  3604.900      0.119      0.000      0.000      0.844      0.193      1.000      0.619      0.402
  3605.000      0.117      0.000      0.000      0.886      0.191      1.000      0.611      0.398
  3605.100      0.114      0.000      0.000      0.813      0.188      1.000      0.609      0.399
  3605.200      0.111      0.000      0.000      1.130      0.185      1.000      0.601      0.380
  3605.300      0.100      0.000      0.000      0.701      0.139      1.000      0.717      0.363
  3605.400      0.096      0.000      0.000      0.967      0.127      1.000      0.754      0.337
  3605.500      0.096      0.000      0.000      2.023      0.117      1.000      0.815      0.292
  3605.600      0.104      0.000      0.000      3.986      0.110      1.000      0.942      0.253
  3605.700      0.094      0.000      0.000      5.822      0.105      1.000      0.900      0.231
  3605.800      0.072      0.000      0.000      8.605      0.102      1.000      0.707      0.209
  3605.900      0.072      1.000      0.000      7.506      0.100      0.000      0.719      0.214
  3606.000      0.081      1.000      0.000      5.825      0.097      0.000      0.837      0.223
  3606.100      0.088      1.000      0.000      5.805      0.091      0.000      0.966      0.219
  3606.200      0.082      1.000      0.000      5.736      0.085      0.000      0.963      0.213
  3606.300      0.068      1.000      0.000      5.892      0.079      0.000      0.865      0.206
  3606.400      0.063      1.000      0.000      7.791      0.075      0.000      0.836      0.190
  3606.500      0.059      1.000      0.000      9.367      0.077      0.000      0.766      0.183
  3606.600      0.059      1.000      0.000     13.106      0.088      0.000      0.667      0.177
  3606.700      0.061      0.000      0.000     22.964      0.108      1.000      0.563      0.167
  3606.800      0.063      0.000      0.000     41.301      0.132      1.000      0.479      0.160
  3606.900      0.068      0.000      0.000     87.089      0.186      1.000      0.368      0.172
  3607.000      0.071      0.000      0.000     78.912      0.193      1.000      0.366      0.183
  3607.100      0.074      0.000      0.000     58.013      0.191      1.000      0.385      0.197
  3607.200      0.078      0.000      0.000     28.923      0.189      1.000      0.412      0.228
  3607.300      0.079      0.000      0.000     15.934      0.190      1.000      0.418      0.257
