~Version Information
VERS.                     2.0: CWLS log ASCII Standard Version 2.00
WRAP.                      NO: One line per depth step

~Well Information Block
#MNEM.UNIT                 Value                       Information
#------------              -----                       -----------
STRT.M                   3205.0000                    :START
STOP.M                   4093.8000                    :STOP
STEP.M                      0.1000                    :STEP
NULL.                     -999.25                     :NULL VALUE
COMP.         Statoil Petroleum                       :Company
WELL.         15/9-F-1 C                              :Well
FLD .         VOLVE                                   :Field
LOC .         Maersk Inspirer                         :Location
PROV.                                                 :Province
CNTY.                                                 :County
STATE.                                                 :State
CTRY.                                                 :Country
DATE.                                                 :Log Date
SRVC.                                                 :Service Company
UWI .                                                 :Unique Well Identifier
API .                                                 :API Number
LATI.         058 26' 29.907" N    DMS                :Latitude
LONG.         001 53' 14.708" E    DMS                :Longtitude
PD  .         MSL                                     :Permanent Datum
EDF .M                54.9000                         :Elevations D.F.
EGL .M               -91.0000                         :Elevations G.L.
ELZ .M                54.9000                         :Elev. Log Zero
LMF .         DF                                      :Log Measured From

~Curve Information
#MNEM   .UNIT             API CODE Curve Description
#------------             -------- -----------------
DEPTH   .M            00 001 00 00:   0  Depth
BADDATA_FLAG.unitless 00 000 00 00:   1  Bad Data Flag
BVW     .v/v          00 000 00 00:   2  Bulk Volume Water
COAL_FLAG.unitless    00 000 00 00:   3  Coal Flag
KLOGH   .mD           00 000 00 00:   4  Permeability
PHIF    .v/v          00 000 00 00:   5  Final Porosity
SAND_FLAG.unitless    00 000 00 00:   6  Sand Flag
SW      .v/v          00 000 00 00:   7  Water Saturation
VCARB   .v/v          00 000 00 00:   8  VCARB
VSH     .v/v          00 000 00 00:   9  Volume of Shale

~Parameter Information
#MNEM.UNIT       Value           Description
#------------    -----           -----------
RUN .         1                 :Run number

~Other Information
PETROPHYSICAL INTERPRETATION: OUTPUT

# --- LOG MNEMONICS AND UNITS ---
#Depth          BADDATA_FLAG    BVW             COAL_FLAG       KLOGH           PHIF            SAND_FLAG       SW              VCARB           VSH            
#M              unitless        v/v             unitless        mD              v/v             unitless        v/v             v/v             v/v            

~A
# ...
      3560.0000          0.0000          0.0604          0.0000         23.5952          0.2573          1.0000          0.2348          0.0000          0.2984
      3560.1000          0.0000          0.0604          0.0000         23.4418          0.2591          1.0000          0.2329          0.0000          0.3003
      3560.2000          0.0000          0.0598          0.0000         19.5239          0.2592          1.0000          0.2305          0.0000          0.3092
      3560.3000          0.0000          0.0589          0.0000         23.7326          0.2576          1.0000          0.2288          0.0000          0.2984
      3560.4000          0.0000          0.0585          0.0000         18.1656          0.2553          1.0000          0.2292          0.0000          0.3093
      3560.5000          0.0000          0.0581          0.0000         20.7582          0.2530          1.0000          0.2296          0.0000          0.3008
      3560.6000          0.0000          0.0575          0.0000         18.3991          0.2504          1.0000          0.2296          0.0000          0.3043
      3560.7000          0.0000          0.0569          0.0000         12.9924          0.2457          1.0000          0.2315          0.0000          0.3168
      3560.8000          0.0000          0.0556          0.0000         15.3141          0.2364          1.0000          0.2353          0.0000          0.3007
      3560.9000          0.0000          0.0542          0.0000         14.0190          0.2208          1.0000          0.2453          0.0000          0.2911
      3561.0000          0.0000          0.0524          0.0000         10.3017          0.1996          1.0000          0.2627          0.0000          0.2871
      3561.1000          0.0000          0.0504          0.0000          9.3580          0.1749          1.0000          0.2882          0.0000          0.2698
      3561.2000          0.0000          0.0477          0.0000          8.5745          0.1505          1.0000          0.3166          0.0000          0.2523
      3561.3000          0.0000          0.0449          0.0000          9.1208          0.1296          1.0000          0.3467          0.0038          0.2307
      3561.4000          0.0000          0.0427          0.0000          7.0624          0.1130          1.0000          0.3777          0.0608          0.2284
      3561.5000          0.0000          0.0425          0.0000          5.5604          0.1034          1.0000          0.4107          0.0906          0.2313
      3561.6000          0.0000          0.0404          0.0000          4.4910          0.0992          0.0000          0.4078          0.0976          0.2379
      3561.7000          0.0000          0.0393          0.0000          6.5938          0.0987          0.0000          0.3975          0.1213          0.2190
      3561.8000          0.0000          0.0392          0.0000          8.4020          0.0999          0.0000          0.3924          0.1303          0.2083
      3561.9000          0.0000          0.0393          0.0000          9.0423          0.1005          1.0000          0.3913          0.1316          0.2053
      3562.0000          0.0000          0.0392          0.0000         11.2593          0.1006          1.0000          0.3898          0.1444          0.1948
      3562.1000          0.0000          0.0391          0.0000          9.9597          0.0981          0.0000          0.3984          0.1492          0.1985
      3562.2000          0.0000          0.0388          0.0000          8.3379          0.0933          0.0000          0.4162          0.1614          0.2028
      3562.3000          0.0000          0.0386          0.0000          4.7200          0.0886          0.0000          0.4362          0.1493          0.2261
      3562.4000          0.0000          0.0379          0.0000          4.5667          0.0829          0.0000          0.4572          0.1746          0.2226
      3562.5000          0.0000          0.0358          0.0000          5.2992          0.0660          0.0000          0.5424          0.2590          0.2085
      3562.6000          0.0000          0.0356          0.0000          4.3001          0.0636          0.0000          0.5598          0.2680          0.2091
      3562.7000          0.0000          0.0358          0.0000          1.8158          0.0611          0.0000          0.5860          0.2749          0.2112
      3562.8000          0.0000          0.0354          0.0000          2.3572          0.0586          0.0000          0.6036          0.3038          0.1986
      3562.9000          0.0000          0.0350          0.0000          2.9874          0.0561          0.0000          0.6243          0.2877          0.2161
      3563.0000          0.0000          0.0345          0.0000          2.3816          0.0524          0.0000          0.6594          0.2868          0.2269
      3563.1000          0.0000          0.0343          0.0000          2.4669          0.0522          0.0000          0.6575          0.2899          0.2251
      3563.2000          0.0000          0.0343          0.0000          1.9222          0.0521          0.0000          0.6583          0.2729          0.2370
      3563.3000          0.0000          0.0340          0.0000          2.9672          0.0520          0.0000          0.6536          0.3044          0.2160
      3563.4000          0.0000          0.0339          0.0000          3.5747          0.0518          0.0000          0.6536          0.3192          0.2068
      3563.5000          0.0000          0.0339          0.0000          3.0773          0.0513          0.0000          0.6616          0.3112          0.2136
      3563.6000          0.0000          0.0337          0.0000          3.6114          0.0506          0.0000          0.6651          0.3266          0.2053
      3563.7000          0.0000          0.0338          0.0000          3.1390          0.0502          0.0000          0.6724          0.3183          0.2117
      3563.8000          0.0000          0.0341          0.0000          2.2246          0.0503          0.0000          0.6785          0.2927          0.2284
      3563.9000          0.0000          0.0345          0.0000          2.0490          0.0506          0.0000          0.6813          0.2854          0.2326
      3564.0000          0.0000          0.0345          0.0000          2.3883          0.0509          0.0000          0.6767          0.2946          0.2255
      3564.1000          0.0000          0.0345          0.0000          2.0104          0.0514          0.0000          0.6709          0.2800          0.2342
      3564.2000          0.0000          0.0341          0.0000          1.7987          0.0525          0.0000          0.6502          0.2662          0.2406
      3564.3000          0.0000          0.0346          0.0000          0.7739          0.0561          0.0000          0.6168          0.2357          0.2524
      3564.4000          0.0000          0.0350          0.0000          0.6195          0.0605          0.0000          0.5778          0.2047          0.2631
      3564.5000          0.0000          0.0356          0.0000          0.4695          0.0649          0.0000          0.5475          0.1716          0.2765
      3564.6000          0.0000          0.0360          0.0000          0.3508          0.0693          0.0000          0.5185          0.1222          0.3052
      3564.7000          0.0000          0.0371          0.0000          0.7606          0.0882          0.0000          0.4210          0.0529          0.3138
      3564.8000          0.0000          0.0374          0.0000          1.2825          0.0984          0.0000          0.3799          0.0371          0.2977
      3564.9000          0.0000          0.0374          0.0000          0.9646          0.1028          1.0000          0.3640          0.0075          0.3154
