~Version Information
VERS.                     2.0: CWLS log ASCII Standard Version 2.00
WRAP.                      NO: One line per depth step

~Well Information Block
#MNEM       .UNIT          Value                       Information
#-------------------------------------------------------------------------
STRT        .M             3102.102                    :START
STOP        .M             3505.8096                   :STOP
STEP        .M             0.1524                      :STEP
NULL        .              -999.25                     :NULL VALUE
COMP        .              STATOILHYDRO                :COMPANY
WELL        .              15/9-F-12                   :WELL
FLD         .              VOLVE                       :FIELD
LOC         .              UNKNOWN                     :LOCATION
CNTY        .              UNKNOWN                     :COUNTY
STAT        .              UNKNOWN                     :STATE
CTRY        .              Norway                      :COUNTRY
SRVC        .              UNKNOWN                     :SERVICE COMPANY
DATE        .              UNKNOWN                     :LOG DATE
UWI         .              NO 15/9-F-12                :UNIQUE WELL ID
XCOORD      .              435050.170000               :SURFACE X
YCOORD      .              6478574.700000              :SURFACE Y
LAT         .              58.441713                   :LATITUDE
LON         .              1.887480                    :LONGITUDE
ELEV        .M             54.9000                     :SURFACE ELEV
ELEV_TYPE   .              KB                          :ELEV TYPE

~Curve Information
#MNEM       .UNIT             API CODE : Curve Description
#-------------------------------------------------------------------------
DEPTH       .M                UNKNOWN  : Measured Dept
BVW         .v/v_decimal      UNKNOWN  : BVW:UNKNOWN:rC:NONE:v1
KLOGH       .mD               UNKNOWN  : KLOGH:UNKNOWN:rC:NONE:v1
PHIF        .v/v_decimal      UNKNOWN  : PHIF:UNKNOWN:rC:NONE:v1
SW          .v/v_decimal      UNKNOWN  : SW:UNKNOWN:rC:NONE:v1
VSH         .v/v_decimal      UNKNOWN  : VSH:UNKNOWN:rC:NONE:v1
# --- LOG MNEMONICS AND UNITS ---
#Depth     BVW        KLOGH      PHIF       SW         VSH       
#M         v/v_decima mD         v/v_decima v/v_decima v/v_decima
~A
# ...
 3492.5508 0.21639999 5.20060014 0.22570000 0.95899999 0.45350000
 3492.7032 0.21500000 4.96929979 0.22640000 0.94950002 0.46459999
 3492.8556 0.21369999 4.74840021 0.22720000 0.94019997 0.47580000
  3493.008 0.21269999 4.64440011 0.22840000 0.93120002 0.48559999
 3493.1604 0.21819999 6.92320013 0.23559999 0.92650002 0.46950000
 3493.3128 0.22429999 10.3200998 0.24279999 0.92390000 0.45350000
 3493.4652 0.23090000 15.3837003       0.25 0.92350000     0.4375
 3493.6176 0.23309999 18.1728992 0.25220000 0.92430001 0.42640000
   3493.77 0.23399999 20.0398998 0.25299999 0.92489999 0.41679999
 3493.9224 0.23489999 22.0988006 0.25380000 0.92559999 0.40720000
 3494.0748 0.23630000 21.1527996 0.25170001 0.93860000 0.40139999
 3494.2272 0.23810000 17.4820003 0.24660000 0.96530002 0.39969998
 3494.3796 0.23999999 14.4483003 0.24160000 0.99330002 0.39789998
  3494.532 0.23800000 12.5658998 0.23800000          1 0.39719998
 3494.6844 0.23579999 13.2404003 0.23980000 0.98320001 0.40009999
 3494.8368 0.23129999 13.9511003 0.24160000 0.95749998 0.40310001
 3494.9892 0.22720000 14.6999998 0.24339999 0.93320000 0.40610000
 3495.1416 0.21969999 12.5783996 0.24189999 0.90820002 0.41969999
  3495.294 0.21269999 10.5934000 0.24009999 0.88580000 0.43419998
 3495.4464 0.20630000 8.92169952 0.23829999 0.86570000 0.44859999
 3495.5988 0.20160000 7.60309982 0.23630000 0.85310000 0.46000000
 3495.7512 0.19769999 6.52110004 0.23409999 0.84439998 0.46970000
 3495.9036 0.19400000 5.59299993 0.23199999 0.83660000 0.47949999
  3496.056 0.19089999 4.54979991 0.22849999 0.83550000 0.48960000
 3496.2084 0.18860000 3.37890005 0.22300000 0.84560000 0.50029999
 3496.3608 0.18629999 2.50929999 0.21739999 0.85670000 0.51109999
 3496.5132 0.17470000 0.42289999 0.17470000          1 0.52130001
 3496.6656 0.17309999 0.38420000 0.17309999          1 0.52549999
  3496.818 0.17139999 0.34909999 0.17139999          1 0.52979999
 3496.9704 0.16969999 0.31709998 0.16969999          1 0.53399997
 3497.1228 0.17209999 0.31639999 0.17209999          1 0.54799997
 3497.2752 0.17540000 0.32289999 0.17540000          1 0.56440001
 3497.4276 0.17870000 0.32949998 0.17870000          1 0.58079999
   3497.58 0.19390000 1.25460004 0.21469999 0.90310001 0.59589999
 3497.7324 0.19490000 1.16760003 0.21529999 0.90520000 0.60979998
 3497.8848 0.19599999 1.08659994 0.21590000 0.90750002 0.62370002
 3498.0372 0.19689999 1.04579997 0.21660000 0.90899997 0.63309997
 3498.1896 0.19740000 1.11699998 0.21739999 0.90799999 0.62830001
  3498.342 0.19799999 1.19309997 0.21819999 0.90710002 0.62349998
 3498.4944 0.19850000 1.27429997 0.21899999 0.90619999 0.61870002
 3498.6468 0.19449999 1.25129997 0.21829999 0.89090001 0.61680001
 3498.7992 0.19050000 1.22490000 0.21739999 0.87620002 0.61500000
 3498.9516 0.18680000 1.19900000 0.21660000 0.86239999 0.61320000
  3499.104 0.18569999 1.41859996 0.21899999 0.84799998 0.60259997
 3499.2564 0.18569999 1.83340001 0.22280000 0.83329999 0.58789998
 3499.4088 0.18569999 2.36929988 0.22669999 0.81919997 0.57319998
 3499.5612 0.18479999 2.87599992 0.22789999 0.81080001 0.55250000
 3499.7136 0.18269999 3.17969989 0.22529999 0.81059998 0.52280002
  3499.866 0.18060000 3.51550006 0.22269999 0.81069999 0.49320000
 3500.0184 0.17919999 3.98480010 0.22069999 0.81190001 0.46320000
 3500.1708 0.18250000 5.41450023 0.22290000 0.81859999 0.43160000
 3500.3232 0.18590000 7.35720014 0.22509999 0.82599997 0.39989998
 3500.4756 0.18960000 9.99699974 0.22730000 0.83420002 0.36829999
  3500.628 0.17919999 9.96580028 0.22619999 0.79250001 0.36219999
 3500.7804 0.16840000 9.36509990 0.22439999 0.75029999 0.36100000
 3500.9328 0.15929999 8.80060005 0.22259999 0.71549999 0.35989999
 3501.0852 0.15399999 8.09430027 0.22149999 0.69550001 0.36509999
 3501.2376 0.15109999 7.31960010 0.22069999 0.68449997 0.37540000
   3501.39 0.14830000 6.61889982 0.21999999 0.67419999 0.38569998
 3501.5424 0.14579999 6.13640022 0.21950000 0.66430002 0.39390000
 3501.6948 0.14370000 6.06890010 0.21969999 0.65429997 0.39640000
 3501.8472 0.14169999 6.00220012 0.21979999 0.64480000 0.39890000
 3501.9996 0.13979999 5.93610000 0.21999999 0.63559997 0.40149998
  3502.152 0.14040000 4.43440008 0.21549999 0.65119999 0.41789999
 3502.3044 0.14090000 3.31010007 0.21109999 0.66759997 0.43430000
 3502.4568 0.14139999 0.59979999 0.17129999 0.82529997 0.45080000
 3502.6092 0.14249999 0.50120002 0.16699999 0.85320001 0.45199999
 3502.7616 0.14390000 0.45350000 0.16369999 0.87910002 0.44720000
  3502.914 0.14530000 0.41029998 0.16030000 0.90640002 0.44229999
 3503.0664 0.14779999 0.41370001 0.15989999 0.92419999 0.43860000
 3503.2188 0.15189999 1.77629995 0.19589999 0.77530002 0.43639999
 3503.3712 0.15620000 1.89359998 0.19709999 0.79220002 0.43430000
 3503.5236 0.15839999 2.05579996 0.19879999 0.79680001 0.43209999
  3503.676 0.14869999 2.46460008 0.20299999 0.73269999 0.42989999
 3503.8284 0.14059999 2.95479989 0.20710000 0.67900002 0.42779999
 3503.9808 0.13369999 3.54250001 0.21130000 0.63300001 0.42559999
 3504.1332 0.13910000 3.89280009 0.21570000 0.64509999     0.4375
 3504.2856 0.14740000 4.22429990 0.22010000 0.66970002 0.45140001
  3504.438 0.15739999 4.58409976 0.22450000 0.70090001 0.46529999
 3504.5904 0.15610000 3.56979990 0.22059999 0.70779997 0.47839999
 3504.7428 0.14740000 2.21409988 0.21080000 0.69940000 0.49099999
 3504.8952 0.14010000 1.37329995 0.20110000 0.69660001 0.50360000
 3505.0476 0.13330000 0.21469999 0.15530000 0.85820001 0.50700002
    3505.2 0.12710000 0.16150000 0.14540000 0.87410002 0.49029999
 3505.3524 0.12160000 0.12139999 0.13539999 0.89840000 0.47360000
 3505.5048 0.12160000    -999.25    -999.25 0.89840000    -999.25
 3505.6572 0.12160000    -999.25    -999.25 0.89840000    -999.25
 3505.8096 0.12160000    -999.25    -999.25 0.89840000    -999.25
