~Version Information
VERS.                     2.0: CWLS log ASCII Standard Version 2.00
WRAP.                      NO: One line per depth step

~Well Information Block
#MNEM.UNIT                 Value                       Information
#------------              -----                       -----------
STRT.M                   3205.0000                    :START
STOP.M                   4093.8000                    :STOP
STEP.M                      0.1000                    :STEP
NULL.                     -999.25                     :NULL VALUE
COMP.         Statoil Petroleum                       :Company
WELL.         15/9-F-1 C                              :Well
FLD .         VOLVE                                   :Field
LOC .         Maersk Inspirer                         :Location
PROV.                                                 :Province
CNTY.                                                 :County
STATE.                                                 :State
CTRY.                                                 :Country
DATE.                                                 :Log Date
SRVC.                                                 :Service Company
UWI .                                                 :Unique Well Identifier
API .                                                 :API Number
LATI.         058 26' 29.907" N    DMS                :Latitude
LONG.         001 53' 14.708" E    DMS                :Longtitude
PD  .         MSL                                     :Permanent Datum
EDF .M                54.9000                         :Elevations D.F.
EGL .M               -91.0000                         :Elevations G.L.
ELZ .M                54.9000                         :Elev. Log Zero
LMF .         DF                                      :Log Measured From

~Curve Information
#MNEM   .UNIT             API CODE Curve Description
#------------             -------- -----------------
DEPTH   .M            00 001 00 00:   0  Depth
BADDATA_FLAG.unitless 00 000 00 00:   1  Bad Data Flag
BVW     .v/v          00 000 00 00:   2  Bulk Volume Water
COAL_FLAG.unitless    00 000 00 00:   3  Coal Flag
KLOGH   .mD           00 000 00 00:   4  Permeability
PHIF    .v/v          00 000 00 00:   5  Final Porosity
SAND_FLAG.unitless    00 000 00 00:   6  Sand Flag
SW      .v/v          00 000 00 00:   7  Water Saturation
VCARB   .v/v          00 000 00 00:   8  VCARB
VSH     .v/v          00 000 00 00:   9  Volume of Shale

~Parameter Information
#MNEM.UNIT       Value           Description
#------------    -----           -----------
RUN .         1                 :Run number

~Other Information
PETROPHYSICAL INTERPRETATION: OUTPUT

# --- LOG MNEMONICS AND UNITS ---
#Depth          BADDATA_FLAG    BVW             COAL_FLAG       KLOGH           PHIF            SAND_FLAG       SW              VCARB           VSH            
#M              unitless        v/v             unitless        mD              v/v             unitless        v/v             v/v             v/v            

~A
# ...
      3225.0000          0.0000          0.0548          0.0000          0.0010          0.0548          0.0000          1.0000          0.0000          0.7264
      3225.1000          0.0000          0.0517          0.0000          0.0010          0.0517          0.0000          1.0000          0.0000          0.7331
      3225.2000          0.0000          0.0577          0.0000          0.0010          0.0577          0.0000          1.0000          0.0000          0.7416
      3225.3000          0.0000          0.0681          0.0000          0.0010          0.0681          0.0000          1.0000          0.0000          0.7309
      3225.4000          0.0000          0.0767          0.0000          0.0010          0.0767          0.0000          1.0000          0.0000          0.7117
      3225.5000          0.0000          0.0808          0.0000          0.0010          0.0808          0.0000          1.0000          0.0000          0.7258
      3225.6000          0.0000          0.0816          0.0000          0.0010          0.0816          0.0000          1.0000          0.0000          0.7169
      3225.7000          0.0000          0.0801          0.0000          0.0010          0.0801          0.0000          1.0000          0.0000          0.6967
      3225.8000          0.0000          0.0783          0.0000          0.0010          0.0783          0.0000          1.0000          0.0000          0.7114
      3225.9000          0.0000          0.0774          0.0000          0.0010          0.0774          0.0000          1.0000          0.0000          0.7222
      3226.0000          0.0000          0.0770          0.0000          0.0010          0.0770          0.0000          1.0000          0.0000          0.7382
      3226.1000          0.0000          0.0757          0.0000          0.0010          0.0757          0.0000          1.0000          0.0000          0.7198
      3226.2000          0.0000          0.0722          0.0000          0.0010          0.0722          0.0000          1.0000          0.0000          0.7111
      3226.3000          0.0000          0.0666          0.0000          0.0010          0.0666          0.0000          1.0000          0.0000          0.7377
      3226.4000          0.0000          0.0590          0.0000          0.0010          0.0590          0.0000          1.0000          0.0000          0.7614
      3226.5000          0.0000          0.0510          0.0000          0.0010          0.0510          0.0000          1.0000          0.0000          0.7526
      3226.6000          0.0000          0.0500          0.0000          0.0010          0.0500          0.0000          1.0000          0.0000          0.7475
      3226.7000          0.0000          0.0489          0.0000          0.0010          0.0489          0.0000          1.0000          0.0000          0.7424
      3226.8000          0.0000          0.0579          0.0000          0.0010          0.0579          0.0000          1.0000          0.0000          0.7535
      3226.9000          0.0000          0.0687          0.0000          0.0010          0.0687          0.0000          1.0000          0.0000          0.7835
      3227.0000          0.0000          0.0760          0.0000          0.0010          0.0760          0.0000          1.0000          0.0000          0.7844
      3227.1000          0.0000          0.0778          0.0000          0.0010          0.0778          0.0000          1.0000          0.0000          0.8038
      3227.2000          0.0000          0.0723          0.0000          0.0010          0.0723          0.0000          1.0000          0.0000          0.7916
      3227.3000          0.0000          0.0593          0.0000          0.0010          0.0593          0.0000          1.0000          0.0000          0.7692
      3227.4000          0.0000          0.0430          0.0000          0.0010          0.0430          0.0000          1.0000          0.0000          0.7647
      3227.5000          0.0000          0.0323          0.0000          0.0010          0.0323          0.0000          1.0000          0.0000          0.7225
      3227.6000          0.0000          0.0321          0.0000          0.0010          0.0321          0.0000          1.0000          0.0000          0.7159
      3227.7000          0.0000          0.0378          0.0000          0.0010          0.0378          0.0000          1.0000          0.0000          0.7289
      3227.8000          0.0000          0.0398          0.0000          0.0010          0.0398          0.0000          1.0000          0.0000          0.7564
      3227.9000          0.0000          0.0363          0.0000          0.0010          0.0363          0.0000          1.0000          0.0000          0.7512
      3228.0000          0.0000          0.0336          0.0000          0.0010          0.0336          0.0000          1.0000          0.0000          0.7257
      3228.1000          0.0000          0.0376          0.0000          0.0010          0.0376          0.0000          1.0000          0.0000          0.7466
      3228.2000          0.0000          0.0475          0.0000          0.0010          0.0475          0.0000          1.0000          0.0000          0.7666
      3228.3000          0.0000          0.0577          0.0000          0.0010          0.0577          0.0000          1.0000          0.0000          0.7833
      3228.4000          0.0000          0.0648          0.0000          0.0010          0.0648          0.0000          1.0000          0.0000          0.7958
      3228.5000          0.0000          0.0694          0.0000          0.0010          0.0694          0.0000          1.0000          0.0000          0.8013
      3228.6000          0.0000          0.0737          0.0000          0.0010          0.0737          0.0000          1.0000          0.0000          0.8304
      3228.7000          0.0000          0.0786          0.0000          0.0010          0.0786          0.0000          1.0000          0.0000          0.8410
      3228.8000          0.0000          0.0820          0.0000          0.0010          0.0820          0.0000          1.0000          0.0000          0.8756
      3228.9000          0.0000          0.0809          0.0000          0.0010          0.0809          0.0000          1.0000          0.0000          0.8920
      3229.0000          0.0000          0.0740          0.0000          0.0010          0.0740          0.0000          1.0000          0.0000          0.8856
      3229.1000          0.0000          0.0618          0.0000          0.0010          0.0618          0.0000          1.0000          0.0000          0.8482
      3229.2000          0.0000          0.0463          0.0000          0.0010          0.0463          0.0000          1.0000          0.0000          0.7888
      3229.3000          0.0000          0.0290          0.0000          0.0010          0.0290          0.0000          1.0000          0.0000          0.6906
      3229.4000          0.0000          0.0200          0.0000          0.0013          0.0200          0.0000          1.0000          0.0246          0.5609
      3229.5000          0.0000          0.0200          0.0000          0.0116          0.0200          0.0000          1.0000          0.1140          0.4552
      3229.6000          0.0000          0.0200          0.0000          0.1191          0.0200          0.0000          1.0000          0.2460          0.3427
      3229.7000          0.0000          0.0200          0.0000          0.8322          0.0200          0.0000          1.0000          0.3851          0.2489
      3229.8000          0.0000          0.0420          0.0000          3.7984          0.0420          0.0000          1.0000          0.3791          0.1952
      3229.9000          0.0000          0.0668          0.0000          5.1425          0.0668          0.0000          1.0000          0.2645          0.2026
