~Version Information
VERS.                     2.0: CWLS log ASCII Standard Version 2.00
WRAP.                      NO: One line per depth step

~Well Information Block
#MNEM.UNIT                 Value                       Information
#------------              -----                       -----------
STRT.M                     188.500                    :START
STOP.M                     346.700                    :STOP
STEP.M                       0.100                    :STEP
NULL.                     -999.25                     :NULL VALUE
COMP.         STATOIL PETRPOLEUM AS                   :Company
WELL.         15/9-F-11                               :Well
FLD .         VOLVE                                   :Field
LOC .         Maersk Inspirer                         :Location
PROV.                                                 :Province
CNTY.                                                 :County
STATE.                                                 :State
CTRY.         Norway                                  :Country
DATE.                                                 :Log Date
SRVC.                                                 :Service Company
UWI .                                                 :Unique Well Identifier
API .                                                 :API Number
LATI.         058 26' 29.960" N    DMS                :Latitude
LONG.         001 53' 14.870" E    DMS                :Longtitude
PD  .         MSL                                     :Permanent Datum
EDF .M            54.900                              :Elevations D.F.
EGL .M           -91.000                              :Elevations G.L.
WD  .M           -91.000                              :Water Depth
ELZ .M            54.900                              :Elev. Log Zero

~Curve Information
#MNEM   .UNIT             API CODE Curve Description
#------------             -------- -----------------
DEPTH   .M            00 001 00 00:   0  Depth
BS      .inches       00 000 00 00:   1  BS:COMPOSITE:rC:NONE:v1
GR      .API          30 150 01 01:   2  GR:COMPOSITE:rC:NONE:v1
RACEHM  .ohm.m        95 220 00 01:   3  RACEHM:COMPOSITE:rC:NONE:v1
RACELM  .ohm.m        00 524 01 00:   4  RACELM:COMPOSITE:rC:NONE:v1
RD      .ohm.m        00 000 00 00:   5  RD:COMPOSITE:rC:NONE:v1
RM      .ohm.m        00 000 00 00:   6  RM:COMPOSITE:rC:NONE:v1
ROP     .m/hr         00 000 00 00:   7  ROP:COMPOSITE:rC:NONE:v1
RPCEHM  .ohm.m        00 000 00 00:   8  RPCEHM:COMPOSITE:rC:NONE:v1
RPCELM  .ohm.m        00 000 00 00:   9  RPCELM:COMPOSITE:rC:NONE:v1
RT      .ohm.m        00 000 00 00:  10  RT:COMPOSITE:rC:NONE:v1

~Parameter Information
#MNEM.UNIT       Value           Description
#------------    -----           -----------
RUN .         1                 :Run number

~Other Information
PETROPHYSICAL INTERPRETATION: INPUT

# --- LOG MNEMONICS AND UNITS ---
#Depth     BS         GR         RACEHM     RACELM     RD         RM         ROP        RPCEHM     RPCELM     RT        
#M         inches     API        ohm.m      ohm.m      ohm.m      ohm.m      m/hr       ohm.m      ohm.m      ohm.m     

~A
# ...
   228.700     26.000      9.600      0.413      0.568      0.738      1.687     16.883      1.687      0.738      1.687
   228.800     26.000      9.500      0.386      0.589      0.963      1.475     15.737      1.475      0.963      1.475
   228.900     26.000      9.400      0.550      0.481      0.537      1.613     14.592      1.613      0.537      1.613
   229.000     26.000      9.900      0.569      0.448      0.501      1.507     13.728      1.507      0.501      1.507
   229.100     26.000     10.100      0.455      0.565      0.641      0.777     12.865      0.777      0.641      0.777
   229.200     26.000     10.300      0.560      0.488      0.477      1.309     12.001      1.309      0.477      1.309
   229.300     26.000     10.800      0.300      0.636      0.887      0.589     11.778      0.589      0.887      0.589
   229.400     26.000     11.600      0.508      0.525      0.497      1.583     11.554      1.583      0.497      1.583
   229.500     26.000     12.500      0.507      0.486      0.499      2.447     11.331      2.447      0.499      2.447
   229.600     26.000     13.400      0.355      0.650      0.835      0.529     11.110      0.529      0.835      0.529
   229.700     26.000     13.800      0.482      0.616      0.676      0.951     10.890      0.951      0.676      0.951
   229.800     26.000     14.100      0.457      0.664      0.786      0.892     10.669      0.892      0.786      0.892
   229.900     26.000     14.900      0.459      0.675      0.728      0.941     10.125      0.941      0.728      0.941
   230.000     26.000     16.300      0.476      0.691      0.774      0.950      9.581      0.950      0.774      0.950
   230.100     26.000     16.100      0.510      0.754      0.848      1.002      9.037      1.002      0.848      1.002
   230.200     26.000     16.600      0.579      0.736      0.701      1.187      9.492      1.187      0.701      1.187
   230.300     26.000     17.100      0.604      0.759      0.794      1.134      9.947      1.134      0.794      1.134
   230.400     26.000     17.700      0.777      0.805      0.777      1.221     10.401      1.221      0.777      1.221
   230.500     26.000     18.000      0.709      0.800      0.720      1.177     11.001      1.177      0.720      1.177
   230.600     26.000     19.400      0.608      0.843      0.933      1.105     11.601      1.105      0.933      1.105
   230.700     26.000     20.100      0.758      0.860      0.786      1.329     12.201      1.329      0.786      1.329
   230.800     26.000     20.100      0.714      0.914      0.948      1.260     12.787      1.260      0.948      1.260
   230.900     26.000     20.800      0.659      0.901      0.945      1.333     13.372      1.333      0.945      1.333
   231.000     26.000     20.700      0.738      0.946      0.976      1.773     13.958      1.773      0.976      1.773
   231.100     26.000     19.400      0.749      0.956      0.903      1.339     14.102      1.339      0.903      1.339
   231.200     26.000     18.500      0.879      0.994      1.040      1.732     14.246      1.732      1.040      1.732
   231.300     26.000     16.400      0.797      1.058      1.080      1.475     14.391      1.475      1.080      1.475
   231.400     26.000     14.800      0.842      1.064      0.965      2.235     13.897      2.235      0.965      2.235
   231.500     26.000     14.100      0.740      1.056      1.046      1.645     13.403      1.645      1.046      1.645
   231.600     26.000     15.300      0.931      1.060      1.036      2.354     12.909      2.354      1.036      2.354
   231.700     26.000     15.000      0.701      1.066      1.234      1.671     12.430      1.671      1.234      1.671
   231.800     26.000     15.000      0.845      1.108      1.095      2.039     11.951      2.039      1.095      2.039
   231.900     26.000     15.100      0.817      1.068      1.201      1.667     11.472      1.667      1.201      1.667
   232.000     26.000     15.100      0.890      1.131      1.150      1.755     11.282      1.755      1.150      1.755
   232.100     26.000     14.200      0.903      1.132      1.094      1.859     11.092      1.859      1.094      1.859
   232.200     26.000     13.700      0.982      1.129      1.010      2.283     10.902      2.283      1.010      2.283
   232.300     26.000     13.600      0.910      1.108      0.951      1.855     11.088      1.855      0.951      1.855
   232.400     26.000     15.600      0.877      1.098      1.033      1.914     11.275      1.914      1.033      1.914
   232.500     26.000     17.500      0.936      1.143      1.030      1.975     11.461      1.975      1.030      1.975
   232.600     26.000     16.900      0.826      1.157      1.088      1.320     11.564      1.320      1.088      1.320
   232.700     26.000     15.200      0.808      1.110      1.191      1.219     11.667      1.219      1.191      1.219
   232.800     26.000     14.300      0.880      1.140      1.249      1.513     11.770      1.513      1.249      1.513
   232.900     26.000     14.700      0.929      1.225      1.217      1.910     11.093      1.910      1.217      1.910
   233.000     26.000     16.000      0.926      1.162      1.106      1.926     10.416      1.926      1.106      1.926
   233.100     26.000     16.800      0.924      1.227      1.151      1.816      9.739      1.816      1.151      1.816
   233.200     26.000     18.600      0.957      1.201      1.140      2.073      9.760      2.073      1.140      2.073
   233.300     26.000     20.400      0.937      1.192      1.180      1.810      9.782      1.810      1.180      1.810
   233.400     26.000     20.500      0.876      1.138      1.111      1.812      9.804      1.812      1.111      1.812
   233.500     26.000     20.500      0.881      1.204      1.017      1.063     10.001      1.063      1.017      1.063
   233.600     26.000     19.800      0.806      1.344      0.996      0.710     10.198      0.710      0.996      0.710
   233.700     26.000     19.500      1.008      1.409      0.901      0.689     10.395      0.689      0.901      0.689
   233.800     26.000     19.100      1.047      1.491      0.884      0.598     10.620      0.598      0.884      0.598
   233.900     26.000     18.800      0.976      1.403      0.869      0.611     10.846      0.611      0.869      0.611
   234.000     26.000     18.400      1.059      1.443      0.882      0.644     11.071      0.644      0.882      0.644
   234.100     26.000     18.000      0.894      1.298      0.925      0.796     11.045      0.796      0.925      0.796
   234.200     26.000     17.700      0.882      1.395      0.995      0.802     11.018      0.802      0.995      0.802
   234.300     26.000     17.300      0.989      1.544      0.908      0.641     10.992      0.641      0.908      0.641
   234.400     26.000     17.000      1.011      1.424      0.873      0.633     10.990      0.633      0.873      0.633
   234.500     26.000     16.600      0.926      1.468      0.975      0.694     10.987      0.694      0.975      0.694
   234.600     26.000     16.200      0.924      1.270      0.975      0.990     10.984      0.990      0.975      0.990
   234.700     26.000     15.900      1.010      1.253      1.113      1.543     10.963      1.543      1.113      1.543
   234.800     26.000     16.900      0.983      1.227      1.060      1.420     10.942      1.420      1.060      1.420
   234.900     26.000     19.400      1.028      1.432      1.002      0.721     10.920      0.721      1.002      0.721
   235.000     26.000     20.900      1.018      1.552      1.000      0.896     10.900      0.896      1.000      0.896
   235.100     26.000     21.900      1.174      1.567      1.079      0.739     10.879      0.739      1.079      0.739
   235.200     26.000     21.900      1.223      1.542      1.117      0.830     10.858      0.830      1.117      0.830
   235.300     26.000     20.900      1.047      1.492      1.202      1.307     10.927      1.307      1.202      1.307
