~Version Information
VERS.                     2.0: CWLS log ASCII Standard Version 2.00
WRAP.                      NO: One line per depth step

~Well Information Block
#MNEM.UNIT                 Value                       Information
#------------              -----                       -----------
STRT.M                     188.500                    :START
STOP.M                     346.700                    :STOP
STEP.M                       0.100                    :STEP
NULL.                     -999.25                     :NULL VALUE
COMP.         STATOIL PETRPOLEUM AS                   :Company
WELL.         15/9-F-11                               :Well
FLD .         VOLVE                                   :Field
LOC .         Maersk Inspirer                         :Location
PROV.                                                 :Province
CNTY.                                                 :County
STATE.                                                 :State
CTRY.         Norway                                  :Country
DATE.                                                 :Log Date
SRVC.                                                 :Service Company
UWI .                                                 :Unique Well Identifier
API .                                                 :API Number
LATI.         058 26' 29.960" N    DMS                :Latitude
LONG.         001 53' 14.870" E    DMS                :Longtitude
PD  .         MSL                                     :Permanent Datum
EDF .M            54.900                              :Elevations D.F.
EGL .M           -91.000                              :Elevations G.L.
WD  .M           -91.000                              :Water Depth
ELZ .M            54.900                              :Elev. Log Zero

~Curve Information
#MNEM   .UNIT             API CODE Curve Description
#------------             -------- -----------------
DEPTH   .M            00 001 00 00:   0  Depth
BS      .inches       00 000 00 00:   1  BS:COMPOSITE:rC:NONE:v1
GR      .API          30 150 01 01:   2  GR:COMPOSITE:rC:NONE:v1
RACEHM  .ohm.m        95 220 00 01:   3  RACEHM:COMPOSITE:rC:NONE:v1
RACELM  .ohm.m        00 524 01 00:   4  RACELM:COMPOSITE:rC:NONE:v1
RD      .ohm.m        00 000 00 00:   5  RD:COMPOSITE:rC:NONE:v1
RM      .ohm.m        00 000 00 00:   6  RM:COMPOSITE:rC:NONE:v1
ROP     .m/hr         00 000 00 00:   7  ROP:COMPOSITE:rC:NONE:v1
RPCEHM  .ohm.m        00 000 00 00:   8  RPCEHM:COMPOSITE:rC:NONE:v1
RPCELM  .ohm.m        00 000 00 00:   9  RPCELM:COMPOSITE:rC:NONE:v1
RT      .ohm.m        00 000 00 00:  10  RT:COMPOSITE:rC:NONE:v1

~Parameter Information
#MNEM.UNIT       Value           Description
#------------    -----           -----------
RUN .         1                 :Run number

~Other Information
PETROPHYSICAL INTERPRETATION: INPUT

# --- LOG MNEMONICS AND UNITS ---
#Depth     BS         GR         RACEHM     RACELM     RD         RM         ROP        RPCEHM     RPCELM     RT        
#M         inches     API        ohm.m      ohm.m      ohm.m      ohm.m      m/hr       ohm.m      ohm.m      ohm.m     

~A
# ...
   322.500     26.000     11.400      0.592      0.664      0.572      0.520     45.119      0.520      0.572      0.520
   322.600     26.000     11.300      0.580      0.656      0.562      0.540     46.889      0.540      0.562      0.540
   322.700     26.000     11.100      0.592      0.666      0.568      0.505     48.658      0.505      0.568      0.505
   322.800     26.000     11.600      0.580      0.660      0.572      0.532     50.428      0.532      0.572      0.532
   322.900     26.000     11.100      0.569      0.655      0.576      0.559     52.740      0.559      0.576      0.559
   323.000     26.000     10.900      0.555      0.661      0.556      0.504     55.052      0.504      0.556      0.504
   323.100     26.000     12.100      0.580      0.649      0.506      0.446     57.363      0.446      0.506      0.446
   323.200     26.000     17.300      0.561      0.643      0.501      0.406     59.633      0.406      0.501      0.406
   323.300     26.000     22.600      0.554      0.650      0.493      0.396     61.902      0.396      0.493      0.396
   323.400     26.000     31.000      0.540      0.636      0.506      0.408     64.172      0.407      0.506      0.408
   323.500     26.000     40.100      0.526      0.621      0.518      0.419     65.925      0.419      0.518      0.419
   323.600     26.000     44.100      0.514      0.633      0.520      0.428     67.678      0.428      0.520      0.428
   323.700     26.000     48.800      0.503      0.644      0.522      0.438     69.431      0.438      0.522      0.438
   323.800     26.000     51.300      0.560      0.650      0.525      0.438     70.673      0.438      0.525      0.438
   323.900     26.000     51.500      0.607      0.646      0.593      0.468     71.915      0.468      0.593      0.468
   324.000     26.000     52.100      0.707      0.680      0.703      0.686     73.157      0.686      0.703      0.686
   324.100     26.000     53.500      0.663      0.692      0.703      0.606     74.316      0.606      0.703      0.606
   324.200     26.000     55.100      0.732      0.668      0.743      0.664     75.476      0.664      0.743      0.664
   324.300     26.000     53.500      0.728      0.699      0.796      0.797     76.635      0.797      0.796      0.797
   324.400     26.000     51.100      0.809      0.722      0.820      0.864     77.664      0.864      0.820      0.864
   324.500     26.000     50.100      0.804      0.706      0.842      0.867     78.693      0.867      0.842      0.867
   324.600     26.000     49.800      0.855      0.702      0.832      0.830     79.722      0.830      0.832      0.830
   324.700     26.000     48.000      0.826      0.716      0.798      0.871     79.835      0.871      0.798      0.871
   324.800     26.000     49.500      0.858      0.734      0.867      1.013     79.947      1.013      0.867      1.013
   324.900     26.000     48.400      0.835      0.728      0.888      0.932     80.059      0.932      0.888      0.932
   325.000     26.000     47.800      0.875      0.749      0.875      0.992     80.760      0.992      0.875      0.992
   325.100     26.000     46.700      0.913      0.758      0.892      0.952     81.460      0.952      0.892      0.952
   325.200     26.000     44.000      0.928      0.750      0.914      1.059     82.161      1.059      0.914      1.059
   325.300     26.000     43.700      0.941      0.754      0.901      1.114     83.724      1.114      0.901      1.114
   325.400     26.000     45.300      0.896      0.749      0.880      0.990     85.288      0.990      0.880      0.990
   325.500     26.000     46.300      0.934      0.775      0.883      0.877     86.851      0.877      0.882      0.877
   325.600     26.000     42.800      0.898      0.800      0.910      0.910     88.216      0.910      0.910      0.910
   325.700     26.000     45.500      0.935      0.774      0.906      0.933     89.581      0.933      0.906      0.933
   325.800     26.000     47.500      0.960      0.793      0.964      1.134     90.945      1.134      0.964      1.134
   325.900     26.000     50.400      0.910      0.800      0.917      0.911     92.329      0.911      0.918      0.911
   326.000     26.000     52.400      0.961      0.812      0.902      0.900     93.713      0.900      0.902      0.900
   326.100     26.000     50.500      0.939      0.847      0.975      0.899     95.096      0.899      0.975      0.899
   326.200     26.000     50.500      0.997      0.851      1.043      1.069     96.983      1.069      1.043      1.069
   326.300     26.000     48.000      0.972      0.841      0.943      0.971     98.869      0.971      0.943      0.971
   326.400     26.000     46.000      1.008      0.856      0.929      1.090    100.755      1.090      0.929      1.090
   326.500     26.000     42.400      1.074      0.886      0.963      1.103    102.539      1.103      0.963      1.103
   326.600     26.000     41.800      1.004      0.911      1.090      1.066    104.322      1.066      1.090      1.066
   326.700     26.000     44.300      1.078      0.895      1.059      1.242    106.106      1.242      1.059      1.242
   326.800     26.000     46.300      1.043      0.915      1.041      0.991     99.918      0.991      1.041      0.991
   326.900     26.000     46.200      1.014      0.928      1.038      1.125     93.730      1.125      1.038      1.125
   327.000     26.000     46.400      1.003      0.920      1.035      1.207     87.542      1.207      1.035      1.207
   327.100     26.000     45.500      0.979      0.916      0.979      1.114     79.836      1.114      0.979      1.114
   327.200     26.000     41.600      0.987      0.914      0.976      1.147     72.130      1.147      0.976      1.147
   327.300     26.000     40.800      0.972      0.934      0.988      1.085     64.424      1.085      0.988      1.085
   327.400     26.000     42.600      0.928      0.921      0.991      0.994     56.961      0.994      0.991      0.994
   327.500     26.000     43.800      0.951      0.915      0.958      1.064     49.498      1.064      0.958      1.064
   327.600     26.000     43.000      0.935      0.920      0.969      1.087     42.036      1.087      0.969      1.087
   327.700     26.000     47.200      0.961      0.915      0.967      1.115     39.733      1.115      0.967      1.115
   327.800     26.000     47.600      0.934      0.916      0.951      1.017     37.430      1.017      0.951      1.017
   327.900     26.000     46.600      0.965      0.913      0.975      1.139     35.127      1.139      0.975      1.139
   328.000     26.000     44.800      0.959      0.914      0.980      1.142     35.152      1.142      0.980      1.142
   328.100     26.000     44.800      0.953      0.915      0.986      1.145     35.178      1.145      0.986      1.145
   328.200     26.000     46.000      0.939      0.902      0.955      1.067     35.203      1.066      0.955      1.067
   328.300     26.000     45.300      0.961      0.897      0.960      1.074     34.980      1.074      0.960      1.074
   328.400     26.000     44.500      0.973      0.901      0.963      1.163     34.756      1.163      0.963      1.163
   328.500     26.000     43.600      0.973      0.896      0.962      1.115     34.532      1.115      0.962      1.115
   328.600     26.000     43.900      0.961      0.896      0.962      1.094     34.461      1.094      0.962      1.094
   328.700     26.000     45.900      0.960      0.896      0.960      1.097     34.389      1.097      0.960      1.097
   328.800     26.000     43.700      0.958      0.895      0.958      1.100     34.318      1.100      0.958      1.100
   328.900     26.000     42.600      0.949      0.895      0.968      1.130     34.466      1.130      0.968      1.130
   329.000     26.000     43.400      0.938      0.887      0.962      1.132     34.614      1.132      0.962      1.132
   329.100     26.000    -999.25      0.938      0.895      0.985      1.156     34.763      1.156      0.985      1.156
