~Version Information
VERS.                     2.0: CWLS log ASCII Standard Version 2.00
WRAP.                      NO: One line per depth step

~Well Information Block
#MNEM.UNIT                 Value                       Information
#------------              -----                       -----------
STRT.M                   3465.0000                    :START
STOP.M                   4684.7000                    :STOP
STEP.M                      0.1000                    :STEP
NULL.                     -999.25                     :NULL VALUE
COMP.         STATOIL PETROLEUM AS                    :Company
WELL.         15/9-F-15 D                             :Well
FLD .         VOLVE                                   :Field
LOC .                                                 :Location
PROV.                                                 :Province
CNTY.         MAERSK INSPIRER                         :County
STATE.                                                 :State
CTRY.         NORWAY                                  :Country
DATE.                                                 :Log Date
SRVC.                                                 :Service Company
UWI .                                                 :Unique Well Identifier
API .                                                 :API Number
LATI.         058 26' 29.706" N    DMS                :Latitude
LONG.         001 53' 15.149" E    DMS                :Longtitude
PD  .         MSL                                     :Permanent Datum
EDF .M                54.9000                         :Elevations D.F.
EGL .M               -91.0000                         :Elevations G.L.
ELZ .M                54.9000                         :Elev. Log Zero
LMF .         DF                                      :Log Measured From
MP  .         DF                                      :Drill Measured From

~Curve Information
#MNEM   .UNIT             API CODE Curve Description
#------------             -------- -----------------
DEPTH   .M            00 001 00 00:   0  Depth
BVW     .v/v          00 000 00 00:   1  BVW:CPI:rC:0001:v1
COAL_FLAG.unitless    00 000 00 00:   2  COAL_FLAG:CPI:rC:0001:v1
KLOGH   .mD           00 000 00 00:   3  KLOGH:CPI:rC:0001:v1
PHIF    .v/v          00 000 00 00:   4  PHIF:CPI:rC:0001:v1
SAND_FLAG.unitless    00 000 00 00:   5  SAND_FLAG:CPI:rC:0001:v1
SW      .v/v          00 000 00 00:   6  SW:CPI:rC:0001:v1
VCARB   .v/v          00 000 00 00:   7  VCARB:CPI:rC:0001:v1
VSH     .v/v          00 000 00 00:   8  VSH:CPI:rC:0001:v1

~Parameter Information
#MNEM.UNIT       Value           Description
#------------    -----           -----------
RUN .         .                 :Run Number

~Other Information
PETROPHYSICAL INTERPRETATION: OUTPUT

# --- LOG MNEMONICS AND UNITS ---
#Depth          BVW             COAL_FLAG       KLOGH           PHIF            SAND_FLAG       SW              VCARB           VSH            
#M              v/v             unitless        mD              v/v             unitless        v/v             v/v             v/v            

~A
      3465.0000          0.1120          0.0000          0.0010          0.1810          0.0000          0.6188          0.2544          1.0000
      3465.1000          0.1128          0.0000          0.0010          0.1605          0.0000          0.7027          0.2091          1.0000
      3465.2000          0.0866          0.0000          0.0010          0.1375          0.0000          0.6299          0.1632          1.0000
      3465.3000          0.1090          0.0000          0.0010          0.1127          0.0000          0.9672          0.1198          1.0000
      3465.4000          0.0869          0.0000          0.0010          0.0869          0.0000          1.0000          0.0812          1.0000
      3465.5000          0.0625          0.0000          0.0010          0.0625          0.0000          1.0000          0.0508          1.0000
      3465.6000          0.0448          0.0000          0.0010          0.0448          0.0000          1.0000          0.0325          1.0000
      3465.7000          0.0384          0.0000          0.0010          0.0384          0.0000          1.0000          0.0265          1.0000
      3465.8000          0.0431          0.0000          0.0010          0.0431          0.0000          1.0000          0.0309          1.0000
      3465.9000          0.0535          0.0000          0.0010          0.0535          0.0000          1.0000          0.0411          1.0000
      3466.0000          0.0620          0.0000          0.0010          0.0620          0.0000          1.0000          0.0502          1.0000
      3466.1000          0.0659          0.0000          0.0010          0.0659          0.0000          1.0000          0.0547          1.0000
      3466.2000          0.0683          0.0000          0.0010          0.0683          0.0000          1.0000          0.0575          1.0000
      3466.3000          0.0735          0.0000          0.0010          0.0735          0.0000          1.0000          0.0638          1.0000
      3466.4000          0.0808          0.0000          0.0010          0.0808          0.0000          1.0000          0.0731          1.0000
      3466.5000          0.0854          0.0000          0.0010          0.0854          0.0000          1.0000          0.0791          1.0000
      3466.6000          0.0846          0.0000          0.0010          0.0846          0.0000          1.0000          0.0781          1.0000
      3466.7000          0.0820          0.0000          0.0010          0.0820          0.0000          1.0000          0.0746          1.0000
      3466.8000          0.0831          0.0000          0.0010          0.0831          0.0000          1.0000          0.0760          1.0000
      3466.9000          0.0892          0.0000          0.0010          0.0892          0.0000          1.0000          0.0844          1.0000
      3467.0000          0.0970          0.0000          0.0010          0.0970          0.0000          1.0000          0.0956          1.0000
      3467.1000          0.1033          0.0000          0.0010          0.1033          0.0000          1.0000          0.1050          1.0000
      3467.2000          0.1064          0.0000          0.0010          0.1064          0.0000          1.0000          0.1099          1.0000
      3467.3000          0.1066          0.0000          0.0010          0.1066          0.0000          1.0000          0.1101          1.0000
      3467.4000          0.1043          0.0000          0.0010          0.1043          0.0000          1.0000          0.1065          1.0000
      3467.5000          0.1001          0.0000          0.0010          0.1001          0.0000          1.0000          0.1002          1.0000
      3467.6000          0.0950          0.0000          0.0010          0.0950          0.0000          1.0000          0.0926          1.0000
      3467.7000          0.0895          0.0000          0.0010          0.0895          0.0000          1.0000          0.0847          1.0000
      3467.8000          0.0840          0.0000          0.0010          0.0840          0.0000          1.0000          0.0772          1.0000
      3467.9000          0.0792          0.0000          0.0010          0.0792          0.0000          1.0000          0.0710          1.0000
      3468.0000          0.0758          0.0000          0.0010          0.0758          0.0000          1.0000          0.0666          1.0000
      3468.1000          0.0742          0.0000          0.0010          0.0742          0.0000          1.0000          0.0646          1.0000
      3468.2000          0.0744          0.0000          0.0010          0.0744          0.0000          1.0000          0.0649          1.0000
      3468.3000          0.0753          0.0000          0.0010          0.0753          0.0000          1.0000          0.0660          1.0000
      3468.4000          0.0757          0.0000          0.0010          0.0757          0.0000          1.0000          0.0665          1.0000
      3468.5000          0.0745          0.0000          0.0010          0.0745          0.0000          1.0000          0.0649          1.0000
      3468.6000          0.0714          0.0000          0.0010          0.0714          0.0000          1.0000          0.0612          1.0000
      3468.7000          0.0692          0.0000          0.0010          0.0692          0.0000          1.0000          0.0586          1.0000
      3468.8000          0.0701          0.0000          0.0010          0.0701          0.0000          1.0000          0.0596          1.0000
      3468.9000          0.0734          0.0000          0.0010          0.0734          0.0000          1.0000          0.0637          1.0000
      3469.0000          0.0770          0.0000          0.0010          0.0770          0.0000          1.0000          0.0681          1.0000
      3469.1000          0.0804          0.0000          0.0010          0.0804          0.0000          1.0000          0.0725          1.0000
      3469.2000          0.0852          0.0000          0.0010          0.0852          0.0000          1.0000          0.0789          1.0000
      3469.3000          0.0917          0.0000          0.0010          0.0917          0.0000          1.0000          0.0880          1.0000
      3469.4000          0.0978          0.0000          0.0010          0.0978          0.0000          1.0000          0.0967          1.0000
      3469.5000          0.1004          0.0000          0.0010          0.1004          0.0000          1.0000          0.1006          1.0000
      3469.6000          0.0991          0.0000          0.0010          0.0991          0.0000          1.0000          0.0986          1.0000
      3469.7000          0.0952          0.0000          0.0010          0.0952          0.0000          1.0000          0.0930          1.0000
      3469.8000          0.0910          0.0000          0.0010          0.0910          0.0000          1.0000          0.0869          1.0000
      3469.9000          0.0884          0.0000          0.0010          0.0884          0.0000          1.0000          0.0833          1.0000
      3470.0000          0.0887          0.0000          0.0010          0.0887          0.0000          1.0000          0.0837          1.0000
      3470.1000          0.0907          0.0000          0.0010          0.0907          0.0000          1.0000          0.0865          1.0000
      3470.2000          0.0919          0.0000          0.0010          0.0919          0.0000          1.0000          0.0882          1.0000
      3470.3000          0.0912          0.0000          0.0010          0.0912          0.0000          1.0000          0.0872          1.0000
      3470.4000          0.0894          0.0000          0.0010          0.0894          0.0000          1.0000          0.0847          1.0000
      3470.5000          0.0884          0.0000          0.0010          0.0884          0.0000          1.0000          0.0832          1.0000
