~Version Information
VERS.                     2.0: CWLS log ASCII Standard Version 2.00
WRAP.                      NO: One line per depth step

~Well Information Block
#MNEM       .UNIT          Value                       Information
#-------------------------------------------------------------------------
STRT        .M             3102.102                    :START
STOP        .M             3505.8096                   :STOP
STEP        .M             0.1524                      :STEP
NULL        .              -999.25                     :NULL VALUE
COMP        .              STATOILHYDRO                :COMPANY
WELL        .              15/9-F-12                   :WELL
FLD         .              VOLVE                       :FIELD
LOC         .              UNKNOWN                     :LOCATION
CNTY        .              UNKNOWN                     :COUNTY
STAT        .              UNKNOWN                     :STATE
CTRY        .              Norway                      :COUNTRY
SRVC        .              UNKNOWN                     :SERVICE COMPANY
DATE        .              UNKNOWN                     :LOG DATE
UWI         .              NO 15/9-F-12                :UNIQUE WELL ID
XCOORD      .              435050.170000               :SURFACE X
YCOORD      .              6478574.700000              :SURFACE Y
LAT         .              58.441713                   :LATITUDE
LON         .              1.887480                    :LONGITUDE
ELEV        .M             54.9000                     :SURFACE ELEV
ELEV_TYPE   .              KB                          :ELEV TYPE

~Curve Information
#MNEM       .UNIT             API CODE : Curve Description
#-------------------------------------------------------------------------
DEPTH       .M                UNKNOWN  : Measured Dept
BVW         .v/v_decimal      UNKNOWN  : BVW:UNKNOWN:rC:NONE:v1
KLOGH       .mD               UNKNOWN  : KLOGH:UNKNOWN:rC:NONE:v1
PHIF        .v/v_decimal      UNKNOWN  : PHIF:UNKNOWN:rC:NONE:v1
SW          .v/v_decimal      UNKNOWN  : SW:UNKNOWN:rC:NONE:v1
VSH         .v/v_decimal      UNKNOWN  : VSH:UNKNOWN:rC:NONE:v1
# --- LOG MNEMONICS AND UNITS ---
#Depth     BVW        KLOGH      PHIF       SW         VSH       
#M         v/v_decima mD         v/v_decima v/v_decima v/v_decima
~A
# ...
 3157.8804 0.02940000 239.335800 0.22319999 0.13150000 0.15629999
 3158.0328 0.02830000 225.339401 0.21870000 0.12939999 0.15520000
 3158.1852 0.02850000 299.989685 0.22169999 0.12839999 0.14409999
 3158.3376 0.02859999 399.369995 0.22480000 0.12739999 0.13300000
   3158.49 0.02879999 531.671997 0.22779999 0.12649999 0.12189999
 3158.6424 0.02800000 544.235900 0.22110000 0.12649999 0.11479999
 3158.7948 0.02710000 546.909301 0.21369999 0.12680000 0.10790000
 3158.9472 0.02630000 549.596618 0.20630000 0.12729999 0.10109999
 3159.0996 0.02639999 552.678771 0.20379999 0.12939999 0.09870000
  3159.252 0.02700000 555.981628 0.20399999 0.13249999 0.09860000
 3159.4044 0.02769999 559.304077 0.20419999 0.13580000 0.09839999
 3159.5568 0.02779999 545.079528 0.20149999 0.13819999 0.09730000
 3159.7092 0.02690000 503.597412 0.19380000 0.13869999 0.09430000
 3159.8616 0.02600000 465.273010 0.18610000 0.13959999 0.09130000
  3160.014 0.02529999 431.213897 0.18000000 0.14079999 0.08950000
 3160.1664 0.02679999 412.225402 0.18909999 0.14190000 0.09969999
 3160.3188 0.02850000 394.072387 0.19810000 0.14390000 0.10999999
 3160.4712 0.03050000 376.718902 0.20720000 0.14710000 0.12020000
 3160.6236 0.03229999 283.310394 0.19879999 0.16240000 0.12649999
  3160.776 0.03449999 201.478103 0.18639999 0.18500000 0.13189999
 3160.9284 0.03750000 143.282806 0.17399999 0.21559999 0.13729999
 3161.0808 0.04039999 109.183403 0.16490000 0.24519999 0.14239999
 3161.2332 0.04270000 88.4507980 0.15889999 0.26899999 0.14720000
 3161.3856 0.04569999 71.6551971 0.15289999 0.29899999 0.15199999
  3161.538 0.04989999 60.1236991 0.14859999 0.33610001 0.15659999
 3161.6904 0.05710000 56.0747985 0.14949999 0.38179999 0.16079999
 3161.8428 0.06949999 52.2985000 0.15039999 0.46230000 0.16500000
 3161.9952 0.10260000 48.7765998 0.15139999 0.67809998 0.16920000
 3162.1476 0.10409999 49.2857017 0.15659999 0.66500002 0.17329999
    3162.3 0.10339999 49.9299011 0.16189999 0.63880002 0.17749999
 3162.4524 0.10279999 50.5826988 0.16730000 0.61449998 0.18160000
 3162.6048 0.08900000 54.5358009 0.17110000 0.52020001 0.18140000
 3162.7572 0.07710000 60.4842987 0.17430000 0.44260001 0.17919999
 3162.9096 0.06949999 67.0815963 0.17739999 0.39169999 0.17700000
  3163.062 0.05719999 79.5365982 0.18039999 0.31679999 0.17139999
 3163.2144 0.04569999 103.948402 0.18320000 0.24940000 0.16099999
 3163.3668 0.03959999 135.852905 0.18590000 0.21289999 0.15049999
 3163.5192 0.03629999 177.407196 0.18799999 0.19310000 0.13940000
 3163.6716 0.03840000 230.388198 0.18510000 0.20759999 0.12430000
  3163.824 0.03909999 156.820297 0.14720000 0.26579999 0.10909999
 3163.9764 0.04219999 182.853103 0.13850000 0.30439999 0.09399999
 3164.1288 0.03620000 136.783706 0.11060000 0.32710000 0.08320000
 3164.2812 0.02999999 94.3291015 0.07930000 0.37889999 0.07329999
 3164.4336 0.02439999 65.0514984 0.04789999 0.50849997 0.06340000
  3164.586 0.01830000 144.402206 0.08969999 0.20450000 0.06199999
 3164.7384 0.01439999 213.879806 0.11689999 0.12340000 0.06719999
 3164.8908 0.01279999 316.786193 0.14409999 0.08869999 0.07240000
 3165.0432 0.01250000 390.535888 0.16640000 0.07509999 0.08219999
 3165.1956 0.01449999 302.752014 0.17640000 0.08200000 0.10329999
  3165.348 0.01769999 234.700302 0.18629999 0.09510000 0.12449999
 3165.5004 0.02559999 182.066802 0.19629999 0.13040000 0.14560000
 3165.6528 0.02480000 98.1184997 0.19979999 0.12420000 0.17849999
 3165.8052 0.02410000 52.9631996 0.20319999 0.11879999 0.21130000
 3165.9576 0.02360000 28.5888004 0.20669999 0.11400000 0.24410000
   3166.11 0.02500000 19.3812999 0.20790000 0.12030000 0.26399999
 3166.2624 0.02800000 14.3454999 0.20819999 0.13429999 0.27880001
 3166.4148 0.03249999 10.6181001 0.20849999 0.15600000 0.29359999
 3166.5672 0.03750000 8.60890007 0.20919999 0.17939999 0.30430001
 3166.7196 0.04010000 7.83449983 0.21019999 0.19079999 0.30979999
  3166.872 0.04340000 7.12979984 0.21130000 0.20530000 0.31529998
 3167.0244 0.04729999 6.23649978 0.21279999 0.22220000 0.32300001
 3167.1768 0.04930000 4.43200016 0.21619999 0.22810000 0.34250000
 3167.3292 0.05160000 3.14960002 0.21950000 0.23489999 0.36199998
 3167.4816 0.05420000 2.23819994 0.22290000 0.24289999 0.38150000
  3167.634 0.04089999 1.95329999 0.23610000 0.17329999 0.39980000
 3167.7864 0.03440000 1.75349998 0.25069999 0.13709999 0.41800001
 3167.9388 0.03060000 1.57410001 0.26530000 0.11550000 0.43619999
 3168.0912 0.03040000 1.49539995 0.27000001 0.11249999 0.44279998
 3168.2436 0.03200000 1.47560000 0.26820001 0.11919999 0.44179999
  3168.396 0.03390000 1.45599997 0.26629999 0.12739999 0.44080001
 3168.5484 0.03530000 1.41100001 0.26480001 0.13320000 0.44100001
 3168.7008 0.03440000 1.31509995 0.26399999 0.13030000 0.44369998
 3168.8532 0.03359999 1.22580003 0.26330000 0.12770000 0.44639998
 3169.0056 0.03290000 1.14429998 0.26249998 0.12540000 0.44909998
  3169.158 0.03310000 1.11319994 0.26199999 0.12649999 0.44999998
 3169.3104 0.03339999 1.08290004 0.26150000 0.12749999 0.45080000
 3169.4628 0.03359999 1.05340003 0.26100000 0.12860000 0.45170000
 3169.6152 0.03290000 1.13610005 0.26219999 0.12559999 0.44909998
 3169.7676 0.03209999 1.26670002 0.26399999 0.12150000 0.44539999
   3169.92 0.03130000 1.41219997 0.26570001 0.11770000 0.44170001
 3170.0724 0.03060000 1.39139997 0.26530000 0.11529999 0.44209998
 3170.2248 0.02999999 1.19570004 0.26249998 0.11429999 0.44690001
 3170.3772 0.02950000 1.02750003 0.25970000 0.11339999 0.45179998
 3170.5296 0.02879999 0.91780000 0.25690001 0.11209999 0.45480000
  3170.682 0.02779999 0.96240001 0.25429999 0.10920000 0.45010000
 3170.8344 0.02679999 1.00909996 0.25159999 0.10670000 0.44539999
 3170.9868 0.02600000 1.05820000 0.24889999 0.10440000 0.44069999
 3171.1392 0.02630000 0.96020001 0.24519999 0.10729999 0.44209998
 3171.2916 0.02679999 0.85939997 0.24150000 0.11100000 0.44420000
  3171.444 0.02730000 0.76920002 0.23770000 0.11490000 0.44620001
 3171.5964 0.02749999 0.74489998 0.24289999 0.11320000 0.45239999
 3171.7488 0.02749999 0.75510001 0.25339999 0.10840000 0.46099999
 3171.9012 0.02740000 0.76539999 0.26379999 0.10400000 0.46959999
 3172.0536 0.02740000 0.81400001 0.27099999 0.10119999 0.47310000
  3172.206 0.02740000 0.94569998 0.27230000 0.10080000 0.46700000
 3172.3584 0.02749999 1.09870004 0.27360001 0.10040000 0.46090000
 3172.5108 0.02740000 1.25950002 0.27410000 0.10010000 0.45469999
 3172.6632 0.02690000 1.21270000 0.26309999 0.10209999 0.44679999
 3172.8156 0.02630000 1.16760003 0.25220000 0.10419999 0.43889999
  3172.968 0.02569999 1.12430000 0.24120000 0.10660000 0.43099999
 3173.1204 0.02730000 1.13100004 0.24580000 0.11079999 0.43479999
 3173.2728 0.02989999 1.15110003 0.25459998 0.11729999 0.44179999
 3173.4252 0.03339999 1.17149996 0.26339998 0.12690000 0.44870001
 3173.5776 0.03429999 0.99119997 0.26320001 0.13030000 0.45660001
   3173.73 0.03189999 0.70179998 0.25440001 0.12530000 0.46540001
 3173.8824 0.02989999 0.49689999 0.24560000 0.12189999 0.47429999
 3174.0348 0.02899999 0.36129999 0.24029999 0.12049999 0.48500001
 3174.1872 0.03040000 0.28760001 0.24729999 0.12300000 0.50220000
 3174.3396 0.03209999 0.22879999 0.25420001 0.12620000 0.51929998
  3174.492 0.03400000 0.18209999 0.26109999 0.13030000 0.53649997
 3174.6444 0.03449999 0.16959999 0.26039999 0.13259999 0.53930002
 3174.7968 0.03489999 0.15929999 0.25929999 0.13470000 0.54129999
 3174.9492 0.03539999 0.14959999 0.25810000 0.13699999 0.54339998
 3175.1016 0.03570000 0.14509999 0.25740000 0.13850000 0.54420000
  3175.254 0.03590000 0.14309999 0.25699999 0.13969999 0.54439997
 3175.4064 0.03610000 0.14120000 0.25650000 0.14079999 0.54470002
 3175.5588 0.03629999 0.14120000 0.25709998 0.14110000 0.54530000
 3175.7112 0.03640000 0.14429999 0.25960001 0.14000000 0.54640001
 3175.8636 0.03640000 0.14749999 0.26210001 0.13889999 0.54759997
  3176.016 0.03649999 0.15270000 0.26460000 0.13789999 0.54809999
 3176.1684 0.03649999 0.17730000 0.26699998 0.13680000 0.54309999
 3176.3208 0.03660000 0.20569999 0.26940000 0.13580000 0.53799998
