~Version Information
VERS.                     2.0: CWLS log ASCII Standard Version 2.00
WRAP.                      NO: One line per depth step

~Well Information Block
#MNEM.UNIT                 Value                       Information
#------------              -----                       -----------
STRT.M                   3271.0000                    :START
STOP.M                   3631.9000                    :STOP
STEP.M                      0.1000                    :STEP
NULL.                     -999.25                     :NULL VALUE
COMP.         Statoil Petroleum                       :Company
WELL.         15/9-F-1                                :Well
FLD .         VOLVE                                   :Field
LOC .         Maersk Inspirer                         :Location
PROV.                                                 :Province
CNTY.                                                 :County
STATE.                                                 :State
CTRY.                                                 :Country
DATE.                                                 :Log Date
SRVC.                                                 :Service Company
UWI .                                                 :Unique Well Identifier
API .                                                 :API Number
LATI.         058 26' 29.907" N    DMS                :Latitude
LONG.         001 53' 14.708" E    DMS                :Longtitude
PD  .         MSL                                     :Permanent Datum
ELZ .M                 0.0000                         :Elev. Log Zero

~Curve Information
#MNEM   .UNIT             API CODE Curve Description
#------------             -------- -----------------
DEPTH   .M            00 001 00 00:   0  Depth
BVW     .V/V          00 000 00 00:   1  Bound Volume Water
COAL_FLAG.unitless    00 000 00 00:   2  Coal Flag
KLOGH   .MD           00 000 00 00:   3  Calculated Horizontal PERMEABILITY from logs
PHIF    .V/V          00 000 00 00:   4  Final porosity
SAND_FLAG.unitless    00 000 00 00:   5  Sand Flag
SW      .V/V          00 000 00 00:   6  Water Saturation (Archie)
VCARB   .V/V          00 000 00 00:   7  Volume of calcite; dolomite and siderite from log analysis; repo
VSH     .V/V          00 000 00 00:   8  (GR-15)/(250-15)

~Parameter Information
#MNEM.UNIT       Value           Description
#------------    -----           -----------
HLD .         Terms and Conditions.:Header Legal Disclaimer
RUN .         1                 :Run number

~Other Information
PETROPHYSICAL INTERPRETATION: OUTPUT

# --- LOG MNEMONICS AND UNITS ---
#Depth          BVW             COAL_FLAG       KLOGH           PHIF            SAND_FLAG       SW              VCARB           VSH            
#M              V/V             unitless        MD              V/V             unitless        V/V             V/V             V/V            

~A
# ...
      3360.6000          0.1908          0.0000         26.4273          0.1908          1.0000          1.0000          0.0000          0.2338
      3360.7000          0.1928          0.0000         33.8237          0.1928          1.0000          1.0000          0.0000          0.2237
      3360.8000          0.1937          0.0000         51.4775          0.1937          1.0000          1.0000          0.0000          0.2043
      3360.9000          0.1924          0.0000         44.0998          0.1924          1.0000          1.0000          0.0000          0.2105
      3361.0000          0.1895          0.0000         46.9567          0.1895          1.0000          1.0000          0.0000          0.2050
      3361.1000          0.1854          0.0000         49.5971          0.1854          1.0000          1.0000          0.0000          0.1986
      3361.2000          0.1797          0.0000         46.8862          0.1797          1.0000          1.0000          0.0000          0.1963
      3361.3000          0.1730          0.0000         45.9810          0.1730          1.0000          1.0000          0.0000          0.1912
      3361.4000          0.1673          0.0000         38.8214          0.1673          1.0000          1.0000          0.0000          0.1944
      3361.5000          0.1657          0.0000         27.4466          0.1657          1.0000          1.0000          0.0000          0.2097
      3361.6000          0.1686          0.0000         24.7439          0.1686          1.0000          1.0000          0.0000          0.2172
      3361.7000          0.1729          0.0000         21.2794          0.1729          1.0000          1.0000          0.0000          0.2284
      3361.8000          0.1749          0.0000         39.4205          0.1749          1.0000          1.0000          0.0000          0.2004
      3361.9000          0.1731          0.0000         64.9886          0.1731          1.0000          1.0000          0.0000          0.1747
      3362.0000          0.1691          0.0000         52.6258          0.1691          1.0000          1.0000          0.0000          0.1813
      3362.1000          0.1657          0.0000         37.2085          0.1657          1.0000          1.0000          0.0000          0.1950
      3362.2000          0.1659          0.0000         14.0279          0.1659          1.0000          1.0000          0.0000          0.2423
      3362.3000          0.1707          0.0000          6.7763          0.1707          1.0000          1.0000          0.0000          0.2816
      3362.4000          0.1778          0.0000         10.2156          0.1778          1.0000          1.0000          0.0000          0.2682
      3362.5000          0.1831          0.0000         12.0072          0.1831          1.0000          1.0000          0.0000          0.2651
      3362.6000          0.1828          0.0000          4.0522          0.1842          1.0000          0.9924          0.0000          0.3184
      3362.7000          0.1840          0.0000          3.0060          0.1840          1.0000          1.0000          0.0000          0.3327
      3362.8000          0.1870          0.0000          9.8124          0.1870          1.0000          1.0000          0.0000          0.2782
      3362.9000          0.1935          0.0000         31.8253          0.1935          1.0000          1.0000          0.0000          0.2272
      3363.0000          0.1775          0.0000        119.6153          0.1970          1.0000          0.9009          0.0000          0.1665
      3363.1000          0.1343          0.0000        262.4436          0.1884          1.0000          0.7129          0.0000          0.1209
      3363.2000          0.1189          0.0000        353.8331          0.1659          1.0000          0.7171          0.0307          0.0864
      3363.3000          0.1205          0.0000        257.1342          0.1369          1.0000          0.8803          0.1586          0.0761
      3363.4000          0.1116          0.0000        130.7233          0.1116          1.0000          1.0000          0.2505          0.0863
      3363.5000          0.0957          0.0000        116.7396          0.0957          0.0000          1.0000          0.3347          0.0776
      3363.6000          0.0889          0.0000        155.7392          0.0889          0.0000          1.0000          0.4002          0.0577
      3363.7000          0.0890          0.0000        119.4061          0.0890          0.0000          1.0000          0.3776          0.0705
      3363.8000          0.0957          0.0000         98.6106          0.0957          0.0000          1.0000          0.3214          0.0858
      3363.9000          0.1086          0.0000        103.1714          0.1086          1.0000          1.0000          0.2502          0.0951
      3364.0000          0.1233          0.0000        152.8683          0.1233          1.0000          1.0000          0.1968          0.0891
      3364.1000          0.1339          0.0000        196.0457          0.1339          1.0000          1.0000          0.1566          0.0865
      3364.2000          0.1378          0.0000        163.9106          0.1378          1.0000          1.0000          0.1246          0.0986
      3364.3000          0.1343          0.0000         78.5432          0.1343          1.0000          1.0000          0.0969          0.1310
      3364.4000          0.1235          0.0000         13.1554          0.1235          1.0000          1.0000          0.0476          0.2076
      3364.5000          0.1060          0.0000          1.4314          0.1060          1.0000          1.0000          0.0128          0.2991
      3364.6000          0.0862          0.0000          0.3927          0.0862          0.0000          1.0000          0.0303          0.3439
      3364.7000          0.0698          0.0000          0.2727          0.0698          0.0000          1.0000          0.0762          0.3469
      3364.8000          0.0591          0.0000          0.3434          0.0591          0.0000          1.0000          0.1322          0.3263
      3364.9000          0.0532          0.0000          0.2256          0.0532          0.0000          1.0000          0.1345          0.3413
      3365.0000          0.0585          0.0000          0.0143          0.0585          0.0000          1.0000          0.1224          0.3369
      3365.1000          0.0555          0.0000          0.0102          0.0555          0.0000          1.0000          0.0965          0.3697
      3365.2000          0.0534          0.0000          0.0095          0.0534          0.0000          1.0000          0.1057          0.3671
      3365.3000          0.0528          0.0000          0.0115          0.0528          0.0000          1.0000          0.1416          0.3360
      3365.4000          0.0536          0.0000          0.0174          0.0536          0.0000          1.0000          0.2078          0.2802
      3365.5000          0.0549          0.0000          0.0199          0.0549          0.0000          1.0000          0.2184          0.2686
      3365.6000          0.0558          0.0000          0.0203          0.0558          0.0000          1.0000          0.2110          0.2714
      3365.7000          0.0563          0.0000          0.0182          0.0563          0.0000          1.0000          0.1858          0.2897
      3365.8000          0.0563          0.0000          0.0142          0.0563          0.0000          1.0000          0.1426          0.3253
      3365.9000          0.0568          0.0000          0.0126          0.0568          0.0000          1.0000          0.1168          0.3467
      3366.0000          0.0625          0.0000          0.0168          0.0625          0.0000          1.0000          0.1088          0.3376
      3366.1000          0.0814          0.0000          0.0397          0.0814          0.0000          1.0000          0.0655          0.3223
