~Version Information
VERS.                     2.0: CWLS log ASCII Standard Version 2.00
WRAP.                      NO: One line per depth step

~Well Information Block
#MNEM.UNIT                 Value                       Information
#------------              -----                       -----------
STRT.M                    3351.600                    :START
STOP.M                    4759.200                    :STOP
STEP.M                       0.100                    :STEP
NULL.                     -999.25                     :NULL VALUE
COMP.         Statoil Petroleum AS                    :Company
WELL.         15/9-F-11 B                             :Well
FLD .         VOLVE                                   :Field
LOC .         Maersk Inspirer                         :Location
PROV.                                                 :Province
CNTY.                                                 :County
STATE.                                                 :State
CTRY.                                                 :Country
DATE.                                                 :Log Date
SRVC.                                                 :Service Company
UWI .                                                 :Unique Well Identifier
API .                                                 :API Number
LATI.         058 26' 29.960" N    DMS                :Latitude
LONG.         001 53' 14.870" E    DMS                :Longtitude
PD  .         MSL                                     :Permanent Datum
EDF .M            54.900                              :Elevations D.F.
EGL .M           -91.000                              :Elevations G.L.
ELZ .M            54.900                              :Elev. Log Zero
LMF .         DF                                      :Log Measured From

~Curve Information
#MNEM   .UNIT             API CODE Curve Description
#------------             -------- -----------------
DEPTH   .M            00 001 00 00:   0  Depth
BVW     .v/v          00 000 00 00:   1  BVW:CPI:rC:NONE:v1
CARB_FLAG.unitless    00 000 00 00:   2  CARB_FLAG:CPI:rC:NONE:v1
COAL_FLAG.unitless    00 000 00 00:   3  COAL_FLAG:CPI:rC:NONE:v1
KLOGH   .mD           00 000 00 00:   4  KLOGH:CPI:rC:NONE:v1
PHIF    .v/v          00 000 00 00:   5  PHIF:CPI:rC:NONE:v1
SAND_FLAG.UNKNOWN     00 000 00 00:   6  SAND_FLAG:CPI:rC:NONE:v1
SW      .v/v          00 000 00 00:   7  SW:CPI:rC:NONE:v1
VSH     .v/v          00 000 00 00:   8  VSH:CPI:rC:NONE:v1

~Parameter Information
#MNEM.UNIT       Value           Description
#------------    -----           -----------
RUN .         1                 :Run number

~Other Information
PETROPHYSICAL_INTERPRETATION: OUTPUT

# --- LOG MNEMONICS AND UNITS ---
#Depth     BVW        CARB_FLAG  COAL_FLAG  KLOGH      PHIF       SAND_FLAG  SW         VSH       
#M         v/v        unitless   unitless   mD         v/v        UNKNOWN    v/v        v/v       

~A
# ...
  3724.200      0.024      0.000      0.000    911.683      0.231      1.000      0.103      0.098
  3724.300      0.024      0.000      0.000    685.468      0.231      1.000      0.103      0.113
  3724.400      0.024      0.000      0.000    698.392      0.231      1.000      0.103      0.112
  3724.500      0.024      0.000      0.000    794.346      0.230      1.000      0.103      0.105
  3724.600      0.024      0.000      0.000    809.679      0.229      1.000      0.103      0.103
  3724.700      0.024      0.000      0.000    844.622      0.228      1.000      0.104      0.100
  3724.800      0.024      0.000      0.000    813.587      0.227      1.000      0.104      0.101
  3724.900      0.024      0.000      0.000    762.182      0.227      1.000      0.105      0.104
  3725.000      0.024      0.000      0.000    704.028      0.226      1.000      0.104      0.107
  3725.100      0.023      0.000      0.000    730.217      0.225      1.000      0.104      0.105
  3725.200      0.023      0.000      0.000    769.459      0.226      1.000      0.103      0.102
  3725.300      0.023      0.000      0.000    813.391      0.227      1.000      0.104      0.100
  3725.400      0.024      0.000      0.000    922.567      0.229      1.000      0.103      0.097
  3725.500      0.024      0.000      0.000   1026.145      0.229      1.000      0.103      0.091
  3725.600      0.024      0.000      0.000   1076.605      0.230      1.000      0.104      0.090
  3725.700      0.024      0.000      0.000   1208.719      0.231      1.000      0.102      0.085
  3725.800      0.024      0.000      0.000    991.333      0.230      1.000      0.103      0.094
  3725.900      0.024      0.000      0.000   1034.302      0.230      1.000      0.103      0.092
  3726.000      0.024      0.000      0.000    903.732      0.231      1.000      0.103      0.099
  3726.100      0.024      0.000      0.000    983.910      0.232      1.000      0.102      0.096
  3726.200      0.024      0.000      0.000    926.856      0.234      1.000      0.102      0.101
  3726.300      0.024      0.000      0.000    966.190      0.235      1.000      0.102      0.100
  3726.400      0.024      0.000      0.000   1207.347      0.236      1.000      0.101      0.089
  3726.500      0.024      0.000      0.000   1151.654      0.235      1.000      0.101      0.091
  3726.600      0.024      0.000      0.000   1040.240      0.235      1.000      0.102      0.096
  3726.700      0.024      0.000      0.000   1102.688      0.236      1.000      0.101      0.094
  3726.800      0.024      0.000      0.000    883.782      0.237      1.000      0.101      0.105
  3726.900      0.024      0.000      0.000    928.688      0.238      1.000      0.101      0.104
  3727.000      0.024      0.000      0.000    927.400      0.238      1.000      0.101      0.104
  3727.100      0.024      0.000      0.000    887.386      0.238      1.000      0.101      0.106
  3727.200      0.024      0.000      0.000   1037.779      0.237      1.000      0.101      0.098
  3727.300      0.024      0.000      0.000   1178.335      0.236      1.000      0.101      0.091
  3727.400      0.024      0.000      0.000   1281.517      0.237      1.000      0.101      0.087
  3727.500      0.024      0.000      0.000   1351.313      0.239      1.000      0.100      0.087
  3727.600      0.024      0.000      0.000   1136.692      0.239      1.000      0.100      0.095
  3727.700      0.024      0.000      0.000   1065.445      0.239      1.000      0.100      0.098
  3727.800      0.024      0.000      0.000   1114.060      0.238      1.000      0.101      0.095
  3727.900      0.024      0.000      0.000   1111.967      0.237      1.000      0.101      0.094
  3728.000      0.024      0.000      0.000    967.482      0.235      1.000      0.102      0.100
  3728.100      0.024      0.000      0.000   1119.801      0.234      1.000      0.101      0.091
  3728.200      0.024      0.000      0.000   1089.402      0.232      1.000      0.103      0.091
  3728.300      0.024      0.000      0.000   1064.581      0.230      1.000      0.103      0.090
  3728.400      0.024      0.000      0.000   1136.168      0.230      1.000      0.104      0.087
  3728.500      0.024      0.000      0.000   1136.307      0.231      1.000      0.104      0.088
  3728.600      0.024      0.000      0.000   1222.029      0.232      1.000      0.103      0.086
  3728.700      0.024      0.000      0.000   1238.807      0.234      1.000      0.102      0.086
  3728.800      0.024      0.000      0.000   1443.351      0.234      1.000      0.102      0.080
  3728.900      0.024      0.000      0.000   1516.836      0.234      1.000      0.102      0.077
  3729.000      0.024      0.000      0.000   1295.133      0.234      1.000      0.102      0.084
  3729.100      0.024      0.000      0.000   1157.269      0.232      1.000      0.103      0.089
  3729.200      0.024      0.000      0.000   1092.341      0.232      1.000      0.103      0.091
  3729.300      0.024      0.000      0.000   1206.538      0.232      1.000      0.103      0.086
  3729.400      0.024      0.000      0.000   1279.748      0.233      1.000      0.102      0.084
  3729.500      0.024      0.000      0.000   1333.430      0.234      1.000      0.102      0.083
  3729.600      0.024      0.000      0.000   1299.979      0.235      1.000      0.101      0.085
  3729.700      0.024      0.000      0.000   1209.408      0.236      1.000      0.101      0.089
  3729.800      0.024      0.000      0.000   1125.214      0.236      1.000      0.101      0.093
  3729.900      0.024      0.000      0.000   1062.384      0.235      1.000      0.101      0.095
  3730.000      0.024      0.000      0.000    996.836      0.234      1.000      0.102      0.097
  3730.100      0.024      0.000      0.000   1166.226      0.233      1.000      0.101      0.089
  3730.200      0.024      0.000      0.000   1296.677      0.232      1.000      0.102      0.083
  3730.300      0.023      0.000      0.000   1392.578      0.231      1.000      0.101      0.079
  3730.400      0.023      0.000      0.000   1398.028      0.231      1.000      0.101      0.078
  3730.500      0.023      0.000      0.000   1380.126      0.231      1.000      0.101      0.079
  3730.600      0.023      0.000      0.000   1498.810      0.232      1.000      0.101      0.075
  3730.700      0.023      0.000      0.000   1276.212      0.232      1.000      0.101      0.083
  3730.800      0.023      0.000      0.000   1173.815      0.231      1.000      0.102      0.086
  3730.900      0.023      0.000      0.000   1138.714      0.229      1.000      0.102      0.087
  3731.000      0.023      0.000      0.000   1301.692      0.229      1.000      0.102      0.080
  3731.100      0.023      0.000      0.000   1249.124      0.230      1.000      0.102      0.082
  3731.200      0.023      0.000      0.000   1231.769      0.231      1.000      0.101      0.084
  3731.300      0.023      0.000      0.000   1151.028      0.233      1.000      0.101      0.089
  3731.400      0.024      0.000      0.000   1292.316      0.235      1.000      0.101      0.085
  3731.500      0.024      0.000      0.000   1357.164      0.236      1.000      0.100      0.084
  3731.600      0.024      0.000      0.000   1214.222      0.236      1.000      0.101      0.089
  3731.700      0.024      0.000      0.000   1004.843      0.236      1.000      0.101      0.098
  3731.800      0.024      0.000      0.000    789.572      0.235      1.000      0.102      0.109
  3731.900      0.024      0.000      0.000   1087.617      0.234      1.000      0.102      0.093
  3732.000      0.024      0.000      0.000   1275.946      0.233      1.000      0.102      0.084
  3732.100      0.024      0.000      0.000   1574.339      0.231      1.000      0.102      0.073
  3732.200      0.024      0.000      0.000   1197.783      0.229      1.000      0.104      0.083
