~Version Information
VERS.                     2.0: CWLS log ASCII Standard Version 2.00
WRAP.                      NO: One line per depth step

~Well Information Block
#MNEM.UNIT                 Value                       Information
#------------              -----                       -----------
STRT.M                   3358.0000                    :START
STOP.M                   3681.9000                    :STOP
STEP.M                      0.1000                    :STEP
NULL.                     -999.25                     :NULL VALUE
COMP.         Statoil Petroleum AS                    :Company
WELL.         15/9-F-1 A                              :Well
FLD .         VOLVE                                   :Field
LOC .         Maersk Inspirer                         :Location
PROV.                                                 :Province
CNTY.         Unused                                  :County
STATE.                                                 :State
CTRY.                                                 :Country
DATE.                                                 :Log Date
SRVC.                                                 :Service Company
UWI .                                                 :Unique Well Identifier
API .                                                 :API Number
LATI.         058 26' 29.907" N    DMS                :Latitude
LONG.         001 53' 14.708" E    DMS                :Longtitude
PD  .         MSL                                     :Permanent Datum
ELZ .M                 0.0000                         :Elev. Log Zero

~Curve Information
#MNEM   .UNIT             API CODE Curve Description
#------------             -------- -----------------
DEPTH   .M            00 001 00 00:   0  Depth
BVW     .V/V          00 000 00 00:   1  Bound Volume Water
COAL_FLAG.unitless    00 000 00 00:   2  Coal Flag
KLOGH   .mD           00 000 00 00:   3  Calculated Horizontal PERMEABILITY from logs
PHIF    .V/V          00 000 00 00:   4  Final porosity
SAND_FLAG.unitless    00 000 00 00:   5  Sand Flag
SW      .V/V          00 000 00 00:   6  Water Saturation (Archie)
VCARB   .V/V          00 000 00 00:   7  IFC(CARB_FLAG>0.5,1-VSH, VCARB)
VSH     .V/V          00 000 00 00:   8  Volume of Shale

~Parameter Information
#MNEM.UNIT       Value           Description
#------------    -----           -----------
HLD .         Terms and Conditions.:Header Legal Disclaimer
RUN .         1                 :Run number

~Other Information
PETROPHYSICAL INTERPRETATION: OUTPUT

# --- LOG MNEMONICS AND UNITS ---
#Depth          BVW             COAL_FLAG       KLOGH           PHIF            SAND_FLAG       SW              VCARB           VSH            
#M              V/V             unitless        mD              V/V             unitless        V/V             V/V             V/V            

~A
# ...
      3531.6000          0.0200          0.0000          0.0018          0.0200          0.0000          1.0000          0.4711          0.1982
      3531.7000          0.0200          0.0000          0.0018          0.0200          0.0000          1.0000          0.4904          0.1875
      3531.8000          0.0200          0.0000          0.0019          0.0200          0.0000          1.0000          0.4999          0.1822
      3531.9000          0.0200          0.0000          0.0016          0.0200          0.0000          1.0000          0.4269          0.2237
      3532.0000          0.0300          0.0000          0.0025          0.0300          0.0000          1.0000          0.3011          0.2770
      3532.1000          0.0479          0.0000          0.0085          0.0479          0.0000          1.0000          0.2016          0.3007
      3532.2000          0.0682          0.0000          0.0361          0.0682          0.0000          1.0000          0.1183          0.3122
      3532.3000          0.0773          0.0000          0.1242          0.0855          0.0000          0.9045          0.0544          0.3207
      3532.4000          0.0830          0.0000          0.2450          0.0943          0.0000          0.8797          0.0331          0.3149
      3532.5000          0.0907          0.0000          0.2077          0.0916          0.0000          0.9905          0.0492          0.3069
      3532.6000          0.0828          0.0000          0.1211          0.0828          0.0000          1.0000          0.1023          0.2832
      3532.7000          0.0784          0.0000          0.0898          0.0784          0.0000          1.0000          0.1232          0.2777
      3532.8000          0.0860          0.0000          0.1504          0.0860          0.0000          1.0000          0.0871          0.2873
      3532.9000          0.0933          0.0000          0.5353          0.1045          1.0000          0.8929          0.0091          0.3079
      3533.0000          0.1101          0.0000          2.0815          0.1255          1.0000          0.8766          0.0000          0.3495
      3533.1000          0.1260          0.0000          5.1381          0.1402          1.0000          0.8986          0.0000          0.3873
      3533.2000          0.1280          0.0000          7.0721          0.1458          1.0000          0.8778          0.0000          0.4076
      3533.3000          0.1200          0.0000          6.3396          0.1449          1.0000          0.8282          0.0000          0.4176
      3533.4000          0.1150          0.0000          4.6231          0.1417          1.0000          0.8116          0.0000          0.4350
      3533.5000          0.1147          0.0000          3.9288          0.1391          1.0000          0.8247          0.0000          0.4282
      3533.6000          0.1162          0.0000          4.2577          0.1377          1.0000          0.8439          0.0000          0.3879
      3533.7000          0.1172          0.0000          4.1778          0.1366          1.0000          0.8580          0.0000          0.3747
      3533.8000          0.1153          0.0000          3.6902          0.1334          1.0000          0.8643          0.0000          0.3513
      3533.9000          0.1093          0.0000          2.6414          0.1256          1.0000          0.8701          0.0000          0.2987
      3534.0000          0.1018          0.0000          1.1818          0.1131          1.0000          0.9000          0.0143          0.2740
      3534.1000          0.0982          0.0000          0.4803          0.0994          0.0000          0.9879          0.0843          0.2492
      3534.2000          0.0889          0.0000          0.2488          0.0889          0.0000          1.0000          0.1512          0.2238
      3534.3000          0.0831          0.0000          0.1503          0.0831          0.0000          1.0000          0.1510          0.2408
      3534.4000          0.0809          0.0000          0.1057          0.0809          0.0000          1.0000          0.1105          0.2816
      3534.5000          0.0793          0.0000          0.0816          0.0793          0.0000          1.0000          0.0813          0.3131
      3534.6000          0.0770          0.0000          0.0765          0.0770          0.0000          1.0000          0.1132          0.2906
      3534.7000          0.0747          0.0000          0.0774          0.0747          0.0000          1.0000          0.1677          0.2515
      3534.8000          0.0733          0.0000          0.0789          0.0733          0.0000          1.0000          0.2099          0.2235
      3534.9000          0.0742          0.0000          0.0926          0.0742          0.0000          1.0000          0.2325          0.2044
      3535.0000          0.0799          0.0000          0.1535          0.0799          0.0000          1.0000          0.2358          0.1860
      3535.1000          0.0920          0.0000          0.3918          0.0920          0.0000          1.0000          0.2028          0.1755
      3535.2000          0.1081          0.0000          1.4417          0.1081          1.0000          1.0000          0.1748          0.1495
      3535.3000          0.1224          0.0000          4.3503          0.1224          1.0000          1.0000          0.1324          0.1391
      3535.4000          0.1205          0.0000          7.0008          0.1290          1.0000          0.9344          0.1049          0.1410
      3535.5000          0.1175          0.0000          5.2988          0.1258          1.0000          0.9339          0.1042          0.1512
      3535.6000          0.1142          0.0000          2.6105          0.1162          1.0000          0.9829          0.1420          0.1504
      3535.7000          0.1042          0.0000          1.0417          0.1042          1.0000          1.0000          0.1788          0.1579
      3535.8000          0.0917          0.0000          0.3860          0.0917          0.0000          1.0000          0.2057          0.1742
      3535.9000          0.0792          0.0000          0.1581          0.0792          0.0000          1.0000          0.2654          0.1677
      3536.0000          0.0677          0.0000          0.0682          0.0677          0.0000          1.0000          0.3167          0.1657
      3536.1000          0.0595          0.0000          0.0366          0.0595          0.0000          1.0000          0.3444          0.1703
      3536.2000          0.0569          0.0000          0.0302          0.0569          0.0000          1.0000          0.3553          0.1704
      3536.3000          0.0614          0.0000          0.0453          0.0614          0.0000          1.0000          0.3624          0.1541
      3536.4000          0.0717          0.0000          0.0977          0.0717          0.0000          1.0000          0.3218          0.1516
      3536.5000          0.0833          0.0000          0.2278          0.0833          0.0000          1.0000          0.2684          0.1543
      3536.6000          0.0909          0.0000          0.3747          0.0909          0.0000          1.0000          0.2193          0.1669
      3536.7000          0.0900          0.0000          0.2751          0.0900          0.0000          1.0000          0.1515          0.2203
      3536.8000          0.0805          0.0000          0.0556          0.0805          0.0000          1.0000          0.0000          0.4150
      3536.9000          0.0670          0.0000          0.0084          0.0670          0.0000          1.0000          0.0000          0.6097
      3537.0000          0.0552          0.0000          0.0021          0.0552          0.0000          1.0000          0.0000          0.7243
      3537.1000          0.0489          0.0000          0.0012          0.0489          0.0000          1.0000          0.0000          0.7350
