~Version Information
VERS.                     2.0: CWLS log ASCII Standard Version 2.00
WRAP.                      NO: One line per depth step

~Well Information Block
#MNEM.UNIT                 Value                       Information
#------------              -----                       -----------
STRT.M                   3358.0000                    :START
STOP.M                   3681.9000                    :STOP
STEP.M                      0.1000                    :STEP
NULL.                     -999.25                     :NULL VALUE
COMP.         Statoil Petroleum AS                    :Company
WELL.         15/9-F-1 A                              :Well
FLD .         VOLVE                                   :Field
LOC .         Maersk Inspirer                         :Location
PROV.                                                 :Province
CNTY.         Unused                                  :County
STATE.                                                 :State
CTRY.                                                 :Country
DATE.                                                 :Log Date
SRVC.                                                 :Service Company
UWI .                                                 :Unique Well Identifier
API .                                                 :API Number
LATI.         058 26' 29.907" N    DMS                :Latitude
LONG.         001 53' 14.708" E    DMS                :Longtitude
PD  .         MSL                                     :Permanent Datum
ELZ .M                 0.0000                         :Elev. Log Zero

~Curve Information
#MNEM   .UNIT             API CODE Curve Description
#------------             -------- -----------------
DEPTH   .M            00 001 00 00:   0  Depth
BVW     .V/V          00 000 00 00:   1  Bound Volume Water
COAL_FLAG.unitless    00 000 00 00:   2  Coal Flag
KLOGH   .mD           00 000 00 00:   3  Calculated Horizontal PERMEABILITY from logs
PHIF    .V/V          00 000 00 00:   4  Final porosity
SAND_FLAG.unitless    00 000 00 00:   5  Sand Flag
SW      .V/V          00 000 00 00:   6  Water Saturation (Archie)
VCARB   .V/V          00 000 00 00:   7  IFC(CARB_FLAG>0.5,1-VSH, VCARB)
VSH     .V/V          00 000 00 00:   8  Volume of Shale

~Parameter Information
#MNEM.UNIT       Value           Description
#------------    -----           -----------
HLD .         Terms and Conditions.:Header Legal Disclaimer
RUN .         1                 :Run number

~Other Information
PETROPHYSICAL INTERPRETATION: OUTPUT

# --- LOG MNEMONICS AND UNITS ---
#Depth          BVW             COAL_FLAG       KLOGH           PHIF            SAND_FLAG       SW              VCARB           VSH            
#M              V/V             unitless        mD              V/V             unitless        V/V             V/V             V/V            

~A
# ...
      3425.2000         -999.25          0.0000         -999.25         -999.25         -999.25         -999.25          0.0000          0.6830
      3425.3000         -999.25          0.0000         -999.25         -999.25         -999.25         -999.25          0.0000          0.6882
      3425.4000         -999.25          0.0000         -999.25         -999.25         -999.25         -999.25          0.0000          0.6992
      3425.5000         -999.25          0.0000         -999.25         -999.25         -999.25         -999.25          0.0000          0.6981
      3425.6000         -999.25          0.0000         -999.25         -999.25         -999.25         -999.25          0.0000          0.6914
      3425.7000         -999.25          0.0000         -999.25         -999.25         -999.25         -999.25          0.0000          0.6654
      3425.8000         -999.25          0.0000         -999.25         -999.25         -999.25         -999.25          0.0000          0.6535
      3425.9000         -999.25          0.0000         -999.25         -999.25         -999.25         -999.25          0.0000          0.6504
      3426.0000         -999.25          0.0000         -999.25         -999.25         -999.25         -999.25          0.0000          0.6328
      3426.1000         -999.25          0.0000         -999.25         -999.25         -999.25         -999.25          0.0000          0.6295
      3426.2000         -999.25          0.0000         -999.25         -999.25         -999.25         -999.25          0.0000          0.6402
      3426.3000         -999.25          0.0000         -999.25         -999.25         -999.25         -999.25          0.0000          0.6361
      3426.4000         -999.25          0.0000         -999.25         -999.25         -999.25         -999.25          0.0000          0.6515
      3426.5000         -999.25          0.0000         -999.25         -999.25         -999.25         -999.25          0.0000          0.6506
      3426.6000         -999.25          0.0000         -999.25         -999.25         -999.25         -999.25          0.0000          0.6498
      3426.7000         -999.25          0.0000         -999.25         -999.25         -999.25         -999.25          0.0000          0.6489
      3426.8000         -999.25          0.0000         -999.25         -999.25         -999.25         -999.25          0.0000          0.6471
      3426.9000         -999.25          0.0000         -999.25         -999.25         -999.25         -999.25          0.0000          0.6465
      3427.0000         -999.25          0.0000         -999.25         -999.25         -999.25         -999.25          0.0000          0.6662
      3427.1000         -999.25          0.0000         -999.25         -999.25         -999.25         -999.25          0.0000          0.6639
      3427.2000         -999.25          0.0000         -999.25         -999.25         -999.25         -999.25          0.0000          0.6523
      3427.3000         -999.25          0.0000         -999.25         -999.25         -999.25         -999.25          0.0000          0.6542
      3427.4000         -999.25          0.0000         -999.25         -999.25         -999.25         -999.25          0.0000          0.6563
      3427.5000         -999.25          0.0000         -999.25         -999.25         -999.25         -999.25          0.0000          0.6631
      3427.6000         -999.25          0.0000         -999.25         -999.25         -999.25         -999.25          0.0000          0.6783
      3427.7000         -999.25          0.0000         -999.25         -999.25         -999.25         -999.25          0.0000          0.6924
      3427.8000         -999.25          0.0000         -999.25         -999.25         -999.25         -999.25          0.0000          0.6794
      3427.9000         -999.25          0.0000         -999.25         -999.25         -999.25         -999.25          0.0000          0.6874
      3428.0000         -999.25          0.0000         -999.25         -999.25         -999.25         -999.25          0.0000          0.7000
      3428.1000         -999.25          0.0000         -999.25         -999.25         -999.25         -999.25          0.0000          0.7056
      3428.2000         -999.25          0.0000         -999.25         -999.25         -999.25         -999.25          0.0000          0.7207
      3428.3000         -999.25          0.0000         -999.25         -999.25         -999.25         -999.25          0.0000          0.7194
      3428.4000         -999.25          0.0000         -999.25         -999.25         -999.25         -999.25          0.0000          0.7045
      3428.5000         -999.25          0.0000         -999.25         -999.25         -999.25         -999.25          0.0000          0.6863
      3428.6000         -999.25          0.0000         -999.25         -999.25         -999.25         -999.25          0.0000          0.6654
      3428.7000         -999.25          0.0000         -999.25         -999.25         -999.25         -999.25          0.0000          0.6291
      3428.8000         -999.25          0.0000         -999.25         -999.25         -999.25         -999.25          0.0074          0.5874
      3428.9000         -999.25          0.0000         -999.25         -999.25         -999.25         -999.25          0.0380          0.5421
      3429.0000         -999.25          0.0000         -999.25         -999.25         -999.25         -999.25          0.1545          0.4986
      3429.1000         -999.25          0.0000         -999.25         -999.25         -999.25         -999.25          0.1518          0.4549
      3429.2000         -999.25          0.0000         -999.25         -999.25         -999.25         -999.25          0.1495          0.4206
      3429.3000         -999.25          0.0000         -999.25         -999.25         -999.25         -999.25          0.1480          0.3780
      3429.4000          0.0791          0.0000          0.0010          0.1279          0.0000          0.6187          0.1457          1.0000
      3429.5000          0.0804          0.0000          0.0010          0.1248          0.0000          0.6446          0.0729          0.9452
      3429.6000          0.0938          0.0000          0.0010          0.1176          0.0000          0.7973          0.0000          0.8582
      3429.7000          0.1036          0.0000          0.0010          0.1036          0.0000          1.0000          0.0000          0.7560
      3429.8000          0.0813          0.0000          0.0010          0.0813          0.0000          1.0000          0.0000          0.6745
      3429.9000          0.0524          0.0000          0.0010          0.0524          0.0000          1.0000          0.0000          0.6557
      3430.0000          0.0227          0.0000          0.0010          0.0227          0.0000          1.0000          0.3741          0.6259
      3430.1000          0.0200          0.0000          0.0010          0.0200          0.0000          1.0000          0.4218          0.5782
      3430.2000          0.0200          0.0000          0.0012          0.0200          0.0000          1.0000          0.4361          0.5639
      3430.3000          0.0200          0.0000          0.0018          0.0200          0.0000          1.0000          0.4562          0.5438
      3430.4000          0.0200          0.0000          0.0023          0.0200          0.0000          1.0000          0.4674          0.5326
      3430.5000          0.0200          0.0000          0.0024          0.0200          0.0000          1.0000          0.4686          0.5314
      3430.6000          0.0200          0.0000          0.0019          0.0200          0.0000          1.0000          0.4577          0.5423
      3430.7000          0.0200          0.0000          0.0010          0.0200          0.0000          1.0000          0.4281          0.5719
