~Version Information
VERS.                     2.0: CWLS log ASCII Standard Version 2.00
WRAP.                      NO: One line per depth step

~Well Information Block
#MNEM.UNIT                 Value                       Information
#------------              -----                       -----------
STRT.M                   3465.0000                    :START
STOP.M                   4684.7000                    :STOP
STEP.M                      0.1000                    :STEP
NULL.                     -999.25                     :NULL VALUE
COMP.         STATOIL PETROLEUM AS                    :Company
WELL.         15/9-F-15 D                             :Well
FLD .         VOLVE                                   :Field
LOC .                                                 :Location
PROV.                                                 :Province
CNTY.         MAERSK INSPIRER                         :County
STATE.                                                 :State
CTRY.         NORWAY                                  :Country
DATE.                                                 :Log Date
SRVC.                                                 :Service Company
UWI .                                                 :Unique Well Identifier
API .                                                 :API Number
LATI.         058 26' 29.706" N    DMS                :Latitude
LONG.         001 53' 15.149" E    DMS                :Longtitude
PD  .         MSL                                     :Permanent Datum
EDF .M                54.9000                         :Elevations D.F.
EGL .M               -91.0000                         :Elevations G.L.
ELZ .M                54.9000                         :Elev. Log Zero
LMF .         DF                                      :Log Measured From
MP  .         DF                                      :Drill Measured From

~Curve Information
#MNEM   .UNIT             API CODE Curve Description
#------------             -------- -----------------
DEPTH   .M            00 001 00 00:   0  Depth
BVW     .v/v          00 000 00 00:   1  BVW:CPI:rC:0001:v1
COAL_FLAG.unitless    00 000 00 00:   2  COAL_FLAG:CPI:rC:0001:v1
KLOGH   .mD           00 000 00 00:   3  KLOGH:CPI:rC:0001:v1
PHIF    .v/v          00 000 00 00:   4  PHIF:CPI:rC:0001:v1
SAND_FLAG.unitless    00 000 00 00:   5  SAND_FLAG:CPI:rC:0001:v1
SW      .v/v          00 000 00 00:   6  SW:CPI:rC:0001:v1
VCARB   .v/v          00 000 00 00:   7  VCARB:CPI:rC:0001:v1
VSH     .v/v          00 000 00 00:   8  VSH:CPI:rC:0001:v1

~Parameter Information
#MNEM.UNIT       Value           Description
#------------    -----           -----------
RUN .         .                 :Run Number

~Other Information
PETROPHYSICAL INTERPRETATION: OUTPUT

# --- LOG MNEMONICS AND UNITS ---
#Depth          BVW             COAL_FLAG       KLOGH           PHIF            SAND_FLAG       SW              VCARB           VSH            
#M              v/v             unitless        mD              v/v             unitless        v/v             v/v             v/v            

~A
# ...
      3543.4000          0.0310          0.0000        188.4529          0.2641          1.0000          0.1172          0.0000          0.2042
      3543.5000          0.0318          0.0000        122.2177          0.2631          1.0000          0.1210          0.0000          0.2242
      3543.6000          0.0325          0.0000        153.7316          0.2612          1.0000          0.1243          0.0000          0.2114
      3543.7000          0.0335          0.0000         91.3999          0.2586          1.0000          0.1296          0.0000          0.2342
      3543.8000          0.0339          0.0000         94.7339          0.2557          1.0000          0.1324          0.0000          0.2299
      3543.9000          0.0347          0.0000         67.5047          0.2517          1.0000          0.1377          0.0000          0.2427
      3544.0000          0.0358          0.0000         74.6228          0.2514          1.0000          0.1424          0.0000          0.2376
      3544.1000          0.0360          0.0000        103.3026          0.2515          1.0000          0.1429          0.0000          0.2220
      3544.2000          0.0365          0.0000        102.4282          0.2525          1.0000          0.1447          0.0000          0.2233
      3544.3000          0.0370          0.0000         91.8985          0.2533          1.0000          0.1460          0.0000          0.2293
      3544.4000          0.0374          0.0000         85.9618          0.2537          1.0000          0.1473          0.0000          0.2328
      3544.5000          0.0376          0.0000        131.2942          0.2537          1.0000          0.1480          0.0000          0.2123
      3544.6000          0.0378          0.0000        137.3825          0.2534          1.0000          0.1492          0.0000          0.2100
      3544.7000          0.0380          0.0000        133.0350          0.2534          1.0000          0.1501          0.0000          0.2114
      3544.8000          0.0383          0.0000        138.7332          0.2538          1.0000          0.1510          0.0000          0.2098
      3544.9000          0.0386          0.0000        109.7532          0.2540          1.0000          0.1520          0.0000          0.2213
      3545.0000          0.0388          0.0000        100.2753          0.2537          1.0000          0.1531          0.0000          0.2253
      3545.1000          0.0390          0.0000        101.8785          0.2525          1.0000          0.1543          0.0000          0.2236
      3545.2000          0.0392          0.0000         78.4849          0.2516          1.0000          0.1560          0.0000          0.2353
      3545.3000          0.0393          0.0000         97.9567          0.2502          1.0000          0.1571          0.0000          0.2234
      3545.4000          0.0395          0.0000         87.0094          0.2515          1.0000          0.1570          0.0000          0.2303
      3545.5000          0.0397          0.0000         52.8476          0.2512          1.0000          0.1579          0.0000          0.2540
      3545.6000          0.0396          0.0000         61.8244          0.2496          1.0000          0.1588          0.0000          0.2451
      3545.7000          0.0395          0.0000         86.5321          0.2470          1.0000          0.1599          0.0000          0.2266
      3545.8000          0.0395          0.0000         72.8053          0.2446          1.0000          0.1616          0.0000          0.2327
      3545.9000          0.0397          0.0000         57.7324          0.2437          1.0000          0.1629          0.0000          0.2431
      3546.0000          0.0397          0.0000         61.9184          0.2445          1.0000          0.1626          0.0000          0.2405
      3546.1000          0.0399          0.0000         45.8899          0.2463          1.0000          0.1619          0.0000          0.2565
      3546.2000          0.0399          0.0000         47.2970          0.2468          1.0000          0.1617          0.0000          0.2555
      3546.3000          0.0400          0.0000         53.2851          0.2486          1.0000          0.1610          0.0000          0.2513
      3546.4000          0.0402          0.0000         43.2187          0.2476          1.0000          0.1624          0.0000          0.2606
      3546.5000          0.0402          0.0000         57.2148          0.2453          1.0000          0.1638          0.0000          0.2450
      3546.6000          0.0402          0.0000         44.3953          0.2421          1.0000          0.1662          0.0000          0.2544
      3546.7000          0.0403          0.0000         39.9382          0.2389          1.0000          0.1686          0.0000          0.2566
      3546.8000          0.0402          0.0000         57.7173          0.2368          1.0000          0.1696          0.0000          0.2370
      3546.9000          0.0402          0.0000         74.9450          0.2373          1.0000          0.1695          0.0000          0.2249
      3547.0000          0.0404          0.0000         76.8939          0.2405          1.0000          0.1681          0.0000          0.2264
      3547.1000          0.0405          0.0000         91.5582          0.2441          1.0000          0.1659          0.0000          0.2212
      3547.2000          0.0409          0.0000         53.9727          0.2461          1.0000          0.1660          0.0000          0.2486
      3547.3000          0.0408          0.0000         76.7246          0.2461          1.0000          0.1660          0.0000          0.2315
      3547.4000          0.0406          0.0000         92.4254          0.2451          1.0000          0.1655          0.0000          0.2217
      3547.5000          0.0405          0.0000         66.5973          0.2445          1.0000          0.1658          0.0000          0.2370
      3547.6000          0.0405          0.0000         73.3630          0.2446          1.0000          0.1657          0.0000          0.2323
      3547.7000          0.0406          0.0000         60.7048          0.2445          1.0000          0.1663          0.0000          0.2414
      3547.8000          0.0407          0.0000         50.2306          0.2444          1.0000          0.1667          0.0000          0.2504
      3547.9000          0.0408          0.0000         52.2400          0.2442          1.0000          0.1669          0.0000          0.2484
      3548.0000          0.0405          0.0000         86.3239          0.2444          1.0000          0.1658          0.0000          0.2244
      3548.1000          0.0406          0.0000         80.3262          0.2444          1.0000          0.1661          0.0000          0.2278
      3548.2000          0.0407          0.0000         87.6476          0.2445          1.0000          0.1666          0.0000          0.2237
      3548.3000          0.0409          0.0000         70.8794          0.2446          1.0000          0.1673          0.0000          0.2341
      3548.4000          0.0409          0.0000         90.7552          0.2449          1.0000          0.1672          0.0000          0.2223
      3548.5000          0.0410          0.0000        102.4331          0.2452          1.0000          0.1674          0.0000          0.2168
      3548.6000          0.0411          0.0000         92.0328          0.2457          1.0000          0.1672          0.0000          0.2224
      3548.7000          0.0411          0.0000         85.0136          0.2466          1.0000          0.1666          0.0000          0.2270
      3548.8000          0.0411          0.0000         98.4115          0.2478          1.0000          0.1657          0.0000          0.2210
      3548.9000          0.0410          0.0000         88.9575          0.2490          1.0000          0.1646          0.0000          0.2270
