~Version Information
VERS.                     2.0: CWLS log ASCII Standard Version 2.00
WRAP.                      NO: One line per depth step

~Well Information Block
#MNEM.UNIT                 Value                       Information
#------------              -----                       -----------
STRT.M                    3351.600                    :START
STOP.M                    4759.200                    :STOP
STEP.M                       0.100                    :STEP
NULL.                     -999.25                     :NULL VALUE
COMP.         Statoil Petroleum AS                    :Company
WELL.         15/9-F-11 B                             :Well
FLD .         VOLVE                                   :Field
LOC .         Maersk Inspirer                         :Location
PROV.                                                 :Province
CNTY.                                                 :County
STATE.                                                 :State
CTRY.                                                 :Country
DATE.                                                 :Log Date
SRVC.                                                 :Service Company
UWI .                                                 :Unique Well Identifier
API .                                                 :API Number
LATI.         058 26' 29.960" N    DMS                :Latitude
LONG.         001 53' 14.870" E    DMS                :Longtitude
PD  .         MSL                                     :Permanent Datum
EDF .M            54.900                              :Elevations D.F.
EGL .M           -91.000                              :Elevations G.L.
ELZ .M            54.900                              :Elev. Log Zero
LMF .         DF                                      :Log Measured From

~Curve Information
#MNEM   .UNIT             API CODE Curve Description
#------------             -------- -----------------
DEPTH   .M            00 001 00 00:   0  Depth
BVW     .v/v          00 000 00 00:   1  BVW:CPI:rC:NONE:v1
CARB_FLAG.unitless    00 000 00 00:   2  CARB_FLAG:CPI:rC:NONE:v1
COAL_FLAG.unitless    00 000 00 00:   3  COAL_FLAG:CPI:rC:NONE:v1
KLOGH   .mD           00 000 00 00:   4  KLOGH:CPI:rC:NONE:v1
PHIF    .v/v          00 000 00 00:   5  PHIF:CPI:rC:NONE:v1
SAND_FLAG.UNKNOWN     00 000 00 00:   6  SAND_FLAG:CPI:rC:NONE:v1
SW      .v/v          00 000 00 00:   7  SW:CPI:rC:NONE:v1
VSH     .v/v          00 000 00 00:   8  VSH:CPI:rC:NONE:v1

~Parameter Information
#MNEM.UNIT       Value           Description
#------------    -----           -----------
RUN .         1                 :Run number

~Other Information
PETROPHYSICAL_INTERPRETATION: OUTPUT

# --- LOG MNEMONICS AND UNITS ---
#Depth     BVW        CARB_FLAG  COAL_FLAG  KLOGH      PHIF       SAND_FLAG  SW         VSH       
#M         v/v        unitless   unitless   mD         v/v        UNKNOWN    v/v        v/v       

~A
# ...
  4550.400      0.037      0.000      0.000      0.005      0.037      0.000      1.000      0.513
  4550.500      0.040      0.000      0.000      0.004      0.040      0.000      1.000      0.523
  4550.600      0.040      0.000      0.000      0.002      0.040      0.000      1.000      0.546
  4550.700      0.037      0.000      0.000      0.002      0.037      0.000      1.000      0.561
  4550.800      0.034      0.000      0.000      0.002      0.034      0.000      1.000      0.541
  4550.900      0.032      0.000      0.000      0.003      0.032      0.000      1.000      0.525
  4551.000      0.030      0.000      0.000      0.005      0.030      0.000      1.000      0.508
  4551.100      0.029      0.000      0.000      0.007      0.029      0.000      1.000      0.488
  4551.200      0.028      0.000      0.000      0.006      0.028      0.000      1.000      0.497
  4551.300      0.027      0.000      0.000      0.007      0.027      0.000      1.000      0.485
  4551.400      0.024      0.000      0.000      0.009      0.024      0.000      1.000      0.469
  4551.500      0.021      0.000      0.000      0.012      0.021      0.000      1.000      0.457
  4551.600      0.021      0.000      0.000      0.010      0.021      0.000      1.000      0.463
  4551.700      0.025      0.000      0.000      0.011      0.025      0.000      1.000      0.463
  4551.800      0.029      0.000      0.000      0.009      0.029      0.000      1.000      0.475
  4551.900      0.030      0.000      0.000      0.008      0.030      0.000      1.000      0.485
  4552.000      0.029      0.000      0.000      0.008      0.029      0.000      1.000      0.484
  4552.100      0.027      0.000      0.000      0.007      0.027      0.000      1.000      0.487
  4552.200      0.024      0.000      0.000      0.004      0.024      0.000      1.000      0.512
  4552.300      0.022      0.000      0.000      0.003      0.022      0.000      1.000      0.520
  4552.400      0.020      0.000      0.000      0.004      0.020      0.000      1.000      0.505
  4552.500      0.020      0.000      0.000      0.003      0.020      0.000      1.000      0.517
  4552.600      0.020      0.000      0.000      0.006      0.020      0.000      1.000      0.489
  4552.700      0.020      0.000      0.000      0.011      0.020      0.000      1.000      0.458
  4552.800      0.020      1.000      0.000      0.024      0.020      0.000      1.000      0.419
  4552.900      0.020      1.000      0.000      0.058      0.020      0.000      1.000      0.377
  4553.000      0.020      1.000      0.000      0.077      0.020      0.000      1.000      0.364
  4553.100      0.020      0.000      0.000      0.104      0.020      0.000      1.000      0.349
  4553.200      0.020      0.000      0.000      0.167      0.020      0.000      1.000      0.326
  4553.300      0.020      0.000      0.000      0.282      0.020      0.000      1.000      0.301
  4553.400      0.020      0.000      0.000      0.289      0.020      0.000      1.000      0.300
  4553.500      0.023      0.000      0.000      0.382      0.023      0.000      1.000      0.289
  4553.600      0.032      0.000      0.000      0.812      0.032      0.000      1.000      0.261
  4553.700      0.033      0.000      0.000      1.885      0.040      0.000      0.838      0.227
  4553.800      0.033      0.000      0.000      3.129      0.047      0.000      0.714      0.209
  4553.900      0.037      0.000      0.000     10.160      0.086      0.000      0.426      0.187
  4554.000      0.036      0.000      0.000     19.067      0.095      0.000      0.382      0.165
  4554.100      0.034      0.000      0.000     24.954      0.107      1.000      0.314      0.162
  4554.200      0.034      0.000      0.000     31.959      0.124      1.000      0.278      0.165
  4554.300      0.036      0.000      0.000     57.683      0.143      1.000      0.251      0.153
  4554.400      0.035      0.000      0.000     85.489      0.158      1.000      0.223      0.148
  4554.500      0.035      0.000      0.000     91.770      0.170      1.000      0.203      0.155
  4554.600      0.035      0.000      0.000     82.184      0.179      1.000      0.198      0.169
  4554.700      0.036      0.000      0.000     84.947      0.186      1.000      0.191      0.173
  4554.800      0.036      0.000      0.000     82.238      0.192      1.000      0.190      0.180
  4554.900      0.037      0.000      0.000     83.647      0.197      1.000      0.187      0.184
  4555.000      0.037      0.000      0.000     89.135      0.201      1.000      0.184      0.185
  4555.100      0.038      0.000      0.000    100.070      0.203      1.000      0.185      0.180
  4555.200      0.037      0.000      0.000    148.831      0.204      1.000      0.182      0.162
  4555.300      0.038      0.000      0.000    167.021      0.205      1.000      0.183      0.157
  4555.400      0.037      0.000      0.000    169.154      0.205      1.000      0.181      0.157
  4555.500      0.037      0.000      0.000    192.259      0.206      1.000      0.181      0.152
  4555.600      0.037      0.000      0.000    220.116      0.207      1.000      0.181      0.146
  4555.700      0.038      0.000      0.000    248.012      0.209      1.000      0.182      0.142
  4555.800      0.038      0.000      0.000    272.375      0.213      1.000      0.180      0.141
  4555.900      0.039      0.000      0.000    310.355      0.215      1.000      0.181      0.136
  4556.000      0.039      0.000      0.000    292.418      0.215      1.000      0.182      0.139
  4556.100      0.039      0.000      0.000    329.375      0.216      1.000      0.181      0.134
  4556.200      0.039      0.000      0.000    366.326      0.216      1.000      0.181      0.129
  4556.300      0.039      0.000      0.000    306.652      0.215      1.000      0.182      0.137
  4556.400      0.039      0.000      0.000    302.375      0.213      1.000      0.183      0.136
  4556.500      0.039      0.000      0.000    290.789      0.214      1.000      0.183      0.138
  4556.600      0.039      0.000      0.000    244.629      0.213      1.000      0.183      0.146
  4556.700      0.039      0.000      0.000    239.912      0.212      1.000      0.184      0.147
  4556.800      0.039      0.000      0.000    262.974      0.211      1.000      0.185      0.141
  4556.900      0.039      0.000      0.000    287.911      0.214      1.000      0.183      0.139
  4557.000      0.039      0.000      0.000    280.699      0.215      1.000      0.182      0.142
  4557.100      0.039      0.000      0.000    306.962      0.217      1.000      0.181      0.139
  4557.200      0.039      0.000      0.000    371.469      0.219      1.000      0.181      0.131
  4557.300      0.040      0.000      0.000    388.581      0.219      1.000      0.181      0.129
  4557.400      0.040      0.000      0.000    367.846      0.219      1.000      0.181      0.132
  4557.500      0.040      0.000      0.000    310.185      0.219      1.000      0.182      0.140
  4557.600      0.040      0.000      0.000    326.696      0.217      1.000      0.183      0.136
  4557.700      0.040      0.000      0.000    314.340      0.216      1.000      0.184      0.137
  4557.800      0.040      0.000      0.000    319.531      0.215      1.000      0.185      0.135
  4557.900      0.040      0.000      0.000    292.941      0.213      1.000      0.187      0.137
  4558.000      0.040      0.000      0.000    282.435      0.213      1.000      0.187      0.139
  4558.100      0.040      0.000      0.000    283.793      0.212      1.000      0.187      0.138
  4558.200      0.040      0.000      0.000    255.606      0.211      1.000      0.188      0.142
  4558.300      0.040      0.000      0.000    209.613      0.210      1.000      0.189      0.151
  4558.400      0.040      0.000      0.000    178.445      0.208      1.000      0.191      0.157
