~Version Information
VERS.                     2.0: CWLS log ASCII Standard Version 2.00
WRAP.                      NO: One line per depth step

~Well Information Block
#MNEM.UNIT                 Value                       Information
#------------              -----                       -----------
STRT.M                   3205.0000                    :START
STOP.M                   4093.8000                    :STOP
STEP.M                      0.1000                    :STEP
NULL.                     -999.25                     :NULL VALUE
COMP.         Statoil Petroleum                       :Company
WELL.         15/9-F-1 C                              :Well
FLD .         VOLVE                                   :Field
LOC .         Maersk Inspirer                         :Location
PROV.                                                 :Province
CNTY.                                                 :County
STATE.                                                 :State
CTRY.                                                 :Country
DATE.                                                 :Log Date
SRVC.                                                 :Service Company
UWI .                                                 :Unique Well Identifier
API .                                                 :API Number
LATI.         058 26' 29.907" N    DMS                :Latitude
LONG.         001 53' 14.708" E    DMS                :Longtitude
PD  .         MSL                                     :Permanent Datum
EDF .M                54.9000                         :Elevations D.F.
EGL .M               -91.0000                         :Elevations G.L.
ELZ .M                54.9000                         :Elev. Log Zero
LMF .         DF                                      :Log Measured From

~Curve Information
#MNEM   .UNIT             API CODE Curve Description
#------------             -------- -----------------
DEPTH   .M            00 001 00 00:   0  Depth
BADDATA_FLAG.unitless 00 000 00 00:   1  Bad Data Flag
BVW     .v/v          00 000 00 00:   2  Bulk Volume Water
COAL_FLAG.unitless    00 000 00 00:   3  Coal Flag
KLOGH   .mD           00 000 00 00:   4  Permeability
PHIF    .v/v          00 000 00 00:   5  Final Porosity
SAND_FLAG.unitless    00 000 00 00:   6  Sand Flag
SW      .v/v          00 000 00 00:   7  Water Saturation
VCARB   .v/v          00 000 00 00:   8  VCARB
VSH     .v/v          00 000 00 00:   9  Volume of Shale

~Parameter Information
#MNEM.UNIT       Value           Description
#------------    -----           -----------
RUN .         1                 :Run number

~Other Information
PETROPHYSICAL INTERPRETATION: OUTPUT

# --- LOG MNEMONICS AND UNITS ---
#Depth          BADDATA_FLAG    BVW             COAL_FLAG       KLOGH           PHIF            SAND_FLAG       SW              VCARB           VSH            
#M              unitless        v/v             unitless        mD              v/v             unitless        v/v             v/v             v/v            

~A
# ...
      3615.0000          0.0000          0.0244          0.0000       3610.4084          0.2251          1.0000          0.1084          0.0000          0.0271
      3615.1000          0.0000          0.0242          0.0000       4050.4783          0.2264          1.0000          0.1071          0.0000          0.0227
      3615.2000          0.0000          0.0245          0.0000       3761.8254          0.2283          1.0000          0.1074          0.0000          0.0279
      3615.3000          0.0000          0.0245          0.0000       4542.8125          0.2298          1.0000          0.1067          0.0000          0.0202
      3615.4000          0.0000          0.0244          0.0000       5028.2603          0.2306          1.0000          0.1060          0.0000          0.0159
      3615.5000          0.0000          0.0244          0.0000       4063.3896          0.2303          1.0000          0.1058          0.0000          0.0259
      3615.6000          0.0000          0.0245          0.0000       3825.5981          0.2296          1.0000          0.1066          0.0000          0.0282
      3615.7000          0.0000          0.0244          0.0000       3848.2329          0.2291          1.0000          0.1065          0.0000          0.0275
      3615.8000          0.0000          0.0245          0.0000       3820.1672          0.2288          1.0000          0.1072          0.0000          0.0276
      3615.9000          0.0000          0.0245          0.0000       3529.9299          0.2282          1.0000          0.1075          0.0000          0.0309
      3616.0000          0.0000          0.0248          0.0000       3058.2522          0.2268          1.0000          0.1092          0.0000          0.0366
      3616.1000          0.0000          0.0246          0.0000       3663.2827          0.2249          1.0000          0.1093          0.0000          0.0262
      3616.2000          0.0000          0.0246          0.0000       3694.9861          0.2233          1.0000          0.1102          0.0000          0.0243
      3616.3000          0.0000          0.0246          0.0000       3087.6301          0.2220          1.0000          0.1106          0.0000          0.0318
      3616.4000          0.0000          0.0247          0.0000       2543.3301          0.2209          1.0000          0.1119          0.0000          0.0402
      3616.5000          0.0000          0.0245          0.0000       3091.5459          0.2198          1.0000          0.1115          0.0000          0.0298
      3616.6000          0.0000          0.0246          0.0000       2574.3716          0.2197          1.0000          0.1121          0.0000          0.0385
      3616.7000          0.0000          0.0246          0.0000       3777.5349          0.2209          1.0000          0.1114          0.0000          0.0211
      3616.8000          0.0000          0.0245          0.0000       4531.7969          0.2233          1.0000          0.1099          0.0000          0.0145
      3616.9000          0.0000          0.0246          0.0000       4302.4834          0.2256          1.0000          0.1089          0.0000          0.0190
      3617.0000          0.0000          0.0247          0.0000       4358.3843          0.2269          1.0000          0.1088          0.0000          0.0196
      3617.1000          0.0000          0.0248          0.0000       3872.1580          0.2275          1.0000          0.1089          0.0000          0.0257
      3617.2000          0.0000          0.0246          0.0000       3876.5254          0.2282          1.0000          0.1079          0.0000          0.0263
      3617.3000          0.0000          0.0247          0.0000       3952.2373          0.2296          1.0000          0.1077          0.0000          0.0267
      3617.4000          0.0000          0.0249          0.0000       4145.2197          0.2311          1.0000          0.1076          0.0000          0.0257
      3617.5000          0.0000          0.0248          0.0000       3888.0503          0.2322          1.0000          0.1070          0.0000          0.0297
      3617.6000          0.0000          0.0248          0.0000       3544.3911          0.2321          1.0000          0.1066          0.0000          0.0342
      3617.7000          0.0000          0.0248          0.0000       3462.6899          0.2309          1.0000          0.1076          0.0000          0.0342
      3617.8000          0.0000          0.0247          0.0000       3715.8748          0.2290          1.0000          0.1080          0.0000          0.0291
      3617.9000          0.0000          0.0250          0.0000       3456.1313          0.2280          1.0000          0.1095          0.0000          0.0317
      3618.0000          0.0000          0.0249          0.0000       3170.8735          0.2287          1.0000          0.1090          0.0000          0.0365
      3618.1000          0.0000          0.0251          0.0000       3439.1323          0.2308          1.0000          0.1088          0.0000          0.0345
      3618.2000          0.0000          0.0249          0.0000       4995.8989          0.2330          1.0000          0.1068          0.0000          0.0184
      3618.3000          0.0000          0.0252          0.0000       5513.6040          0.2347          1.0000          0.1074          0.0000          0.0151
      3618.4000          0.0000          0.0252          0.0000       6089.7954          0.2361          1.0000          0.1065          0.0000          0.0116
      3618.5000          0.0000          0.0254          0.0000       6804.1738          0.2378          1.0000          0.1067          0.0000          0.0078
      3618.6000          0.0000          0.0255          0.0000       7305.8994          0.2391          1.0000          0.1066          0.0000          0.0055
      3618.7000          0.0000          0.0255          0.0000       5872.8198          0.2393          1.0000          0.1067          0.0000          0.0162
      3618.8000          0.0000          0.0258          0.0000       5293.5664          0.2389          1.0000          0.1082          0.0000          0.0208
      3618.9000          0.0000          0.0261          0.0000       5537.2988          0.2387          1.0000          0.1095          0.0000          0.0185
      3619.0000          0.0000          0.0260          0.0000       6774.5547          0.2392          1.0000          0.1087          0.0000          0.0092
      3619.1000          0.0000          0.0260          0.0000       6948.4063          0.2397          1.0000          0.1086          0.0000          0.0084
      3619.2000          0.0000          0.0264          0.0000       5437.4712          0.2397          1.0000          0.1101          0.0000          0.0203
      3619.3000          0.0000          0.0263          0.0000       5824.1709          0.2396          1.0000          0.1097          0.0000          0.0168
      3619.4000          0.0000          0.0262          0.0000       5552.5376          0.2395          1.0000          0.1096          0.0000          0.0190
      3619.5000          0.0000          0.0264          0.0000       5282.2627          0.2395          1.0000          0.1102          0.0000          0.0215
      3619.6000          0.0000          0.0261          0.0000       4355.6924          0.2393          1.0000          0.1089          0.0000          0.0306
      3619.7000          0.0000          0.0255          0.0000       4517.9404          0.2384          1.0000          0.1069          0.0000          0.0280
      3619.8000          0.0000          0.0254          0.0000       6003.2656          0.2401          1.0000          0.1056          0.0000          0.0159
      3619.9000          0.0000          0.0251          0.0000       6025.7793          0.2422          1.0000          0.1037          0.0000          0.0175
