~Version Information
VERS.                     2.0: CWLS log ASCII Standard Version 2.00
WRAP.                      NO: One line per depth step

~Well Information Block
#MNEM.UNIT                 Value                       Information
#------------              -----                       -----------
STRT.M                   3205.0000                    :START
STOP.M                   4093.8000                    :STOP
STEP.M                      0.1000                    :STEP
NULL.                     -999.25                     :NULL VALUE
COMP.         Statoil Petroleum                       :Company
WELL.         15/9-F-1 C                              :Well
FLD .         VOLVE                                   :Field
LOC .         Maersk Inspirer                         :Location
PROV.                                                 :Province
CNTY.                                                 :County
STATE.                                                 :State
CTRY.                                                 :Country
DATE.                                                 :Log Date
SRVC.                                                 :Service Company
UWI .                                                 :Unique Well Identifier
API .                                                 :API Number
LATI.         058 26' 29.907" N    DMS                :Latitude
LONG.         001 53' 14.708" E    DMS                :Longtitude
PD  .         MSL                                     :Permanent Datum
EDF .M                54.9000                         :Elevations D.F.
EGL .M               -91.0000                         :Elevations G.L.
ELZ .M                54.9000                         :Elev. Log Zero
LMF .         DF                                      :Log Measured From

~Curve Information
#MNEM   .UNIT             API CODE Curve Description
#------------             -------- -----------------
DEPTH   .M            00 001 00 00:   0  Depth
BADDATA_FLAG.unitless 00 000 00 00:   1  Bad Data Flag
BVW     .v/v          00 000 00 00:   2  Bulk Volume Water
COAL_FLAG.unitless    00 000 00 00:   3  Coal Flag
KLOGH   .mD           00 000 00 00:   4  Permeability
PHIF    .v/v          00 000 00 00:   5  Final Porosity
SAND_FLAG.unitless    00 000 00 00:   6  Sand Flag
SW      .v/v          00 000 00 00:   7  Water Saturation
VCARB   .v/v          00 000 00 00:   8  VCARB
VSH     .v/v          00 000 00 00:   9  Volume of Shale

~Parameter Information
#MNEM.UNIT       Value           Description
#------------    -----           -----------
RUN .         1                 :Run number

~Other Information
PETROPHYSICAL INTERPRETATION: OUTPUT

# --- LOG MNEMONICS AND UNITS ---
#Depth          BADDATA_FLAG    BVW             COAL_FLAG       KLOGH           PHIF            SAND_FLAG       SW              VCARB           VSH            
#M              unitless        v/v             unitless        mD              v/v             unitless        v/v             v/v             v/v            

~A
# ...
      4065.0000          0.0000          0.0714          0.0000          0.0010          0.1444          0.0000          0.4942          0.0667          0.9164
      4065.1000          0.0000          0.0711          0.0000          0.0010          0.1435          0.0000          0.4957          0.0698          0.9201
      4065.2000          0.0000          0.0700          0.0000          0.0010          0.1420          0.0000          0.4929          0.0583          0.9120
      4065.3000          0.0000          0.0679          0.0000          0.0010          0.1393          0.0000          0.4876          0.0253          0.8855
      4065.4000          0.0000          0.0662          0.0000          0.0010          0.1358          0.0000          0.4875          0.0123          0.8765
      4065.5000          0.0000          0.0670          0.0000          0.0010          0.1341          0.0000          0.4995          0.0243          0.8901
      4065.6000          0.0000          0.0677          0.0000          0.0010          0.1345          0.0000          0.5031          0.0325          0.8974
      4065.7000          0.0000          0.0692          0.0000          0.0010          0.1347          0.0000          0.5137          0.0212          0.8864
      4065.8000          0.0000          0.0683          0.0000          0.0010          0.1322          0.0000          0.5163          0.0199          0.8878
      4065.9000          0.0000          0.0673          0.0000          0.0010          0.1296          0.0000          0.5188          0.0083          0.8790
      4066.0000          0.0000          0.0657          0.0000          0.0010          0.1271          0.0000          0.5172          0.0000          0.8701
      4066.1000          0.0000          0.0648          0.0000          0.0010          0.1272          0.0000          0.5097          0.0234          0.8967
      4066.2000          0.0000          0.0639          0.0000          0.0010          0.1261          0.0000          0.5071          0.0177          0.8922
      4066.3000          0.0000          0.0582          0.0000          0.0010          0.1219          0.0000          0.4770          0.0000          0.8703
      4066.4000          0.0000          0.0542          0.0000          0.0010          0.1166          0.0000          0.4647          0.0000          0.8711
      4066.5000          0.0000          0.0528          0.0000          0.0010          0.1130          0.0000          0.4668          0.0081          0.8959
      4066.6000          0.0000          0.0519          0.0000          0.0010          0.1120          0.0000          0.4633          0.0000          0.8788
      4066.7000          0.0000          0.0502          0.0000          0.0010          0.1127          0.0000          0.4455          0.0000          0.8778
      4066.8000          0.0000          0.0505          0.0000          0.0010          0.1148          0.0000          0.4397          0.0000          0.8300
      4066.9000          0.0000          0.0506          0.0000          0.0010          0.1187          0.0000          0.4261          0.0000          0.8090
      4067.0000          0.0000          0.0509          0.0000          0.0010          0.1231          0.0000          0.4131          0.0000          0.7803
      4067.1000          0.0000          0.0508          0.0000          0.0010          0.1267          0.0000          0.4009          0.0000          0.8029
      4067.2000          0.0000          0.0521          0.0000          0.0010          0.1286          0.0000          0.4050          0.0000          0.8356
      4067.3000          0.0000          0.0544          0.0000          0.0010          0.1296          0.0000          0.4202          0.0017          0.8722
      4067.4000          0.0000          0.0537          0.0000          0.0010          0.1305          0.0000          0.4116          0.0262          0.8958
      4067.5000          0.0000         -999.25          0.0000         -999.25         -999.25          0.0000         -999.25         -999.25          0.8742
      4067.6000          0.0000         -999.25          0.0000         -999.25         -999.25          0.0000         -999.25         -999.25          0.8919
      4067.7000          0.0000         -999.25          0.0000         -999.25         -999.25          0.0000         -999.25         -999.25          0.9089
      4067.8000          0.0000         -999.25          0.0000         -999.25         -999.25          0.0000         -999.25         -999.25          0.9033
      4067.9000          0.0000         -999.25          0.0000         -999.25         -999.25          0.0000         -999.25         -999.25          0.9058
      4068.0000          0.0000         -999.25          0.0000         -999.25         -999.25          0.0000         -999.25         -999.25          0.9271
      4068.1000          0.0000         -999.25          0.0000         -999.25         -999.25          0.0000         -999.25         -999.25          0.9423
      4068.2000          0.0000         -999.25          0.0000         -999.25         -999.25          0.0000         -999.25         -999.25          0.9348
      4068.3000          0.0000         -999.25          0.0000         -999.25         -999.25          0.0000         -999.25         -999.25          0.8958
      4068.4000          0.0000         -999.25          0.0000         -999.25         -999.25          0.0000         -999.25         -999.25          0.8790
      4068.5000          0.0000         -999.25          0.0000         -999.25         -999.25          0.0000         -999.25         -999.25          0.8890
      4068.6000          0.0000         -999.25          0.0000         -999.25         -999.25          0.0000         -999.25         -999.25          0.9246
      4068.7000          0.0000         -999.25          0.0000         -999.25         -999.25          0.0000         -999.25         -999.25          0.9496
      4068.8000          0.0000         -999.25          0.0000         -999.25         -999.25          0.0000         -999.25         -999.25          0.9694
      4068.9000          0.0000         -999.25          0.0000         -999.25         -999.25          0.0000         -999.25         -999.25          0.9646
      4069.0000          0.0000         -999.25          0.0000         -999.25         -999.25          0.0000         -999.25         -999.25          0.9586
      4069.1000          0.0000         -999.25          0.0000         -999.25         -999.25          0.0000         -999.25         -999.25          0.9137
      4069.2000          0.0000         -999.25          0.0000         -999.25         -999.25          0.0000         -999.25         -999.25          0.9133
      4069.3000          0.0000         -999.25          0.0000         -999.25         -999.25          0.0000         -999.25         -999.25          0.9289
      4069.4000          0.0000         -999.25          0.0000         -999.25         -999.25          0.0000         -999.25         -999.25          0.9493
      4069.5000          0.0000         -999.25          0.0000         -999.25         -999.25          0.0000         -999.25         -999.25          0.9389
      4069.6000          0.0000         -999.25          0.0000         -999.25         -999.25          0.0000         -999.25         -999.25          0.9246
      4069.7000          0.0000         -999.25          0.0000         -999.25         -999.25          0.0000         -999.25         -999.25          0.9109
      4069.8000          0.0000         -999.25          0.0000         -999.25         -999.25          0.0000         -999.25         -999.25          0.9312
      4069.9000          0.0000         -999.25          0.0000         -999.25         -999.25          0.0000         -999.25         -999.25          0.9715
