~Version Information
VERS.                     2.0: CWLS log ASCII Standard Version 2.00
WRAP.                      NO: One line per depth step

~Well Information Block
#MNEM.UNIT                 Value                       Information
#------------              -----                       -----------
STRT.M                    3351.600                    :START
STOP.M                    4759.200                    :STOP
STEP.M                       0.100                    :STEP
NULL.                     -999.25                     :NULL VALUE
COMP.         Statoil Petroleum AS                    :Company
WELL.         15/9-F-11 B                             :Well
FLD .         VOLVE                                   :Field
LOC .         Maersk Inspirer                         :Location
PROV.                                                 :Province
CNTY.                                                 :County
STATE.                                                 :State
CTRY.                                                 :Country
DATE.                                                 :Log Date
SRVC.                                                 :Service Company
UWI .                                                 :Unique Well Identifier
API .                                                 :API Number
LATI.         058 26' 29.960" N    DMS                :Latitude
LONG.         001 53' 14.870" E    DMS                :Longtitude
PD  .         MSL                                     :Permanent Datum
EDF .M            54.900                              :Elevations D.F.
EGL .M           -91.000                              :Elevations G.L.
ELZ .M            54.900                              :Elev. Log Zero
LMF .         DF                                      :Log Measured From

~Curve Information
#MNEM   .UNIT             API CODE Curve Description
#------------             -------- -----------------
DEPTH   .M            00 001 00 00:   0  Depth
BVW     .v/v          00 000 00 00:   1  BVW:CPI:rC:NONE:v1
CARB_FLAG.unitless    00 000 00 00:   2  CARB_FLAG:CPI:rC:NONE:v1
COAL_FLAG.unitless    00 000 00 00:   3  COAL_FLAG:CPI:rC:NONE:v1
KLOGH   .mD           00 000 00 00:   4  KLOGH:CPI:rC:NONE:v1
PHIF    .v/v          00 000 00 00:   5  PHIF:CPI:rC:NONE:v1
SAND_FLAG.UNKNOWN     00 000 00 00:   6  SAND_FLAG:CPI:rC:NONE:v1
SW      .v/v          00 000 00 00:   7  SW:CPI:rC:NONE:v1
VSH     .v/v          00 000 00 00:   8  VSH:CPI:rC:NONE:v1

~Parameter Information
#MNEM.UNIT       Value           Description
#------------    -----           -----------
RUN .         1                 :Run number

~Other Information
PETROPHYSICAL_INTERPRETATION: OUTPUT

# --- LOG MNEMONICS AND UNITS ---
#Depth     BVW        CARB_FLAG  COAL_FLAG  KLOGH      PHIF       SAND_FLAG  SW         VSH       
#M         v/v        unitless   unitless   mD         v/v        UNKNOWN    v/v        v/v       

~A
# ...
  3440.700      0.086      0.000      0.000      0.596      0.086      0.000      1.000      0.324
  3440.800      0.091      0.000      0.000      0.882      0.091      0.000      1.000      0.309
  3440.900      0.096      0.000      0.000      1.000      0.096      0.000      1.000      0.308
  3441.000      0.097      0.000      0.000      1.183      0.100      0.000      0.976      0.303
  3441.100      0.097      0.000      0.000      1.416      0.103      0.000      0.949      0.297
  3441.200      0.099      0.000      0.000      2.262      0.106      0.000      0.929      0.277
  3441.300      0.099      0.000      0.000      2.965      0.111      0.000      0.897      0.268
  3441.400      0.099      0.000      0.000      3.225      0.115      0.000      0.863      0.268
  3441.500      0.099      0.000      0.000      3.177      0.116      0.000      0.853      0.269
  3441.600      0.099      0.000      0.000      3.967      0.115      0.000      0.859      0.258
  3441.700      0.099      0.000      0.000      3.078      0.114      0.000      0.866      0.269
  3441.800      0.099      0.000      0.000      2.776      0.116      0.000      0.852      0.276
  3441.900      0.099      0.000      0.000      2.194      0.120      0.000      0.824      0.291
  3442.000      0.098      0.000      0.000      3.441      0.127      0.000      0.774      0.275
  3442.100      0.098      0.000      0.000      4.693      0.134      0.000      0.729      0.267
  3442.200      0.099      0.000      0.000      5.660      0.141      0.000      0.701      0.264
  3442.300      0.099      0.000      0.000      6.242      0.144      0.000      0.683      0.262
  3442.400      0.098      0.000      0.000      7.311      0.144      0.000      0.686      0.254
  3442.500      0.098      0.000      0.000      6.325      0.139      0.000      0.705      0.257
  3442.600      0.098      0.000      0.000      5.890      0.134      0.000      0.731      0.256
  3442.700      0.098      0.000      0.000      4.380      0.130      0.000      0.751      0.267
  3442.800      0.098      0.000      0.000      3.856      0.126      0.000      0.780      0.269
  3442.900      0.094      0.000      0.000      5.176      0.119      0.000      0.784      0.249
  3443.000      0.092      0.000      0.000      4.131      0.110      0.000      0.833      0.252
  3443.100      0.093      0.000      0.000      4.029      0.102      0.000      0.905      0.246
  3443.200      0.094      0.000      0.000      4.103      0.100      0.000      0.936      0.243
  3443.300      0.095      0.000      0.000      4.221      0.103      0.000      0.924      0.244
  3443.400      0.092      0.000      0.000      3.451      0.107      0.000      0.863      0.257
  3443.500      0.088      0.000      0.000      3.091      0.108      0.000      0.808      0.264
  3443.600      0.085      0.000      0.000      3.282      0.107      0.000      0.794      0.260
  3443.700      0.085      0.000      0.000      3.606      0.105      0.000      0.812      0.254
  3443.800      0.085      0.000      0.000      2.918      0.105      0.000      0.806      0.264
  3443.900      0.084      0.000      0.000      3.550      0.108      0.000      0.784      0.257
  3444.000      0.084      0.000      0.000      4.195      0.114      0.000      0.733      0.255
  3444.100      0.085      0.000      0.000      4.243      0.123      0.000      0.688      0.262
  3444.200      0.081      0.000      0.000      6.031      0.133      0.000      0.611      0.254
  3444.300      0.077      0.000      0.000      9.244      0.141      0.000      0.545      0.240
  3444.400      0.075      0.000      0.000      8.518      0.144      0.000      0.521      0.247
  3444.500      0.073      0.000      0.000      8.559      0.142      0.000      0.512      0.245
  3444.600      0.071      0.000      0.000      7.205      0.134      0.000      0.527      0.246
  3444.700      0.069      0.000      0.000      6.619      0.123      0.000      0.559      0.240
  3444.800      0.068      0.000      0.000      5.266      0.112      0.000      0.608      0.242
  3444.900      0.068      0.000      0.000      4.859      0.106      0.000      0.644      0.240
  3445.000      0.069      0.000      0.000      6.031      0.106      0.000      0.655      0.230
  3445.100      0.069      0.000      0.000      6.721      0.109      0.000      0.634      0.227
  3445.200      0.073      0.000      0.000      6.105      0.109      0.000      0.664      0.232
  3445.300      0.072      0.000      0.000      5.662      0.104      0.000      0.694      0.231
  3445.400      0.074      0.000      0.000      6.411      0.095      0.000      0.775      0.217
  3445.500      0.074      0.000      0.000      7.829      0.085      0.000      0.869      0.199
  3445.600      0.072      0.000      0.000      6.590      0.079      0.000      0.919      0.201
  3445.700      0.072      0.000      0.000      5.278      0.079      0.000      0.906      0.212
  3445.800      0.073      0.000      0.000      6.369      0.085      0.000      0.864      0.208
  3445.900      0.073      0.000      0.000      8.196      0.090      0.000      0.814      0.200
  3446.000      0.073      0.000      0.000      7.997      0.093      0.000      0.780      0.205
  3446.100      0.073      0.000      0.000      7.714      0.096      0.000      0.759      0.209
  3446.200      0.079      0.000      0.000      6.950      0.100      0.000      0.788      0.217
  3446.300      0.091      0.000      0.000      8.577      0.103      0.000      0.886      0.210
  3446.400      0.085      0.000      0.000      8.657      0.098      0.000      0.858      0.206
  3446.500      0.073      0.000      0.000      7.725      0.088      0.000      0.830      0.201
  3446.600      0.076      0.000      0.000      7.075      0.077      0.000      0.987      0.196
  3446.700      0.076      0.000      0.000      6.478      0.076      0.000      1.000      0.199
  3446.800      0.085      0.000      0.000      8.413      0.085      0.000      1.000      0.195
  3446.900      0.096      0.000      0.000      9.861      0.096      0.000      1.000      0.197
  3447.000      0.082      0.000      0.000     12.433      0.101      0.000      0.811      0.190
  3447.100      0.074      0.000      0.000      8.532      0.098      0.000      0.756      0.206
  3447.200      0.073      0.000      0.000      9.237      0.092      0.000      0.794      0.197
  3447.300      0.072      0.000      0.000     11.280      0.087      0.000      0.828      0.182
  3447.400      0.073      0.000      0.000      9.076      0.085      0.000      0.858      0.192
  3447.500      0.070      0.000      0.000      8.705      0.088      0.000      0.799      0.196
  3447.600      0.064      0.000      0.000     10.997      0.092      0.000      0.701      0.188
  3447.700      0.063      0.000      0.000      9.546      0.094      0.000      0.667      0.197
  3447.800      0.059      0.000      0.000      6.632      0.095      0.000      0.623      0.215
  3447.900      0.046      0.000      0.000      8.364      0.096      0.000      0.486      0.205
  3448.000      0.078      0.000      0.000      8.865      0.097      0.000      0.803      0.204
  3448.100      0.075      0.000      0.000     11.909      0.100      0.000      0.747      0.191
  3448.200      0.073      0.000      0.000     12.105      0.100      0.000      0.722      0.191
  3448.300      0.072      0.000      0.000      9.571      0.098      0.000      0.734      0.200
  3448.400      0.071      0.000      0.000      8.145      0.093      0.000      0.762      0.204
  3448.500      0.072      0.000      0.000      7.558      0.088      0.000      0.812      0.203
  3448.600      0.072      0.000      0.000      6.869      0.088      0.000      0.822      0.207
  3448.700      0.073      0.000      0.000      7.863      0.093      0.000      0.785      0.205
