~Version Information
VERS.                     2.0: CWLS log ASCII Standard Version 2.00
WRAP.                      NO: One line per depth step

~Well Information Block
#MNEM.UNIT                 Value                       Information
#------------              -----                       -----------
STRT.M                   3465.0000                    :START
STOP.M                   4684.7000                    :STOP
STEP.M                      0.1000                    :STEP
NULL.                     -999.25                     :NULL VALUE
COMP.         STATOIL PETROLEUM AS                    :Company
WELL.         15/9-F-15 D                             :Well
FLD .         VOLVE                                   :Field
LOC .                                                 :Location
PROV.                                                 :Province
CNTY.         MAERSK INSPIRER                         :County
STATE.                                                 :State
CTRY.         NORWAY                                  :Country
DATE.                                                 :Log Date
SRVC.                                                 :Service Company
UWI .                                                 :Unique Well Identifier
API .                                                 :API Number
LATI.         058 26' 29.706" N    DMS                :Latitude
LONG.         001 53' 15.149" E    DMS                :Longtitude
PD  .         MSL                                     :Permanent Datum
EDF .M                54.9000                         :Elevations D.F.
EGL .M               -91.0000                         :Elevations G.L.
ELZ .M                54.9000                         :Elev. Log Zero
LMF .         DF                                      :Log Measured From
MP  .         DF                                      :Drill Measured From

~Curve Information
#MNEM   .UNIT             API CODE Curve Description
#------------             -------- -----------------
DEPTH   .M            00 001 00 00:   0  Depth
BVW     .v/v          00 000 00 00:   1  BVW:CPI:rC:0001:v1
COAL_FLAG.unitless    00 000 00 00:   2  COAL_FLAG:CPI:rC:0001:v1
KLOGH   .mD           00 000 00 00:   3  KLOGH:CPI:rC:0001:v1
PHIF    .v/v          00 000 00 00:   4  PHIF:CPI:rC:0001:v1
SAND_FLAG.unitless    00 000 00 00:   5  SAND_FLAG:CPI:rC:0001:v1
SW      .v/v          00 000 00 00:   6  SW:CPI:rC:0001:v1
VCARB   .v/v          00 000 00 00:   7  VCARB:CPI:rC:0001:v1
VSH     .v/v          00 000 00 00:   8  VSH:CPI:rC:0001:v1

~Parameter Information
#MNEM.UNIT       Value           Description
#------------    -----           -----------
RUN .         .                 :Run Number

~Other Information
PETROPHYSICAL INTERPRETATION: OUTPUT

# --- LOG MNEMONICS AND UNITS ---
#Depth          BVW             COAL_FLAG       KLOGH           PHIF            SAND_FLAG       SW              VCARB           VSH            
#M              v/v             unitless        mD              v/v             unitless        v/v             v/v             v/v            

~A
# ...
      4495.4000          0.0452          0.0000         22.2978          0.1351          1.0000          0.3344          0.0242          0.1925
      4495.5000          0.0445          0.0000         18.1467          0.1344          1.0000          0.3310          0.0166          0.2019
      4495.6000          0.0432          0.0000         16.5536          0.1345          1.0000          0.3211          0.0117          0.2064
      4495.7000          0.0439          0.0000         13.6125          0.1354          1.0000          0.3244          0.0000          0.2166
      4495.8000          0.0453          0.0000         14.8135          0.1375          1.0000          0.3291          0.0000          0.2144
      4495.9000          0.0460          0.0000         16.5347          0.1413          1.0000          0.3255          0.0000          0.2124
      4496.0000          0.0463          0.0000         14.8812          0.1435          1.0000          0.3225          0.0000          0.2195
      4496.1000          0.0468          0.0000         12.1124          0.1437          1.0000          0.3261          0.0000          0.2296
      4496.2000          0.0465          0.0000         16.1242          0.1415          1.0000          0.3284          0.0000          0.2138
      4496.3000          0.0463          0.0000         17.4195          0.1384          1.0000          0.3343          0.0000          0.2073
      4496.4000          0.0458          0.0000         22.5583          0.1354          1.0000          0.3381          0.0235          0.1922
      4496.5000          0.0448          0.0000         25.7287          0.1322          1.0000          0.3387          0.0442          0.1830
      4496.6000          0.0452          0.0000         22.3385          0.1313          1.0000          0.3446          0.0409          0.1890
      4496.7000          0.0445          0.0000         18.2260          0.1302          1.0000          0.3422          0.0352          0.1979
      4496.8000          0.0444          0.0000         16.5070          0.1319          1.0000          0.3367          0.0225          0.2042
      4496.9000          0.0452          0.0000         16.8816          0.1329          1.0000          0.3404          0.0197          0.2040
      4497.0000          0.0453          0.0000         21.5018          0.1318          1.0000          0.3440          0.0367          0.1913
      4497.1000          0.0451          0.0000         22.3546          0.1303          1.0000          0.3462          0.0453          0.1881
      4497.2000          0.0450          0.0000         19.3512          0.1273          1.0000          0.3536          0.0510          0.1924
      4497.3000          0.0448          0.0000         20.0699          0.1260          1.0000          0.3558          0.0587          0.1895
      4497.4000          0.0453          0.0000         21.1067          0.1244          1.0000          0.3640          0.0685          0.1857
      4497.5000          0.0435          0.0000         19.0429          0.1203          1.0000          0.3615          0.0818          0.1870
      4497.6000          0.0398          0.0000         16.4057          0.1125          1.0000          0.3537          0.1098          0.1872
      4497.7000          0.0393          0.0000         16.4095          0.1034          1.0000          0.3798          0.1537          0.1791
      4497.8000          0.0387          0.0000         12.8048          0.0937          0.0000          0.4130          0.1868          0.1824
      4497.9000          0.0399          0.0000          9.0960          0.0865          0.0000          0.4613          0.2007          0.1926
      4498.0000          0.0390          0.0000          7.1626          0.0779          0.0000          0.5012          0.2293          0.1964
      4498.1000          0.0379          0.0000          7.1058          0.0697          0.0000          0.5442          0.2718          0.1896
      4498.2000          0.0275          0.0000          2.9790          0.0275          0.0000          1.0000          0.4447          0.1940
      4498.3000          0.0210          0.0000          2.7556          0.0210          0.0000          1.0000          0.4776          0.1920
      4498.4000          0.0200          0.0000          3.0923          0.0200          0.0000          1.0000          0.4939          0.1855
      4498.5000          0.0200          0.0000          2.8518          0.0200          0.0000          1.0000          0.4869          0.1894
      4498.6000          0.0200          0.0000          2.4193          0.0200          0.0000          1.0000          0.4727          0.1974
      4498.7000          0.0200          0.0000          1.4924          0.0200          0.0000          1.0000          0.4320          0.2207
      4498.8000          0.0200          0.0000          1.3629          0.0200          0.0000          1.0000          0.4246          0.2251
      4498.9000          0.0200          0.0000          1.2244          0.0200          0.0000          1.0000          0.4159          0.2302
      4499.0000          0.0200          0.0000          1.0685          0.0200          0.0000          1.0000          0.4049          0.2368
      4499.1000          0.0200          0.0000          0.7802          0.0200          0.0000          1.0000          0.3801          0.2520
      4499.2000          0.0200          0.0000          0.6138          0.0200          0.0000          1.0000          0.3616          0.2636
      4499.3000          0.0200          0.0000          0.6801          0.0200          0.0000          1.0000          0.3694          0.2586
      4499.4000          0.0200          0.0000          0.3940          0.0200          0.0000          1.0000          0.3285          0.2849
      4499.5000          0.0200          0.0000          0.3636          0.0200          0.0000          1.0000          0.3226          0.2888
      4499.6000          0.0200          0.0000          0.3251          0.0200          0.0000          1.0000          0.3145          0.2942
      4499.7000          0.0200          0.0000          0.1969          0.0200          0.0000          1.0000          0.2794          0.3184
      4499.8000          0.0200          0.0000          0.2384          0.0200          0.0000          1.0000          0.2926          0.3092
      4499.9000          0.0200          0.0000          0.2163          0.0200          0.0000          1.0000          0.2859          0.3139
      4500.0000          0.0200          0.0000          0.1572          0.0200          0.0000          1.0000          0.2642          0.3293
      4500.1000          0.0200          0.0000          0.1027          0.0200          0.0000          1.0000          0.2365          0.3498
      4500.2000          0.0200          0.0000          0.0881          0.0200          0.0000          1.0000          0.2268          0.3572
      4500.3000          0.0200          0.0000          0.0894          0.0200          0.0000          1.0000          0.2277          0.3565
      4500.4000          0.0200          0.0000          0.0860          0.0200          0.0000          1.0000          0.2253          0.3584
      4500.5000          0.0200          0.0000          0.0731          0.0200          0.0000          1.0000          0.2152          0.3662
      4500.6000          0.0200          0.0000          0.0594          0.0200          0.0000          1.0000          0.2027          0.3762
      4500.7000          0.0200          0.0000          0.0521          0.0200          0.0000          1.0000          0.1948          0.3826
      4500.8000          0.0200          0.0000          0.0725          0.0200          0.0000          1.0000          0.2147          0.3666
      4500.9000          0.0200          0.0000          0.0499          0.0200          0.0000          1.0000          0.1923          0.3847
