~Version Information
VERS.                     2.0: CWLS log ASCII Standard Version 2.00
WRAP.                      NO: One line per depth step

~Well Information Block
#MNEM.UNIT                 Value                       Information
#------------              -----                       -----------
STRT.M                     188.500                    :START
STOP.M                     346.700                    :STOP
STEP.M                       0.100                    :STEP
NULL.                     -999.25                     :NULL VALUE
COMP.         STATOIL PETRPOLEUM AS                   :Company
WELL.         15/9-F-11                               :Well
FLD .         VOLVE                                   :Field
LOC .         Maersk Inspirer                         :Location
PROV.                                                 :Province
CNTY.                                                 :County
STATE.                                                 :State
CTRY.         Norway                                  :Country
DATE.                                                 :Log Date
SRVC.                                                 :Service Company
UWI .                                                 :Unique Well Identifier
API .                                                 :API Number
LATI.         058 26' 29.960" N    DMS                :Latitude
LONG.         001 53' 14.870" E    DMS                :Longtitude
PD  .         MSL                                     :Permanent Datum
EDF .M            54.900                              :Elevations D.F.
EGL .M           -91.000                              :Elevations G.L.
WD  .M           -91.000                              :Water Depth
ELZ .M            54.900                              :Elev. Log Zero

~Curve Information
#MNEM   .UNIT             API CODE Curve Description
#------------             -------- -----------------
DEPTH   .M            00 001 00 00:   0  Depth
BS      .inches       00 000 00 00:   1  BS:COMPOSITE:rC:NONE:v1
GR      .API          30 150 01 01:   2  GR:COMPOSITE:rC:NONE:v1
RACEHM  .ohm.m        95 220 00 01:   3  RACEHM:COMPOSITE:rC:NONE:v1
RACELM  .ohm.m        00 524 01 00:   4  RACELM:COMPOSITE:rC:NONE:v1
RD      .ohm.m        00 000 00 00:   5  RD:COMPOSITE:rC:NONE:v1
RM      .ohm.m        00 000 00 00:   6  RM:COMPOSITE:rC:NONE:v1
ROP     .m/hr         00 000 00 00:   7  ROP:COMPOSITE:rC:NONE:v1
RPCEHM  .ohm.m        00 000 00 00:   8  RPCEHM:COMPOSITE:rC:NONE:v1
RPCELM  .ohm.m        00 000 00 00:   9  RPCELM:COMPOSITE:rC:NONE:v1
RT      .ohm.m        00 000 00 00:  10  RT:COMPOSITE:rC:NONE:v1

~Parameter Information
#MNEM.UNIT       Value           Description
#------------    -----           -----------
RUN .         1                 :Run number

~Other Information
PETROPHYSICAL INTERPRETATION: INPUT

# --- LOG MNEMONICS AND UNITS ---
#Depth     BS         GR         RACEHM     RACELM     RD         RM         ROP        RPCEHM     RPCELM     RT        
#M         inches     API        ohm.m      ohm.m      ohm.m      ohm.m      m/hr       ohm.m      ohm.m      ohm.m     

~A
# ...
   275.600     26.000     20.900      1.100      1.176      1.198      1.168      9.217      1.168      1.198      1.168
   275.700     26.000     22.100      1.058      1.144      1.150      1.138      9.017      1.138      1.150      1.138
   275.800     26.000     22.400      1.053      1.151      1.173      1.111      8.925      1.111      1.173      1.111
   275.900     26.000     22.700      1.148      1.167      1.215      1.147      8.833      1.147      1.215      1.147
   276.000     26.000     21.200      1.061      1.186      1.148      1.143      8.741      1.143      1.148      1.143
   276.100     26.000     20.600      1.102      1.173      1.158      1.067      8.655      1.067      1.158      1.067
   276.200     26.000     20.500      1.150      1.173      1.157      1.150      8.569      1.150      1.157      1.150
   276.300     26.000     20.600      1.074      1.199      1.218      1.134      8.483      1.134      1.218      1.134
   276.400     26.000     23.800      1.093      1.190      1.192      1.174      8.642      1.174      1.192      1.174
   276.500     26.000     24.900      1.123      1.222      1.194      1.263      8.801      1.263      1.194      1.263
   276.600     26.000     26.000      1.102      1.182      1.196      1.208      8.960      1.208      1.196      1.208
   276.700     26.000     25.900      1.104      1.203      1.183      1.165      9.080      1.165      1.183      1.165
   276.800     26.000     23.400      1.110      1.183      1.215      1.141      9.200      1.141      1.215      1.141
   276.900     26.000     25.200      1.116      1.162      1.247      1.117      9.320      1.117      1.247      1.117
   277.000     26.000     30.300      1.154      1.168      1.208      1.187      9.381      1.187      1.208      1.187
   277.100     26.000     29.900      1.162      1.200      1.245      1.161      9.442      1.161      1.245      1.161
   277.200     26.000     27.400      1.133      1.178      1.197      1.115      9.503      1.115      1.197      1.115
   277.300     26.000     28.800      1.104      1.155      1.149      1.070      9.603      1.070      1.149      1.070
   277.400     26.000     33.000      1.076      1.132      1.111      1.055      9.702      1.055      1.111      1.055
   277.500     26.000     32.100      1.085      1.127      1.105      1.098      9.802      1.098      1.105      1.098
   277.600     26.000     29.000      1.094      1.123      1.099      1.141      9.892      1.141      1.099      1.141
   277.700     26.000     29.500      1.041      1.130      1.153      1.087      9.982      1.087      1.153      1.087
   277.800     26.000     30.400      1.042      1.115      1.120      1.082     10.072      1.082      1.120      1.082
   277.900     26.000     32.000      1.043      1.100      1.087      1.077     10.128      1.077      1.087      1.077
   278.000     26.000     34.200      1.080      1.109      1.065      1.125     10.184      1.125      1.066      1.125
   278.100     26.000     36.400      1.116      1.118      1.044      1.173     10.239      1.173      1.044      1.173
   278.200     26.000     35.500      1.125      1.110      1.098      1.137     10.281      1.137      1.098      1.137
   278.300     26.000     34.400      1.133      1.102      1.153      1.100     10.322      1.100      1.153      1.100
   278.400     26.000     35.600      1.163      1.107      1.162      1.126     10.364      1.126      1.162      1.126
   278.500     26.000     34.500      1.193      1.111      1.170      1.152     10.433      1.152      1.170      1.152
   278.600     26.000     34.400      1.192      1.108      1.174      1.153     10.502      1.153      1.174      1.153
   278.700     26.000     31.500      1.191      1.104      1.177      1.153     10.571      1.153      1.177      1.153
   278.800     26.000     26.900      1.207      1.107      1.174      1.148     10.634      1.148      1.174      1.148
   278.900     26.000     27.400      1.223      1.109      1.171      1.142     10.696      1.142      1.171      1.142
   279.000     26.000     28.800      1.221      1.107      1.174      1.162     10.759      1.162      1.174      1.162
   279.100     26.000     30.000      1.219      1.105      1.176      1.183     10.868      1.183      1.176      1.183
   279.200     26.000     31.700      1.226      1.102      1.179      1.193     10.976      1.193      1.179      1.193
   279.300     26.000     33.000      1.234      1.099      1.183      1.203     11.085      1.203      1.183      1.203
   279.400     26.000     34.400      1.221      1.100      1.196      1.191     11.185      1.191      1.196      1.191
   279.500     26.000     35.800      1.208      1.100      1.210      1.179     11.285      1.179      1.210      1.179
   279.600     26.000     35.400      1.209      1.094      1.182      1.177     11.386      1.177      1.182      1.177
   279.700     26.000     34.800      1.211      1.089      1.154      1.176     11.405      1.176      1.154      1.176
   279.800     26.000     34.800      1.203      1.085      1.150      1.192     11.425      1.192      1.150      1.192
   279.900     26.000     36.000      1.195      1.082      1.147      1.209     11.444      1.209      1.147      1.209
   280.000     26.000     38.400      1.179      1.077      1.161      1.216     11.397      1.216      1.161      1.216
   280.100     26.000     38.500      1.163      1.071      1.174      1.223     11.350      1.223      1.174      1.223
   280.200     26.000     40.300      1.159      1.074      1.148      1.147     11.303      1.147      1.148      1.147
   280.300     26.000     40.900      1.174      1.062      1.109      1.124     11.199      1.125      1.109      1.124
   280.400     26.000     39.500      1.189      1.049      1.069      1.102     11.095      1.102      1.069      1.102
   280.500     26.000     40.500      1.157      1.051      1.099      1.050     10.991      1.050      1.099      1.050
   280.600     26.000     40.100      1.158      1.032      1.071      1.057     10.898      1.057      1.071      1.057
   280.700     26.000     39.700      1.148      1.036      1.132      1.003     10.804      1.003      1.132      1.003
   280.800     26.000     40.900      1.139      1.013      1.005      1.155     10.711      1.155      1.005      1.155
   280.900     26.000     40.700      1.107      1.019      1.105      1.204     10.798      1.204      1.105      1.204
   281.000     26.000     42.600      1.102      1.002      1.133      1.210     10.885      1.209      1.133      1.210
   281.100     26.000     42.600      1.065      1.011      1.138      1.249     10.972      1.249      1.138      1.249
   281.200     26.000     45.000      1.081      0.997      1.187      1.238     11.075      1.237      1.187      1.238
   281.300     26.000     45.300      1.079      0.985      1.017      1.253     11.178      1.253      1.017      1.253
   281.400     26.000     44.200      1.055      0.973      1.075      1.177     11.281      1.177      1.075      1.177
   281.500     26.000     42.500      1.042      0.964      1.022      1.042      9.535      1.042      1.022      1.042
   281.600     26.000     41.300      1.010      0.983      1.061      0.989      7.789      0.989      1.061      0.989
   281.700     26.000     42.000      1.008      0.922      0.912      0.930      6.043      0.930      0.912      0.930
   281.800     26.000     43.800      0.945      0.936      0.881      0.897      5.065      0.897      0.881      0.897
   281.900     26.000     45.900      0.879      0.939      0.928      0.930      4.086      0.930      0.928      0.930
   282.000     26.000     45.300      0.939      0.947      0.920      0.931      3.108      0.931      0.920      0.931
   282.100     26.000     42.600      0.863      0.935      0.979      0.833      4.551      0.833      0.979      0.833
   282.200     26.000     41.400      0.938      0.924      0.943      0.817      5.994      0.817      0.943      0.817
