~Version Information
VERS.                     2.0: CWLS log ASCII Standard Version 2.00
WRAP.                      NO: One line per depth step

~Well Information Block
#MNEM.UNIT                 Value                       Information
#------------              -----                       -----------
STRT.M                    4334.700                    :START
STOP.M                    4561.700                    :STOP
STEP.M                       0.100                    :STEP
NULL.                     -999.25                     :NULL VALUE
COMP.         Statoil Petroleum AS                    :Company
WELL.         15/9-F-11 T2                            :Well
FLD .         VOLVE                                   :Field
LOC .                                                 :Location
PROV.                                                 :Province
CNTY.                                                 :County
STATE.                                                 :State
CTRY.         Norway                                  :Country
DATE.                                                 :Log Date
SRVC.                                                 :Service Company
UWI .                                                 :Unique Well Identifier
API .                                                 :API Number
PD  .         MSL                                     :Permanent Datum
EDF .M            54.900                              :Elevations D.F.
EGL .M           -91.000                              :Elevations G.L.
ELZ .M            54.900                              :Elev. Log Zero
LMF .         DF                                      :Log Measured From

~Curve Information
#MNEM   .UNIT             API CODE Curve Description
#------------             -------- -----------------
DEPTH   .M            00 001 00 00:   0  Depth
BVW     .v/v          00 000 00 00:   1  BVW:CPI:rC:NONE:v1
CARB_FLAG.unitless    00 000 00 00:   2  CARB_FLAG:CPI:rC:NONE:v1
COAL_FLAG.unitless    00 000 00 00:   3  COAL_FLAG:CPI:rC:NONE:v1
KLOGH   .mD           00 000 00 00:   4  KLOGH:CPI:rC:NONE:v1
PHIF    .v/v          00 000 00 00:   5  PHIF:CPI:rC:NONE:v1
SAND_FLAG.unitless    00 000 00 00:   6  SAND_FLAG:CPI:rC:NONE:v1
SW      .v/v          00 000 00 00:   7  SW:CPI:rC:NONE:v1
VSH     .v/v          00 000 00 00:   8  VSH:CPI:rC:NONE:v1

~Parameter Information
#MNEM.UNIT       Value           Description
#------------    -----           -----------
RUN .         1                 :Run number

~Other Information
PETROPHYSICAL INTERPRETATION: OUTPUT

# --- LOG MNEMONICS AND UNITS ---
#Depth     BVW        CARB_FLAG  COAL_FLAG  KLOGH      PHIF       SAND_FLAG  SW         VSH       
#M         v/v        unitless   unitless   mD         v/v        unitless   v/v        v/v       

~A
# ...
  4350.900      0.107      0.000      0.000      0.001      0.107      0.000      1.000      0.860
  4351.000      0.109      0.000      0.000      0.001      0.109      0.000      1.000      0.836
  4351.100      0.111      0.000      0.000      0.001      0.111      0.000      1.000      0.828
  4351.200      0.111      0.000      0.000      0.001      0.111      0.000      0.992      0.816
  4351.300      0.110      0.000      0.000      0.001      0.110      0.000      1.000      0.802
  4351.400      0.106      0.000      0.000      0.001      0.106      0.000      1.000      0.788
  4351.500      0.101      0.000      0.000      0.001      0.101      0.000      1.000      0.783
  4351.600      0.095      0.000      0.000      0.001      0.095      0.000      1.000      0.775
  4351.700      0.089      0.000      0.000      0.001      0.089      0.000      1.000      0.763
  4351.800      0.085      0.000      0.000      0.001      0.085      0.000      1.000      0.771
  4351.900      0.082      0.000      0.000      0.001      0.082      0.000      1.000      0.760
  4352.000      0.082      0.000      0.000      0.001      0.082      0.000      1.000      0.749
  4352.100      0.082      0.000      0.000      0.001      0.082      0.000      1.000      0.764
  4352.200      0.081      0.000      0.000      0.001      0.081      0.000      1.000      0.766
  4352.300      0.080      0.000      0.000      0.001      0.080      0.000      1.000      0.784
  4352.400      0.079      0.000      0.000      0.001      0.079      0.000      1.000      0.748
  4352.500      0.079      0.000      0.000      0.001      0.079      0.000      1.000      0.721
  4352.600      0.081      0.000      0.000      0.001      0.081      0.000      1.000      0.737
  4352.700      0.083      0.000      0.000      0.001      0.083      0.000      1.000      0.753
  4352.800      0.087      0.000      0.000      0.001      0.087      0.000      1.000      0.750
  4352.900      0.090      0.000      0.000      0.001      0.090      0.000      1.000      0.766
  4353.000      0.092      0.000      0.000      0.001      0.092      0.000      1.000      0.779
  4353.100      0.093      0.000      0.000      0.001      0.093      0.000      1.000      0.770
  4353.200      0.093      0.000      0.000      0.001      0.093      0.000      1.000      0.759
  4353.300      0.095      0.000      0.000      0.001      0.095      0.000      1.000      0.756
  4353.400      0.098      0.000      0.000      0.001      0.098      0.000      1.000      0.779
  4353.500      0.099      0.000      0.000      0.001      0.099      0.000      1.000      0.796
  4353.600      0.101      0.000      0.000      0.001      0.101      0.000      1.000      0.796
  4353.700      0.102      0.000      0.000      0.001      0.102      0.000      1.000      0.787
  4353.800      0.106      0.000      0.000      0.001      0.106      0.000      1.000      0.773
  4353.900      0.110      0.000      0.000      0.001      0.110      0.000      1.000      0.778
  4354.000      0.112      0.000      0.000      0.001      0.112      0.000      1.000      0.768
  4354.100      0.111      0.000      0.000      0.001      0.112      0.000      0.997      0.770
  4354.200      0.108      0.000      0.000      0.001      0.108      0.000      1.000      0.754
  4354.300      0.104      0.000      0.000      0.001      0.104      0.000      1.000      0.751
  4354.400      0.101      0.000      0.000      0.001      0.101      0.000      1.000      0.759
  4354.500      0.100      0.000      0.000      0.001      0.100      0.000      1.000      0.752
  4354.600      0.098      0.000      0.000      0.001      0.100      0.000      0.983      0.751
  4354.700      0.096      0.000      0.000      0.001      0.100      0.000      0.952      0.736
  4354.800      0.093      0.000      0.000      0.001      0.099      0.000      0.937      0.743
  4354.900      0.090      0.000      0.000      0.001      0.095      0.000      0.950      0.737
  4355.000      0.085      0.000      0.000      0.001      0.091      0.000      0.935      0.742
  4355.100      0.076      0.000      0.000      0.001      0.089      0.000      0.862      0.723
  4355.200      0.070      0.000      0.000      0.001      0.087      0.000      0.808      0.674
  4355.300      0.064      0.000      0.000      0.001      0.081      0.000      0.785      0.604
  4355.400      0.057      0.000      0.000      0.001      0.068      0.000      0.841      0.536
  4355.500      0.046      0.000      0.000      0.001      0.046      0.000      1.000      0.467
  4355.600      0.020      0.000      0.000      0.001      0.020      0.000      1.000      0.394
  4355.700      0.020      1.000      0.000      0.001      0.020      0.000      1.000      0.334
  4355.800      0.020      1.000      0.000      0.001      0.020      0.000      1.000      0.294
  4355.900      0.020      1.000      0.000      0.001      0.020      0.000      1.000      0.304
  4356.000      0.020      1.000      0.000      0.001      0.020      0.000      1.000      0.330
  4356.100      0.020      1.000      0.000      0.001      0.020      0.000      1.000      0.387
  4356.200      0.020      1.000      0.000      0.001      0.020      0.000      1.000      0.447
  4356.300      0.020      1.000      0.000      0.001      0.020      0.000      1.000      0.491
  4356.400      0.020      1.000      0.000      0.001      0.020      0.000      1.000      0.540
  4356.500      0.020      1.000      0.000      0.001      0.020      0.000      1.000      0.569
  4356.600      0.020      0.000      0.000      0.001      0.020      0.000      1.000      0.566
  4356.700      0.025      0.000      0.000      0.001      0.025      0.000      1.000      0.583
  4356.800      0.035      0.000      0.000      0.001      0.035      0.000      1.000      0.634
  4356.900      0.045      0.000      0.000      0.001      0.045      0.000      1.000      0.681
  4357.000      0.058      0.000      0.000      0.001      0.058      0.000      1.000      0.734
  4357.100      0.071      0.000      0.000      0.001      0.071      0.000      1.000      0.778
  4357.200      0.082      0.000      0.000      0.001      0.082      0.000      1.000      0.808
  4357.300      0.089      0.000      0.000      0.001      0.089      0.000      1.000      0.809
  4357.400      0.092      0.000      0.000      0.001      0.092      0.000      1.000      0.801
  4357.500      0.093      0.000      0.000      0.001      0.093      0.000      1.000      0.798
  4357.600      0.096      0.000      0.000      0.001      0.096      0.000      1.000      0.778
  4357.700      0.099      0.000      0.000      0.001      0.099      0.000      1.000      0.771
  4357.800      0.103      0.000      0.000      0.001      0.103      0.000      1.000      0.769
  4357.900      0.105      0.000      0.000      0.001      0.105      0.000      1.000      0.780
  4358.000      0.105      0.000      0.000      0.001      0.105      0.000      1.000      0.774
  4358.100      0.103      0.000      0.000      0.001      0.103      0.000      1.000      0.785
  4358.200      0.102      0.000      0.000      0.001      0.102      0.000      1.000      0.798
  4358.300      0.103      0.000      0.000      0.001      0.103      0.000      1.000      0.803
  4358.400      0.108      0.000      0.000      0.001      0.108      0.000      1.000      0.830
  4358.500      0.114      0.000      0.000      0.001      0.114      0.000      1.000      0.842
  4358.600      0.119      0.000      0.000      0.001      0.120      0.000      0.994      0.839
  4358.700      0.119      0.000      0.000      0.001      0.123      0.000      0.966      0.821
  4358.800      0.118      0.000      0.000      0.001      0.124      0.000      0.952      0.816
  4358.900      0.119      0.000      0.000      0.001      0.125      0.000      0.955      0.834
