~Version Information
VERS.                     2.0: CWLS log ASCII Standard Version 2.00
WRAP.                      NO: One line per depth step

~Well Information Block
#MNEM.UNIT                 Value                       Information
#------------              -----                       -----------
STRT.M                   3465.0000                    :START
STOP.M                   4684.7000                    :STOP
STEP.M                      0.1000                    :STEP
NULL.                     -999.25                     :NULL VALUE
COMP.         STATOIL PETROLEUM AS                    :Company
WELL.         15/9-F-15 D                             :Well
FLD .         VOLVE                                   :Field
LOC .                                                 :Location
PROV.                                                 :Province
CNTY.         MAERSK INSPIRER                         :County
STATE.                                                 :State
CTRY.         NORWAY                                  :Country
DATE.                                                 :Log Date
SRVC.                                                 :Service Company
UWI .                                                 :Unique Well Identifier
API .                                                 :API Number
LATI.         058 26' 29.706" N    DMS                :Latitude
LONG.         001 53' 15.149" E    DMS                :Longtitude
PD  .         MSL                                     :Permanent Datum
EDF .M                54.9000                         :Elevations D.F.
EGL .M               -91.0000                         :Elevations G.L.
ELZ .M                54.9000                         :Elev. Log Zero
LMF .         DF                                      :Log Measured From
MP  .         DF                                      :Drill Measured From

~Curve Information
#MNEM   .UNIT             API CODE Curve Description
#------------             -------- -----------------
DEPTH   .M            00 001 00 00:   0  Depth
BVW     .v/v          00 000 00 00:   1  BVW:CPI:rC:0001:v1
COAL_FLAG.unitless    00 000 00 00:   2  COAL_FLAG:CPI:rC:0001:v1
KLOGH   .mD           00 000 00 00:   3  KLOGH:CPI:rC:0001:v1
PHIF    .v/v          00 000 00 00:   4  PHIF:CPI:rC:0001:v1
SAND_FLAG.unitless    00 000 00 00:   5  SAND_FLAG:CPI:rC:0001:v1
SW      .v/v          00 000 00 00:   6  SW:CPI:rC:0001:v1
VCARB   .v/v          00 000 00 00:   7  VCARB:CPI:rC:0001:v1
VSH     .v/v          00 000 00 00:   8  VSH:CPI:rC:0001:v1

~Parameter Information
#MNEM.UNIT       Value           Description
#------------    -----           -----------
RUN .         .                 :Run Number

~Other Information
PETROPHYSICAL INTERPRETATION: OUTPUT

# --- LOG MNEMONICS AND UNITS ---
#Depth          BVW             COAL_FLAG       KLOGH           PHIF            SAND_FLAG       SW              VCARB           VSH            
#M              v/v             unitless        mD              v/v             unitless        v/v             v/v             v/v            

~A
# ...
      4652.2000          0.0961          0.0000          0.1462          0.0961          0.0000          1.0000          0.0000          0.4004
      4652.3000          0.0933          0.0000          0.1228          0.0933          0.0000          1.0000          0.0000          0.4063
      4652.4000          0.0896          0.0000          0.0805          0.0896          0.0000          1.0000          0.0000          0.4235
      4652.5000          0.0893          0.0000          0.0692          0.0893          0.0000          1.0000          0.0000          0.4305
      4652.6000          0.0929          0.0000          0.0529          0.0929          0.0000          1.0000          0.0000          0.4466
      4652.7000          0.0975          0.0000          0.0692          0.0975          0.0000          1.0000          0.0000          0.4378
      4652.8000          0.1021          0.0000          0.0905          0.1021          1.0000          1.0000          0.0000          0.4289
      4652.9000          0.1028          0.0000          0.1066          0.1028          1.0000          1.0000          0.0000          0.4216
      4653.0000          0.1005          0.0000          0.0636          0.1005          1.0000          1.0000          0.0000          0.4445
      4653.1000          0.0975          0.0000          0.0709          0.0975          0.0000          1.0000          0.0000          0.4366
      4653.2000          0.0957          0.0000          0.0989          0.0957          0.0000          1.0000          0.0000          0.4190
      4653.3000          0.0966          0.0000          0.1230          0.0966          0.0000          1.0000          0.0000          0.4092
      4653.4000          0.1003          0.0000          0.0979          0.1003          1.0000          1.0000          0.0000          0.4235
      4653.5000          0.1063          0.0000          0.0876          0.1063          1.0000          1.0000          0.0000          0.4342
      4653.6000          0.1134          0.0000          0.1125          0.1134          1.0000          1.0000          0.0000          0.4285
      4653.7000          0.1203          0.0000          0.0697          0.1203          1.0000          1.0000          0.0000          0.4577
      4653.8000          0.1264          0.0000          0.0653          0.1264          1.0000          1.0000          0.0000          0.4662
      4653.9000          0.1319          0.0000          0.0700          0.1319          1.0000          1.0000          0.0000          0.4678
      4654.0000          0.1353          0.0000          0.0899          0.1365          1.0000          0.9914          0.0000          0.4598
      4654.1000          0.1346          0.0000          0.1352          0.1393          1.0000          0.9666          0.0000          0.4426
      4654.2000          0.1342          0.0000          0.1371          0.1390          1.0000          0.9649          0.0000          0.4417
      4654.3000          0.1338          0.0000          0.1201          0.1360          1.0000          0.9834          0.0000          0.4454
      4654.4000          0.1317          0.0000          0.1002          0.1317          1.0000          1.0000          0.0000          0.4503
      4654.5000          0.1279          0.0000          0.0746          0.1279          1.0000          1.0000          0.0000          0.4612
      4654.6000          0.1263          0.0000          0.1094          0.1263          1.0000          1.0000          0.0000          0.4412
      4654.7000          0.1277          0.0000          0.1166          0.1277          1.0000          1.0000          0.0000          0.4394
      4654.8000          0.1316          0.0000          0.1425          0.1316          1.0000          1.0000          0.0000          0.4332
      4654.9000          0.1365          0.0000          0.1699          0.1365          1.0000          1.0000          0.0000          0.4291
      4655.0000          0.1402          0.0000          0.1395          0.1402          1.0000          1.0000          0.0000          0.4419
      4655.1000          0.1411          0.0000          0.1453          0.1415          1.0000          0.9971          0.0000          0.4411
      4655.2000          0.1388          0.0000          0.1234          0.1402          1.0000          0.9900          0.0000          0.4479
      4655.3000          0.1371          0.0000          0.1272          0.1373          1.0000          0.9985          0.0000          0.4438
      4655.4000          0.1343          0.0000          0.0896          0.1343          1.0000          1.0000          0.0000          0.4580
      4655.5000          0.1321          0.0000          0.0509          0.1321          1.0000          1.0000          0.0000          0.4834
      4655.6000          0.1291          0.0000          0.0915          0.1291          1.0000          1.0000          0.0000          0.4524
      4655.7000          0.1220          0.0000          0.1339          0.1220          1.0000          1.0000          0.0000          0.4277
      4655.8000          0.1099          0.0000          0.1000          0.1099          1.0000          1.0000          0.0000          0.4311
      4655.9000          0.0967          0.0000          0.0992          0.0967          0.0000          1.0000          0.0000          0.4197
      4656.0000          0.0880          0.0000          0.0931          0.0880          0.0000          1.0000          0.0000          0.4150
      4656.1000          0.0849          0.0000          0.0872          0.0849          0.0000          1.0000          0.0000          0.4155
      4656.2000          0.0853          0.0000          0.1181          0.0853          0.0000          1.0000          0.0000          0.4011
      4656.3000          0.0863          0.0000          0.1466          0.0863          0.0000          1.0000          0.0000          0.3916
      4656.4000          0.0866          0.0000          0.2152          0.0866          0.0000          1.0000          0.0037          0.3733
      4656.5000          0.0870          0.0000          0.2594          0.0870          0.0000          1.0000          0.0097          0.3647
      4656.6000          0.0880          0.0000          0.1711          0.0880          0.0000          1.0000          0.0000          0.3856
      4656.7000          0.0893          0.0000          0.1413          0.0893          0.0000          1.0000          0.0000          0.3960
      4656.8000          0.0922          0.0000          0.0967          0.0922          0.0000          1.0000          0.0000          0.4169
      4656.9000          0.0984          0.0000          0.0786          0.0984          0.0000          1.0000          0.0000          0.4324
      4657.0000          0.1075          0.0000          0.0827          0.1075          1.0000          1.0000          0.0000          0.4381
      4657.1000          0.1174          0.0000          0.0777          0.1174          1.0000          1.0000          0.0000          0.4499
      4657.2000          0.1254          0.0000          0.0964          0.1254          1.0000          1.0000          0.0000          0.4466
      4657.3000          0.1308          0.0000          0.0894          0.1308          1.0000          1.0000          0.0000          0.4551
      4657.4000          0.1345          0.0000          0.0687          0.1345          1.0000          1.0000          0.0000          0.4710
      4657.5000          0.1369          0.0000          0.0841          0.1369          1.0000          1.0000          0.0000          0.4634
      4657.6000          0.1382          0.0000          0.1229          0.1386          1.0000          0.9972          0.0000          0.4466
      4657.7000          0.1383          0.0000          0.1319          0.1387          1.0000          0.9972          0.0000          0.4432
