~Version Information
VERS.                     2.0: CWLS log ASCII Standard Version 2.00
WRAP.                      NO: One line per depth step

~Well Information Block
#MNEM.UNIT                 Value                       Information
#------------              -----                       -----------
STRT.M                   3271.0000                    :START
STOP.M                   3631.9000                    :STOP
STEP.M                      0.1000                    :STEP
NULL.                     -999.25                     :NULL VALUE
COMP.         Statoil Petroleum                       :Company
WELL.         15/9-F-1                                :Well
FLD .         VOLVE                                   :Field
LOC .         Maersk Inspirer                         :Location
PROV.                                                 :Province
CNTY.                                                 :County
STATE.                                                 :State
CTRY.                                                 :Country
DATE.                                                 :Log Date
SRVC.                                                 :Service Company
UWI .                                                 :Unique Well Identifier
API .                                                 :API Number
LATI.         058 26' 29.907" N    DMS                :Latitude
LONG.         001 53' 14.708" E    DMS                :Longtitude
PD  .         MSL                                     :Permanent Datum
ELZ .M                 0.0000                         :Elev. Log Zero

~Curve Information
#MNEM   .UNIT             API CODE Curve Description
#------------             -------- -----------------
DEPTH   .M            00 001 00 00:   0  Depth
BVW     .V/V          00 000 00 00:   1  Bound Volume Water
COAL_FLAG.unitless    00 000 00 00:   2  Coal Flag
KLOGH   .MD           00 000 00 00:   3  Calculated Horizontal PERMEABILITY from logs
PHIF    .V/V          00 000 00 00:   4  Final porosity
SAND_FLAG.unitless    00 000 00 00:   5  Sand Flag
SW      .V/V          00 000 00 00:   6  Water Saturation (Archie)
VCARB   .V/V          00 000 00 00:   7  Volume of calcite; dolomite and siderite from log analysis; repo
VSH     .V/V          00 000 00 00:   8  (GR-15)/(250-15)

~Parameter Information
#MNEM.UNIT       Value           Description
#------------    -----           -----------
HLD .         Terms and Conditions.:Header Legal Disclaimer
RUN .         1                 :Run number

~Other Information
PETROPHYSICAL INTERPRETATION: OUTPUT

# --- LOG MNEMONICS AND UNITS ---
#Depth          BVW             COAL_FLAG       KLOGH           PHIF            SAND_FLAG       SW              VCARB           VSH            
#M              V/V             unitless        MD              V/V             unitless        V/V             V/V             V/V            

~A
# ...
      3601.4000          0.0325          0.0000          0.0010          0.0325          0.0000          1.0000          0.0000          0.7441
      3601.5000          0.0290          0.0000          0.0010          0.0290          0.0000          1.0000          0.0000          0.7628
      3601.6000          0.0269          0.0000          0.0010          0.0269          0.0000          1.0000          0.0000          0.7704
      3601.7000          0.0263          0.0000          0.0010          0.0263          0.0000          1.0000          0.0000          0.7447
      3601.8000          0.0269          0.0000          0.0010          0.0269          0.0000          1.0000          0.0000          0.7471
      3601.9000          0.0274          0.0000          0.0010          0.0274          0.0000          1.0000          0.0000          0.7558
      3602.0000          0.0274          0.0000          0.0010          0.0274          0.0000          1.0000          0.0000          0.7258
      3602.1000          0.0272          0.0000          0.0010          0.0272          0.0000          1.0000          0.0000          0.7099
      3602.2000          0.0271          0.0000          0.0010          0.0271          0.0000          1.0000          0.0000          0.6785
      3602.3000          0.0269          0.0000          0.0010          0.0269          0.0000          1.0000          0.0000          0.6637
      3602.4000          0.0266          0.0000          0.0010          0.0266          0.0000          1.0000          0.0000          0.6585
      3602.5000          0.0270          0.0000          0.0010          0.0270          0.0000          1.0000          0.0000          0.6688
      3602.6000          0.0290          0.0000          0.0010          0.0290          0.0000          1.0000          0.0000          0.6796
      3602.7000          0.0321          0.0000          0.0010          0.0321          0.0000          1.0000          0.0000          0.7096
      3602.8000          0.0346          0.0000          0.0010          0.0346          0.0000          1.0000          0.0000          0.7153
      3602.9000          0.0354          0.0000          0.0010          0.0354          0.0000          1.0000          0.0000          0.7391
      3603.0000          0.0341          0.0000          0.0010          0.0341          0.0000          1.0000          0.0000          0.7561
      3603.1000          0.0318          0.0000          0.0010          0.0318          0.0000          1.0000          0.0000          0.7510
      3603.2000          0.0299          0.0000          0.0010          0.0299          0.0000          1.0000          0.0000          0.7581
      3603.3000          0.0294          0.0000          0.0010          0.0294          0.0000          1.0000          0.0000          0.8068
      3603.4000          0.0303          0.0000          0.0010          0.0303          0.0000          1.0000          0.0000          0.8053
      3603.5000          0.0314          0.0000          0.0010          0.0314          0.0000          1.0000          0.0000          0.7981
      3603.6000          0.0311          0.0000          0.0010          0.0311          0.0000          1.0000          0.0000          0.8106
      3603.7000          0.0294          0.0000          0.0010          0.0294          0.0000          1.0000          0.0000          0.8214
      3603.8000          0.0279          0.0000          0.0010          0.0279          0.0000          1.0000          0.0000          0.8126
      3603.9000          0.0279          0.0000          0.0010          0.0279          0.0000          1.0000          0.0000          0.7876
      3604.0000          0.0293          0.0000          0.0010          0.0293          0.0000          1.0000          0.0000          0.7588
      3604.1000          0.0310          0.0000          0.0010          0.0310          0.0000          1.0000          0.0000          0.7305
      3604.2000          0.0318          0.0000          0.0010          0.0318          0.0000          1.0000          0.0000          0.7256
      3604.3000          0.0309          0.0000          0.0010          0.0309          0.0000          1.0000          0.0000          0.7379
      3604.4000          0.0286          0.0000          0.0010          0.0286          0.0000          1.0000          0.0000          0.7691
      3604.5000          0.0263          0.0000          0.0010          0.0263          0.0000          1.0000          0.0000          0.8016
      3604.6000          0.0258          0.0000          0.0010          0.0258          0.0000          1.0000          0.0000          0.7642
      3604.7000          0.0274          0.0000          0.0010          0.0274          0.0000          1.0000          0.0000          0.7131
      3604.8000          0.0299          0.0000          0.0010          0.0299          0.0000          1.0000          0.0000          0.7104
      3604.9000          0.0314          0.0000          0.0010          0.0314          0.0000          1.0000          0.0000          0.7323
      3605.0000          0.0312          0.0000          0.0010          0.0312          0.0000          1.0000          0.0000          0.7694
      3605.1000          0.0296          0.0000          0.0010          0.0296          0.0000          1.0000          0.0000          0.7791
      3605.2000          0.0279          0.0000          0.0010          0.0279          0.0000          1.0000          0.0000          0.7934
      3605.3000          0.0270          0.0000          0.0010          0.0270          0.0000          1.0000          0.0000          0.8182
      3605.4000          0.0273          0.0000          0.0010          0.0273          0.0000          1.0000          0.0000          0.8543
      3605.5000          0.0289          0.0000          0.0010          0.0289          0.0000          1.0000          0.0000          0.8637
      3605.6000          0.0309          0.0000          0.0010          0.0309          0.0000          1.0000          0.0000          0.8749
      3605.7000          0.0323          0.0000          0.0010          0.0323          0.0000          1.0000          0.0000          0.8446
      3605.8000          0.0328          0.0000          0.0010          0.0328          0.0000          1.0000          0.0000          0.7867
      3605.9000          0.0325          0.0000          0.0010          0.0325          0.0000          1.0000          0.0000          0.7633
      3606.0000          0.0322          0.0000          0.0010          0.0322          0.0000          1.0000          0.0000          0.7770
      3606.1000          0.0322          0.0000          0.0010          0.0322          0.0000          1.0000          0.0000          0.7680
      3606.2000          0.0325          0.0000          0.0010          0.0325          0.0000          1.0000          0.0000          0.7853
      3606.3000          0.0320          0.0000          0.0010          0.0320          0.0000          1.0000          0.0000          0.8155
      3606.4000          0.0308          0.0000          0.0010          0.0308          0.0000          1.0000          0.0000          0.8386
      3606.5000          0.0301          0.0000          0.0010          0.0301          0.0000          1.0000          0.0000          0.8195
      3606.6000          0.0312          0.0000          0.0010          0.0312          0.0000          1.0000          0.0000          0.8195
      3606.7000          0.0341          0.0000          0.0010          0.0341          0.0000          1.0000          0.0000          0.8202
      3606.8000          0.0370          0.0000          0.0010          0.0370          0.0000          1.0000          0.0000          0.8035
      3606.9000         -999.25          0.0000         -999.25         -999.25          0.0000         -999.25         -999.25          0.7732
