~Version Information
VERS.                     2.0: CWLS log ASCII Standard Version 2.00
WRAP.                      NO: One line per depth step

~Well Information Block
#MNEM       .UNIT          Value                       Information
#-------------------------------------------------------------------------
STRT        .M             3102.102                    :START
STOP        .M             3505.8096                   :STOP
STEP        .M             0.1524                      :STEP
NULL        .              -999.25                     :NULL VALUE
COMP        .              STATOILHYDRO                :COMPANY
WELL        .              15/9-F-12                   :WELL
FLD         .              VOLVE                       :FIELD
LOC         .              UNKNOWN                     :LOCATION
CNTY        .              UNKNOWN                     :COUNTY
STAT        .              UNKNOWN                     :STATE
CTRY        .              Norway                      :COUNTRY
SRVC        .              UNKNOWN                     :SERVICE COMPANY
DATE        .              UNKNOWN                     :LOG DATE
UWI         .              NO 15/9-F-12                :UNIQUE WELL ID
XCOORD      .              435050.170000               :SURFACE X
YCOORD      .              6478574.700000              :SURFACE Y
LAT         .              58.441713                   :LATITUDE
LON         .              1.887480                    :LONGITUDE
ELEV        .M             54.9000                     :SURFACE ELEV
ELEV_TYPE   .              KB                          :ELEV TYPE

~Curve Information
#MNEM       .UNIT             API CODE : Curve Description
#-------------------------------------------------------------------------
DEPTH       .M                UNKNOWN  : Measured Dept
BVW         .v/v_decimal      UNKNOWN  : BVW:UNKNOWN:rC:NONE:v1
KLOGH       .mD               UNKNOWN  : KLOGH:UNKNOWN:rC:NONE:v1
PHIF        .v/v_decimal      UNKNOWN  : PHIF:UNKNOWN:rC:NONE:v1
SW          .v/v_decimal      UNKNOWN  : SW:UNKNOWN:rC:NONE:v1
VSH         .v/v_decimal      UNKNOWN  : VSH:UNKNOWN:rC:NONE:v1
# --- LOG MNEMONICS AND UNITS ---
#Depth     BVW        KLOGH      PHIF       SW         VSH       
#M         v/v_decima mD         v/v_decima v/v_decima v/v_decima
~A
# ...
   3288.03 0.04450000 0.00430000 0.04450000          1 0.39259999
 3288.1824 0.06710000 0.02180000 0.06710000          1 0.40459999
 3288.3348 0.08969999 0.10930000 0.08969999          1 0.41659998
 3288.4872 0.10729999 0.54839998 0.11240000 0.95509999 0.42860001
 3288.6396 0.10409999 0.39989998 0.10949999 0.95039999 0.45100000
  3288.792 0.10050000 0.24439999 0.10429999 0.96359997 0.47440001
 3288.9444 0.09719999 0.14929999 0.09899999 0.98129999 0.49770000
 3289.0968 0.09210000 0.08619999 0.09269999 0.99290001 0.51569998
 3289.2492 0.08579999 0.04820000 0.08579999          1 0.53049999
 3289.4016 0.07880000 0.02690000 0.07880000          1 0.54540002
  3289.554 0.07000000 0.01370000 0.07000000          1 0.55150002
 3289.7064 0.05779999 0.00579999 0.05779999          1 0.54189997
 3289.8588 0.04560000 0.00249999 0.04560000          1 0.53229999
 3290.0112 0.03359999 0.00109999 0.03359999          1 0.52439999
 3290.1636 0.02490000 0.00100000 0.02490000          1 0.53850001
  3290.316 0.01620000 0.00100000 0.01620000          1 0.55269998
 3290.4684 0.00749999 0.00100000 0.00749999          1 0.56679999
 3290.6208 0.00710000 0.00100000 0.00710000          1 0.54869997
 3290.7732 0.00879999 0.00100000 0.00879999          1 0.52209997
 3290.9256 0.01059999 0.00100000 0.01059999          1 0.49549999
  3291.078 0.01590000 0.00100000 0.01590000          1 0.49340000
 3291.2304 0.02459999 0.00100000 0.02459999          1 0.51450002
 3291.3828 0.03330000 0.00100000 0.03330000          1 0.53570002
 3291.5352 0.04800000 0.00279999 0.04800000          1 0.54729998
 3291.6876 0.08290000 0.03959999 0.08290000          1 0.52719998
   3291.84 0.09139999 0.56599998 0.11770000 0.77630001 0.50700002
 3291.9924 0.09480000 84.1905975 0.18430000 0.51429998 0.48690000
 3292.1448 0.09369999 162.731994 0.19349999 0.48399999 0.49070000
 3292.2972 0.09250000 292.789398 0.20180000 0.45849999 0.49579998
 3292.4496 0.08940000 39.1864013 0.17479999 0.51099997 0.50089997
  3292.602 0.09290000 47.4816017 0.17599999 0.52799999 0.47740000
 3292.7544 0.10249999 592.621582 0.20790000 0.49290001 0.43979999
 3292.9068 0.11240000 566.081115 0.20489999 0.54879999 0.40220001
 3293.0592 0.12099999 657.223083 0.20520000 0.58960002 0.37439998
 3293.2116 0.12179999 1037.40002 0.21060000 0.57840001 0.36190000
  3293.364 0.12269999 1637.49401 0.21600000 0.56779998 0.34940001
 3293.5164 0.12359999 2464.22290 0.22069999 0.55989998 0.33599999
 3293.6688 0.12520000 2496.07299 0.21960000 0.56999999 0.31459999
 3293.8212 0.12680000 2528.33691 0.21840000 0.58060002 0.29319998
 3293.9736 0.12849999 2561.01806 0.21729999 0.59170001 0.27180001
  3294.126 0.13089999 3173.51806 0.21979999 0.59570002 0.26530000
 3294.2784 0.13349999 4102.17578 0.22300000 0.59869998 0.26199999
 3294.4308 0.13629999 5302.55322 0.22630000 0.60229998 0.25859999
 3294.5832 0.13799999 6768.85400 0.22900000 0.60250002 0.24840000
 3294.7356 0.13860000 8551.10156 0.23119999 0.59969997 0.23250000
  3294.888 0.13930000 10802.5498 0.23330000 0.59689998 0.21660000
 3295.0404 0.14000000 12109.0400 0.23379999 0.59869998 0.19949999
 3295.1928 0.14079999 9744.42968 0.22959999 0.61330002 0.17910000
 3295.3452 0.14169999 7841.52880 0.22540000 0.62870001 0.15870000
 3295.4976 0.14259999 6310.26318 0.22110000 0.64480000 0.13830000
   3295.65 0.14519999 2582.93701 0.21080000 0.68860000 0.16670000
 3295.8024 0.14800000 1045.88000 0.20029999 0.73869997 0.19580000
 3295.9548 0.15109999 423.498809 0.18989999 0.79570001 0.22499999
 3296.1072 0.13860000 188.283905 0.17919999 0.77319997 0.22969999
 3296.2596 0.12439999 87.0743026 0.16840000 0.73909997 0.22409999
  3296.412 0.11389999 40.2686004 0.15760000 0.72289997 0.21850000
 3296.5644 0.10300000 18.7765007 0.14650000 0.70289999 0.20730000
 3296.7168 0.08860000 0.67510002 0.10019999 0.88470000 0.18819999
 3296.8692 0.08009999 0.26409998 0.08619999 0.92879998 0.16910000
 3297.0216 0.07490000 0.13060000 0.07599999 0.98540002 0.15819999
  3297.174 0.08190000 0.26769998 0.08820000 0.92799997 0.19750000
 3297.3264 0.09030000 0.54860001 0.10040000 0.89980000 0.23669999
 3297.4788 0.10469999 12.5925998 0.14540000 0.72009998 0.27599999
 3297.6312 0.11100000 23.4782009 0.15469999 0.71780002 0.28949999
 3297.7836 0.11689999 44.2444992 0.16390000 0.71359997 0.29890000
  3297.936 0.12380000 83.3789978 0.17299999 0.71509999 0.30820000
 3298.0884 0.12479999 103.547897 0.17499999 0.71350002 0.29179999
 3298.2408 0.12139999 95.0840988 0.17159999 0.70740002 0.25670000
 3298.3932 0.11819999 87.3122024 0.16830000 0.70240002 0.22159999
 3298.5456 0.11389999 54.6390991 0.16019999 0.71090000 0.19480000
  3298.698 0.10719999 13.9278001 0.14120000 0.75919997 0.18709999
 3298.8504 0.08280000 0.19509999 0.08280000          1 0.17949999
 3299.0028 0.05750000 0.03139999 0.05750000          1 0.17219999
 3299.1552 0.07840000 0.13920000 0.07840000          1 0.18310000
 3299.3076 0.09229999 0.61760002 0.09929999 0.92949998 0.19390000
   3299.46 0.09340000 2.74040007 0.12020000 0.77660000 0.20479999
 3299.6124 0.09290000 3.69190001 0.12569999 0.73900002 0.22779999
 3299.7648 0.09200000 3.25440001 0.12569999 0.73180001 0.25519999
 3299.9172 0.09109999 2.86870002 0.12569999 0.72500002 0.28259998
 3300.0696 0.09089999 2.58809995 0.12489999 0.72750002 0.29219999
  3300.222 0.09130000 2.40019989 0.12319999 0.74099999 0.28069999
 3300.3744 0.09170000 2.22589993 0.12139999 0.75499999 0.26919999
 3300.5268 0.09040000 1.81239998 0.11819999 0.76490002 0.26150000
 3300.6792 0.08229999 0.80199998 0.10769999 0.76450002 0.27129998
 3300.8316 0.07599999 0.35490000 0.09730000 0.78109997 0.28110000
  3300.984 0.07069999 0.15700000 0.08680000 0.81419998 0.29100000
 3301.1364 0.07329999 0.16599999 0.08730000 0.83960002 0.28639999
 3301.2888 0.07729999 0.19419999 0.08900000 0.86870002 0.28009998
 3301.4412 0.08219999 0.22730000 0.09080000 0.90600001 0.27379998
 3301.5936 0.08630000 0.28229999 0.09250000 0.93250000 0.25459998
  3301.746 0.08959999 0.36370000 0.09420000 0.95069998 0.22740000
 3301.8984 0.09340000 0.46869999 0.09600000 0.97320002 0.20029999
 3302.0508 0.09619999 0.58770000 0.09769999 0.98470002 0.17900000
 3302.2032 0.09600000 0.69770002 0.09950000 0.96560001 0.16959999
 3302.3556 0.09589999 0.82829999 0.10119999 0.94709998 0.16019999
  3302.508 0.09579999 0.98030000 0.10289999 0.93099999 0.15150000
 3302.6604 0.09910000 1.09749996 0.10469999 0.94690001 0.15479999
 3302.8128 0.10279999 1.22880005 0.10639999 0.96579998 0.15819999
 3302.9652 0.10689999 1.37580001 0.10819999 0.98839998 0.16150000
 3303.1176 0.10859999 1.44620001 0.10859999          1 0.15700000
   3303.27 0.10859999 1.49210000 0.10859999          1 0.15019999
 3303.4224 0.10859999 1.53949999 0.10859999          1 0.14350000
 3303.5748 0.10859999 1.57630002 0.10859999          1 0.13830000
 3303.7272 0.10859999 1.60130000 0.10859999          1 0.13490000
 3303.8796 0.10859999 1.62660002 0.10859999          1 0.13150000
  3304.032 0.10890000 1.69369995 0.10890000          1 0.12860000
 3304.1844 0.11069999 1.93499994 0.11069999          1 0.12749999
 3304.3368 0.11240000 2.21070003 0.11240000          1 0.12649999
 3304.4892 0.11420000 2.52570009 0.11420000          1 0.12540000
 3304.6416 0.11270000 2.18300008 0.11270000          1 0.13310000
  3304.794 0.11089999 1.84710001 0.11089999          1 0.14159999
 3304.9464 0.10920000 1.56289994 0.10920000          1 0.15000000
 3305.0988 0.11309999 1.96300005 0.11309999          1 0.16290000
 3305.2512 0.12009999 3.05480003 0.12009999          1 0.17839999
 3305.4036 0.12700000 4.75369977 0.12700000          1 0.19380000
  3305.556 0.12989999 7.56409978 0.13400000 0.96979999 0.20440000
 3305.7084 0.13590000 140.728103 0.17380000 0.78200000 0.20669999
 3305.8608 0.13789999 185.784698 0.17769999 0.77579998 0.20900000
 3306.0132 0.13950000 248.186706 0.18179999 0.76740002 0.21130000
 3306.1656 0.13699999 375.612609 0.18760000 0.73030000 0.21359999
  3306.318 0.13459999 568.462524 0.19329999 0.69639998 0.21590000
 3306.4704 0.13249999 860.327026 0.19910000 0.66530001 0.21819999
