~Version Information
VERS.                     2.0: CWLS log ASCII Standard Version 2.00
WRAP.                      NO: One line per depth step

~Well Information Block
#MNEM.UNIT                 Value                       Information
#------------              -----                       -----------
STRT.M                   3205.0000                    :START
STOP.M                   4093.8000                    :STOP
STEP.M                      0.1000                    :STEP
NULL.                     -999.25                     :NULL VALUE
COMP.         Statoil Petroleum                       :Company
WELL.         15/9-F-1 C                              :Well
FLD .         VOLVE                                   :Field
LOC .         Maersk Inspirer                         :Location
PROV.                                                 :Province
CNTY.                                                 :County
STATE.                                                 :State
CTRY.                                                 :Country
DATE.                                                 :Log Date
SRVC.                                                 :Service Company
UWI .                                                 :Unique Well Identifier
API .                                                 :API Number
LATI.         058 26' 29.907" N    DMS                :Latitude
LONG.         001 53' 14.708" E    DMS                :Longtitude
PD  .         MSL                                     :Permanent Datum
EDF .M                54.9000                         :Elevations D.F.
EGL .M               -91.0000                         :Elevations G.L.
ELZ .M                54.9000                         :Elev. Log Zero
LMF .         DF                                      :Log Measured From

~Curve Information
#MNEM   .UNIT             API CODE Curve Description
#------------             -------- -----------------
DEPTH   .M            00 001 00 00:   0  Depth
BADDATA_FLAG.unitless 00 000 00 00:   1  Bad Data Flag
BVW     .v/v          00 000 00 00:   2  Bulk Volume Water
COAL_FLAG.unitless    00 000 00 00:   3  Coal Flag
KLOGH   .mD           00 000 00 00:   4  Permeability
PHIF    .v/v          00 000 00 00:   5  Final Porosity
SAND_FLAG.unitless    00 000 00 00:   6  Sand Flag
SW      .v/v          00 000 00 00:   7  Water Saturation
VCARB   .v/v          00 000 00 00:   8  VCARB
VSH     .v/v          00 000 00 00:   9  Volume of Shale

~Parameter Information
#MNEM.UNIT       Value           Description
#------------    -----           -----------
RUN .         1                 :Run number

~Other Information
PETROPHYSICAL INTERPRETATION: OUTPUT

# --- LOG MNEMONICS AND UNITS ---
#Depth          BADDATA_FLAG    BVW             COAL_FLAG       KLOGH           PHIF            SAND_FLAG       SW              VCARB           VSH            
#M              unitless        v/v             unitless        mD              v/v             unitless        v/v             v/v             v/v            

~A
# ...
      3280.0000          0.0000          0.0735          0.0000          0.0010          0.0735          0.0000          1.0000          0.0000          0.7055
      3280.1000          0.0000          0.0812          0.0000          0.0010          0.0812          0.0000          1.0000          0.0000          0.7494
      3280.2000          0.0000          0.0905          0.0000          0.0010          0.0905          0.0000          1.0000          0.0000          0.7896
      3280.3000          0.0000          0.1008          0.0000          0.0010          0.1008          0.0000          1.0000          0.0000          0.7993
      3280.4000          0.0000          0.1089          0.0000          0.0010          0.1089          0.0000          1.0000          0.0000          0.7944
      3280.5000          0.0000          0.1119          0.0000          0.0010          0.1119          0.0000          1.0000          0.0000          0.7973
      3280.6000          0.0000          0.1102          0.0000          0.0010          0.1102          0.0000          1.0000          0.0000          0.7972
      3280.7000          0.0000          0.1069          0.0000          0.0010          0.1069          0.0000          1.0000          0.0000          0.7870
      3280.8000          0.0000          0.1052          0.0000          0.0010          0.1052          0.0000          1.0000          0.0000          0.7838
      3280.9000          0.0000          0.1063          0.0000          0.0010          0.1063          0.0000          1.0000          0.0000          0.7867
      3281.0000          0.0000          0.1094          0.0000          0.0010          0.1094          0.0000          1.0000          0.0000          0.7934
      3281.1000          0.0000          0.1135          0.0000          0.0010          0.1135          0.0000          1.0000          0.0000          0.7942
      3281.2000          0.0000          0.1181          0.0000          0.0010          0.1181          0.0000          1.0000          0.0000          0.7940
      3281.3000          0.0000          0.1224          0.0000          0.0010          0.1224          0.0000          1.0000          0.0000          0.7847
      3281.4000          0.0000          0.1255          0.0000          0.0010          0.1255          0.0000          1.0000          0.0000          0.7754
      3281.5000          0.0000          0.1266          0.0000          0.0010          0.1266          0.0000          1.0000          0.0000          0.7542
      3281.6000          0.0000          0.1261          0.0000          0.0010          0.1261          0.0000          1.0000          0.0000          0.7123
      3281.7000          0.0000          0.1260          0.0000          0.0010          0.1260          0.0000          1.0000          0.0000          0.6748
      3281.8000          0.0000          0.1279          0.0000          0.0016          0.1279          0.0000          1.0000          0.0000          0.6459
      3281.9000          0.0000          0.1315          0.0000          0.0020          0.1315          0.0000          1.0000          0.0000          0.6385
      3282.0000          0.0000          0.1350          0.0000          0.0025          0.1350          0.0000          1.0000          0.0000          0.6312
      3282.1000          0.0000          0.1368          0.0000          0.0023          0.1368          0.0000          1.0000          0.0000          0.6362
      3282.2000          0.0000          0.1377          0.0000          0.0043          0.1377          0.0000          1.0000          0.0000          0.6076
      3282.3000          0.0000          0.1399          0.0000          0.0062          0.1399          0.0000          1.0000          0.0000          0.5917
      3282.4000          0.0000          0.1439          0.0000          0.0062          0.1439          0.0000          1.0000          0.0000          0.5952
      3282.5000          0.0000          0.1485          0.0000          0.0061          0.1488          0.0000          0.9978          0.0000          0.6002
      3282.6000          0.0000          0.1485          0.0000          0.0092          0.1533          0.0000          0.9693          0.0000          0.5844
      3282.7000          0.0000          0.1488          0.0000          0.0144          0.1568          0.0000          0.9492          0.0000          0.5661
      3282.8000          0.0000          0.1502          0.0000          0.0203          0.1597          0.0000          0.9407          0.0000          0.5522
      3282.9000          0.0000          0.1550          0.0000          0.0187          0.1612          0.0000          0.9613          0.0000          0.5575
      3283.0000          0.0000          0.1607          0.0000          0.0172          0.1609          0.0000          0.9987          0.0000          0.5614
      3283.1000          0.0000          0.1592          0.0000          0.0140          0.1592          0.0000          1.0000          0.0000          0.5696
      3283.2000          0.0000          0.1584          0.0000          0.0197          0.1584          0.0000          1.0000          0.0000          0.5525
      3283.3000          0.0000          0.1605          0.0000          0.0247          0.1605          0.0000          1.0000          0.0000          0.5434
      3283.4000          0.0000          0.1661          0.0000          0.0221          0.1661          0.0000          1.0000          0.0000          0.5539
      3283.5000          0.0000          0.1730          0.0000          0.0221          0.1730          0.0000          1.0000          0.0000          0.5600
      3283.6000          0.0000          0.1740          0.0000          0.0253          0.1779          0.0000          0.9783          0.0000          0.5577
      3283.7000          0.0000          0.1739          0.0000          0.0217          0.1800          0.0000          0.9664          0.0000          0.5671
      3283.8000          0.0000          0.1733          0.0000          0.0214          0.1797          0.0000          0.9645          0.0000          0.5674
      3283.9000          0.0000          0.1717          0.0000          0.0272          0.1781          0.0000          0.9637          0.0000          0.5545
      3284.0000          0.0000          0.1703          0.0000          0.0255          0.1765          0.0000          0.9649          0.0000          0.5563
      3284.1000          0.0000          0.1686          0.0000          0.0174          0.1757          0.0000          0.9596          0.0000          0.5738
      3284.2000          0.0000          0.1622          0.0000          0.0280          0.1755          0.0000          0.9237          0.0000          0.5509
      3284.3000          0.0000          0.1558          0.0000          0.0226          0.1751          0.0000          0.8897          0.0000          0.5607
      3284.4000          0.0000          0.1476          0.0000          0.0205          0.1737          0.0000          0.8499          0.0000          0.5641
      3284.5000          0.0000          0.1415          0.0000          0.0160          0.1715          0.0000          0.8253          0.0000          0.5743
      3284.6000          0.0000          0.1355          0.0000          0.0156          0.1686          0.0000          0.8036          0.0000          0.5728
      3284.7000          0.0000          0.1295          0.0000          0.0218          0.1647          0.0000          0.7864          0.0000          0.5534
      3284.8000          0.0000          0.1231          0.0000          0.0285          0.1596          0.0000          0.7714          0.0000          0.5358
      3284.9000          0.0000          0.1176          0.0000          0.0166          0.1545          0.0000          0.7609          0.0000          0.5572
