~Version Information
VERS.                     2.0: CWLS log ASCII Standard Version 2.00
WRAP.                      NO: One line per depth step

~Well Information Block
#MNEM.UNIT                 Value                       Information
#------------              -----                       -----------
STRT.M                   3204.0000                    :START
STOP.M                   3464.9000                    :STOP
STEP.M                      0.1000                    :STEP
NULL.                     -999.25                     :NULL VALUE
COMP.         Statoil Petroleum                       :Company
WELL.         15/9-F-1 B                              :Well
FLD .         VOLVE                                   :Field
LOC .         Maersk Inspirer                         :Location
PROV.                                                 :Province
CNTY.                                                 :County
STATE.                                                 :State
CTRY.                                                 :Country
DATE.                                                 :Log Date
SRVC.                                                 :Service Company
UWI .                                                 :Unique Well Identifier
API .                                                 :API Number
LATI.         058 26' 29.907" N    DMS                :Latitude
LONG.         001 53' 14.708" E    DMS                :Longtitude
PD  .         MSL                                     :Permanent Datum
ELZ .M                 0.0000                         :Elev. Log Zero

~Curve Information
#MNEM   .UNIT             API CODE Curve Description
#------------             -------- -----------------
DEPTH   .M            00 001 00 00:   0  Depth
BVW     .V/V          00 000 00 00:   1  Bulk Volume Water
CARB_FLAG.V/V         00 000 00 00:   2  Carbonate Flag
COAL_FLAG.UNITLESS    00 000 00 00:   3  Coal flag
KLOGH   .mD           00 000 00 00:   4  Calculated Horizontal PERMEABILITY from logs
PHIF    .V/V          00 000 00 00:   5  Final Porosity
SAND_FLAG.UNITLESS    00 000 00 00:   6  Sand Flag
SW      .V/V          00 000 00 00:   7  Water Saturation
VCARB   .V/V          00 000 00 00:   8  VCARB
VSH     .V/V          00 000 00 00:   9  Volume of Shale

~Parameter Information
#MNEM.UNIT       Value           Description
#------------    -----           -----------
HLD .         Terms and Conditions.:Header Legal Disclaimer
RUN .         1                 :Run number

~Other Information
PETROPHYSICAL INTERPRETATION: OUTPUT

# --- LOG MNEMONICS AND UNITS ---
#Depth          BVW             CARB_FLAG       COAL_FLAG       KLOGH           PHIF            SAND_FLAG       SW              VCARB           VSH            
#M              V/V             V/V             UNITLESS        mD              V/V             UNITLESS        V/V             V/V             V/V            

~A
# ...
      3354.0000          0.0885          0.0000          0.0000          0.1496          0.0885          0.0000          1.0000          0.0385          0.3278
      3354.1000          0.0898          0.0000          0.0000          0.1771          0.0898          0.0000          1.0000          0.0495          0.3122
      3354.2000          0.0913          0.0000          0.0000          0.2052          0.0913          0.0000          1.0000          0.0519          0.3049
      3354.3000          0.0912          0.0000          0.0000          0.2084          0.0912          0.0000          1.0000          0.0575          0.2998
      3354.4000          0.0889          0.0000          0.0000          0.1588          0.0889          0.0000          1.0000          0.0424          0.3222
      3354.5000          0.0848          0.0000          0.0000          0.1183          0.0848          0.0000          1.0000          0.0568          0.3204
      3354.6000          0.0794          0.0000          0.0000          0.0825          0.0794          0.0000          1.0000          0.0814          0.3126
      3354.7000          0.0734          0.0000          0.0000          0.0520          0.0734          0.0000          1.0000          0.0973          0.3159
      3354.8000          0.0679          0.0000          0.0000          0.0352          0.0679          0.0000          1.0000          0.1173          0.3138
      3354.9000          0.0655          0.0000          0.0000          0.0288          0.0655          0.0000          1.0000          0.1189          0.3193
      3355.0000          0.0679          0.0000          0.0000          0.0333          0.0679          0.0000          1.0000          0.1052          0.3249
      3355.1000          0.0747          0.0000          0.0000          0.0537          0.0747          0.0000          1.0000          0.0783          0.3300
      3355.2000          0.0825          0.0000          0.0000          0.0945          0.0825          0.0000          1.0000          0.0519          0.3325
      3355.3000          0.0857          0.0000          0.0000          0.1374          0.0857          0.0000          1.0000          0.0721          0.3024
      3355.4000          0.0818          0.0000          0.0000          0.1071          0.0818          0.0000          1.0000          0.0943          0.2935
      3355.5000          0.0739          0.0000          0.0000          0.0632          0.0739          0.0000          1.0000          0.1328          0.2826
      3355.6000          0.0677          0.0000          0.0000          0.0395          0.0677          0.0000          1.0000          0.1510          0.2853
      3355.7000          0.0682          0.0000          0.0000          0.0355          0.0682          0.0000          1.0000          0.1144          0.3157
      3355.8000          0.0768          0.0000          0.0000          0.0603          0.0768          0.0000          1.0000          0.0632          0.3386
      3355.9000          0.0893          0.0000          0.0000          0.1430          0.0893          0.0000          1.0000          0.0148          0.3514
      3356.0000          0.0982          0.0000          0.0000          0.2647          0.0982          0.0000          1.0000          0.0000          0.3594
      3356.1000          0.0998          0.0000          0.0000          0.3308          0.0998          0.0000          1.0000          0.0000          0.3365
      3356.2000          0.0947          0.0000          0.0000          0.2493          0.0947          0.0000          1.0000          0.0294          0.3176
      3356.3000          0.0851          0.0000          0.0000          0.1284          0.0851          0.0000          1.0000          0.0692          0.3072
      3356.4000          0.0738          0.0000          0.0000          0.0566          0.0738          0.0000          1.0000          0.1080          0.3047
      3356.5000          0.0654          0.0000          0.0000          0.0302          0.0654          0.0000          1.0000          0.1351          0.3056
      3356.6000          0.0610          0.0000          0.0000          0.0228          0.0610          0.0000          1.0000          0.1609          0.2965
      3356.7000          0.0592          0.0000          0.0000          0.0208          0.0592          0.0000          1.0000          0.1773          0.2882
      3356.8000          0.0589          0.0000          0.0000          0.0212          0.0589          0.0000          1.0000          0.1913          0.2781
      3356.9000          0.0605          0.0000          0.0000          0.0238          0.0605          0.0000          1.0000          0.1832          0.2798
      3357.0000          0.0655          0.0000          0.0000          0.0336          0.0655          0.0000          1.0000          0.1580          0.2858
      3357.1000          0.0734          0.0000          0.0000          0.0580          0.0734          0.0000          1.0000          0.1225          0.2930
      3357.2000          0.0799          0.0000          0.0000          0.0858          0.0799          0.0000          1.0000          0.0801          0.3124
      3357.3000          0.0806          0.0000          0.0000          0.0811          0.0806          0.0000          1.0000          0.0547          0.3355
      3357.4000          0.0750          0.0000          0.0000          0.0491          0.0750          0.0000          1.0000          0.0528          0.3549
      3357.5000          0.0676          0.0000          0.0000          0.0257          0.0676          0.0000          1.0000          0.0543          0.3762
      3357.6000          0.0647          0.0000          0.0000          0.0214          0.0647          0.0000          1.0000          0.0694          0.3693
      3357.7000          0.0691          0.0000          0.0000          0.0316          0.0691          0.0000          1.0000          0.0690          0.3562
      3357.8000          0.0782          0.0000          0.0000          0.0607          0.0782          0.0000          1.0000          0.0398          0.3590
      3357.9000          0.0869          0.0000          0.0000          0.1169          0.0869          0.0000          1.0000          0.0168          0.3568
      3358.0000          0.0923          0.0000          0.0000          0.1765          0.0923          0.0000          1.0000          0.0048          0.3532
      3358.1000          0.0963          0.0000          0.0000          0.2783          0.0963          0.0000          1.0000          0.0241          0.3183
      3358.2000          0.1016          0.0000          0.0000          0.4588          0.1016          1.0000          1.0000          0.0301          0.2948
      3358.3000          0.1074          0.0000          0.0000          0.7734          0.1074          1.0000          1.0000          0.0325          0.2737
      3358.4000          0.1062          0.0000          0.0000          0.9418          0.1093          1.0000          0.9723          0.0390          0.2611
      3358.5000          0.1015          0.0000          0.0000          0.5901          0.1039          1.0000          0.9768          0.0406          0.2767
      3358.6000          0.0935          0.0000          0.0000          0.2334          0.0935          0.0000          1.0000          0.0387          0.3117
      3358.7000          0.0826          0.0000          0.0000          0.0853          0.0826          0.0000          1.0000          0.0302          0.3556
      3358.8000          0.0753          0.0000          0.0000          0.0489          0.0753          0.0000          1.0000          0.0469          0.3603
      3358.9000          0.0738          0.0000          0.0000          0.0494          0.0738          0.0000          1.0000          0.0765          0.3344
