~Version Information
VERS.                     2.0: CWLS log ASCII Standard Version 2.00
WRAP.                      NO: One line per depth step

~Well Information Block
#MNEM.UNIT                 Value                       Information
#------------              -----                       -----------
STRT.M                    4334.700                    :START
STOP.M                    4561.700                    :STOP
STEP.M                       0.100                    :STEP
NULL.                     -999.25                     :NULL VALUE
COMP.         Statoil Petroleum AS                    :Company
WELL.         15/9-F-11 T2                            :Well
FLD .         VOLVE                                   :Field
LOC .                                                 :Location
PROV.                                                 :Province
CNTY.                                                 :County
STATE.                                                 :State
CTRY.         Norway                                  :Country
DATE.                                                 :Log Date
SRVC.                                                 :Service Company
UWI .                                                 :Unique Well Identifier
API .                                                 :API Number
PD  .         MSL                                     :Permanent Datum
EDF .M            54.900                              :Elevations D.F.
EGL .M           -91.000                              :Elevations G.L.
ELZ .M            54.900                              :Elev. Log Zero
LMF .         DF                                      :Log Measured From

~Curve Information
#MNEM   .UNIT             API CODE Curve Description
#------------             -------- -----------------
DEPTH   .M            00 001 00 00:   0  Depth
BVW     .v/v          00 000 00 00:   1  BVW:CPI:rC:NONE:v1
CARB_FLAG.unitless    00 000 00 00:   2  CARB_FLAG:CPI:rC:NONE:v1
COAL_FLAG.unitless    00 000 00 00:   3  COAL_FLAG:CPI:rC:NONE:v1
KLOGH   .mD           00 000 00 00:   4  KLOGH:CPI:rC:NONE:v1
PHIF    .v/v          00 000 00 00:   5  PHIF:CPI:rC:NONE:v1
SAND_FLAG.unitless    00 000 00 00:   6  SAND_FLAG:CPI:rC:NONE:v1
SW      .v/v          00 000 00 00:   7  SW:CPI:rC:NONE:v1
VSH     .v/v          00 000 00 00:   8  VSH:CPI:rC:NONE:v1

~Parameter Information
#MNEM.UNIT       Value           Description
#------------    -----           -----------
RUN .         1                 :Run number

~Other Information
PETROPHYSICAL INTERPRETATION: OUTPUT

# --- LOG MNEMONICS AND UNITS ---
#Depth     BVW        CARB_FLAG  COAL_FLAG  KLOGH      PHIF       SAND_FLAG  SW         VSH       
#M         v/v        unitless   unitless   mD         v/v        unitless   v/v        v/v       

~A
# ...
  4488.600      0.206      0.000      0.000    121.180      0.206      1.000      1.000      0.173
  4488.700      0.204      0.000      0.000    115.841      0.204      1.000      1.000      0.174
  4488.800      0.203      0.000      0.000    109.436      0.203      1.000      1.000      0.176
  4488.900      0.202      0.000      0.000    124.778      0.202      1.000      1.000      0.169
  4489.000      0.202      0.000      0.000    135.609      0.202      1.000      1.000      0.165
  4489.100      0.203      0.000      0.000    139.038      0.203      1.000      1.000      0.164
  4489.200      0.203      0.000      0.000    143.651      0.203      1.000      1.000      0.163
  4489.300      0.202      0.000      0.000    140.661      0.202      1.000      1.000      0.163
  4489.400      0.202      0.000      0.000    128.124      0.202      1.000      1.000      0.167
  4489.500      0.201      0.000      0.000    141.149      0.201      1.000      1.000      0.162
  4489.600      0.201      0.000      0.000    119.460      0.201      1.000      1.000      0.170
  4489.700      0.201      0.000      0.000    120.561      0.201      1.000      1.000      0.169
  4489.800      0.201      0.000      0.000    117.092      0.201      1.000      1.000      0.171
  4489.900      0.200      0.000      0.000    117.062      0.200      1.000      1.000      0.170
  4490.000      0.198      0.000      0.000    117.646      0.198      1.000      1.000      0.168
  4490.100      0.196      0.000      0.000    102.534      0.196      1.000      1.000      0.173
  4490.200      0.194      0.000      0.000     87.366      0.194      1.000      1.000      0.179
  4490.300      0.193      0.000      0.000     96.815      0.193      1.000      1.000      0.174
  4490.400      0.194      0.000      0.000    102.115      0.194      1.000      1.000      0.172
  4490.500      0.196      0.000      0.000    116.112      0.196      1.000      1.000      0.167
  4490.600      0.199      0.000      0.000    139.300      0.199      1.000      1.000      0.161
  4490.700      0.201      0.000      0.000    143.602      0.201      1.000      1.000      0.161
  4490.800      0.201      0.000      0.000    143.772      0.201      1.000      1.000      0.161
  4490.900      0.200      0.000      0.000    150.496      0.200      1.000      1.000      0.158
  4491.000      0.201      0.000      0.000    148.403      0.201      1.000      1.000      0.159
  4491.100      0.203      0.000      0.000    147.698      0.203      1.000      1.000      0.162
  4491.200      0.206      0.000      0.000    155.128      0.206      1.000      1.000      0.162
  4491.300      0.210      0.000      0.000    162.160      0.210      1.000      1.000      0.163
  4491.400      0.213      0.000      0.000    182.757      0.213      1.000      1.000      0.160
  4491.500      0.215      0.000      0.000    212.872      0.215      1.000      1.000      0.154
  4491.600      0.215      0.000      0.000    258.507      0.215      1.000      1.000      0.145
  4491.700      0.214      0.000      0.000    263.816      0.214      1.000      1.000      0.143
  4491.800      0.212      0.000      0.000    259.191      0.212      1.000      1.000      0.143
  4491.900      0.212      0.000      0.000    264.496      0.212      1.000      1.000      0.141
  4492.000      0.212      0.000      0.000    253.199      0.212      1.000      1.000      0.144
  4492.100      0.214      0.000      0.000    232.146      0.214      1.000      1.000      0.149
  4492.200      0.214      0.000      0.000    198.679      0.214      1.000      1.000      0.158
  4492.300      0.214      0.000      0.000    210.510      0.214      1.000      1.000      0.154
  4492.400      0.212      0.000      0.000    235.680      0.212      1.000      1.000      0.147
  4492.500      0.210      0.000      0.000    204.235      0.210      1.000      1.000      0.152
  4492.600      0.207      0.000      0.000    171.947      0.207      1.000      1.000      0.158
  4492.700      0.205      0.000      0.000    165.190      0.205      1.000      1.000      0.158
  4492.800      0.203      0.000      0.000    130.920      0.203      1.000      1.000      0.167
  4492.900      0.200      0.000      0.000     90.301      0.200      1.000      1.000      0.183
  4493.000      0.196      0.000      0.000     65.988      0.196      1.000      1.000      0.194
  4493.100      0.190      0.000      0.000     44.930      0.190      1.000      1.000      0.207
  4493.200      0.183      0.000      0.000     36.344      0.183      1.000      1.000      0.212
  4493.300      0.178      0.000      0.000     30.105      0.178      1.000      1.000      0.216
  4493.400      0.175      0.000      0.000     26.373      0.175      1.000      1.000      0.220
  4493.500      0.173      0.000      0.000     21.530      0.173      1.000      1.000      0.228
  4493.600      0.173      0.000      0.000     19.760      0.173      1.000      1.000      0.232
  4493.700      0.174      0.000      0.000     24.185      0.174      1.000      1.000      0.223
  4493.800      0.177      0.000      0.000     28.782      0.177      1.000      1.000      0.217
  4493.900      0.180      0.000      0.000     30.206      0.180      1.000      1.000      0.218
  4494.000      0.184      0.000      0.000     29.499      0.184      1.000      1.000      0.223
  4494.100      0.187      0.000      0.000     31.519      0.187      1.000      1.000      0.222
  4494.200      0.187      0.000      0.000     30.571      0.187      1.000      1.000      0.223
  4494.300      0.184      0.000      0.000     28.235      0.184      1.000      1.000      0.225
  4494.400      0.181      0.000      0.000     28.181      0.181      1.000      1.000      0.222
  4494.500      0.177      0.000      0.000     24.982      0.177      1.000      1.000      0.224
  4494.600      0.174      0.000      0.000     21.510      0.174      1.000      1.000      0.229
  4494.700      0.173      0.000      0.000     19.634      0.173      1.000      1.000      0.233
  4494.800      0.174      0.000      0.000     16.378      0.174      1.000      1.000      0.242
  4494.900      0.177      0.000      0.000     13.594      0.177      1.000      1.000      0.254
  4495.000      0.182      0.000      0.000     10.708      0.182      1.000      1.000      0.269
  4495.100      0.188      0.000      0.000     11.080      0.188      1.000      1.000      0.273
  4495.200      0.192      0.000      0.000     13.281      0.192      1.000      1.000      0.268
  4495.300      0.194      0.000      0.000     12.010      0.194      1.000      1.000      0.275
  4495.400      0.194      0.000      0.000      8.213      0.194      1.000      1.000      0.293
  4495.500      0.193      0.000      0.000      5.757      0.193      1.000      1.000      0.309
  4495.600      0.192      0.000      0.000      4.484      0.192      1.000      1.000      0.320
  4495.700      0.192      0.000      0.000      5.512      0.192      1.000      1.000      0.310
  4495.800      0.192      0.000      0.000      6.064      0.192      1.000      1.000      0.306
  4495.900      0.193      0.000      0.000      7.284      0.193      1.000      1.000      0.298
  4496.000      0.192      0.000      0.000      8.721      0.192      1.000      1.000      0.289
  4496.100      0.191      0.000      0.000      9.597      0.191      1.000      1.000      0.283
  4496.200      0.190      0.000      0.000     10.189      0.190      1.000      1.000      0.279
  4496.300      0.189      0.000      0.000     10.959      0.189      1.000      1.000      0.275
  4496.400      0.189      0.000      0.000     13.214      0.189      1.000      1.000      0.266
  4496.500      0.187      0.000      0.000     16.040      0.187      1.000      1.000      0.254
  4496.600      0.183      0.000      0.000     16.422      0.183      1.000      1.000      0.250
