~Version Information
VERS.                     2.0: CWLS log ASCII Standard Version 2.00
WRAP.                      NO: One line per depth step

~Well Information Block
#MNEM.UNIT                 Value                       Information
#------------              -----                       -----------
STRT.M                    4334.700                    :START
STOP.M                    4561.700                    :STOP
STEP.M                       0.100                    :STEP
NULL.                     -999.25                     :NULL VALUE
COMP.         Statoil Petroleum AS                    :Company
WELL.         15/9-F-11 T2                            :Well
FLD .         VOLVE                                   :Field
LOC .                                                 :Location
PROV.                                                 :Province
CNTY.                                                 :County
STATE.                                                 :State
CTRY.         Norway                                  :Country
DATE.                                                 :Log Date
SRVC.                                                 :Service Company
UWI .                                                 :Unique Well Identifier
API .                                                 :API Number
PD  .         MSL                                     :Permanent Datum
EDF .M            54.900                              :Elevations D.F.
EGL .M           -91.000                              :Elevations G.L.
ELZ .M            54.900                              :Elev. Log Zero
LMF .         DF                                      :Log Measured From

~Curve Information
#MNEM   .UNIT             API CODE Curve Description
#------------             -------- -----------------
DEPTH   .M            00 001 00 00:   0  Depth
BVW     .v/v          00 000 00 00:   1  BVW:CPI:rC:NONE:v1
CARB_FLAG.unitless    00 000 00 00:   2  CARB_FLAG:CPI:rC:NONE:v1
COAL_FLAG.unitless    00 000 00 00:   3  COAL_FLAG:CPI:rC:NONE:v1
KLOGH   .mD           00 000 00 00:   4  KLOGH:CPI:rC:NONE:v1
PHIF    .v/v          00 000 00 00:   5  PHIF:CPI:rC:NONE:v1
SAND_FLAG.unitless    00 000 00 00:   6  SAND_FLAG:CPI:rC:NONE:v1
SW      .v/v          00 000 00 00:   7  SW:CPI:rC:NONE:v1
VSH     .v/v          00 000 00 00:   8  VSH:CPI:rC:NONE:v1

~Parameter Information
#MNEM.UNIT       Value           Description
#------------    -----           -----------
RUN .         1                 :Run number

~Other Information
PETROPHYSICAL INTERPRETATION: OUTPUT

# --- LOG MNEMONICS AND UNITS ---
#Depth     BVW        CARB_FLAG  COAL_FLAG  KLOGH      PHIF       SAND_FLAG  SW         VSH       
#M         v/v        unitless   unitless   mD         v/v        unitless   v/v        v/v       

~A
# ...
  4512.900      0.062      0.000      0.000      0.002      0.062      0.000      1.000      0.828
  4513.000      0.062      0.000      0.000      0.002      0.062      0.000      1.000      0.836
  4513.100      0.064      0.000      0.000      0.002      0.064      0.000      1.000      0.827
  4513.200      0.068      0.000      0.000      0.004      0.068      0.000      1.000      0.787
  4513.300      0.075      0.000      0.000      0.006      0.075      0.000      1.000      0.792
  4513.400      0.082      0.000      0.000      0.011      0.082      0.000      1.000      0.797
  4513.500      0.089      0.000      0.000      0.020      0.089      0.000      1.000      0.779
  4513.600      0.095      0.000      0.000      0.036      0.095      0.000      1.000      0.740
  4513.700      0.098      0.000      0.000      0.058      0.098      0.000      1.000      0.679
  4513.800      0.097      0.000      0.000      0.056      0.097      0.000      1.000      0.673
  4513.900      0.093      0.000      0.000      0.047      0.093      0.000      1.000      0.652
  4514.000      0.087      0.000      0.000      0.031      0.087      0.000      1.000      0.652
  4514.100      0.081      0.000      0.000      0.015      0.081      0.000      1.000      0.699
  4514.200      0.075      0.000      0.000      0.008      0.075      0.000      1.000      0.738
  4514.300      0.070      0.000      0.000      0.004      0.070      0.000      1.000      0.797
  4514.400      0.068      0.000      0.000      0.003      0.068      0.000      1.000      0.820
  4514.500      0.068      0.000      0.000      0.003      0.068      0.000      1.000      0.852
  4514.600      0.071      0.000      0.000      0.004      0.071      0.000      1.000      0.845
  4514.700      0.073      0.000      0.000      0.004      0.073      0.000      1.000      0.846
  4514.800      0.074      0.000      0.000      0.004      0.074      0.000      1.000      0.859
  4514.900      0.071      0.000      0.000      0.004      0.071      0.000      1.000      0.828
  4515.000      0.066      0.000      0.000      0.004      0.066      0.000      1.000      0.751
  4515.100      0.061      0.000      0.000      0.003      0.061      0.000      1.000      0.710
  4515.200      0.057      0.000      0.000      0.003      0.057      0.000      1.000      0.697
  4515.300      0.054      0.000      0.000      0.003      0.054      0.000      1.000      0.661
  4515.400      0.053      0.000      0.000      0.002      0.053      0.000      1.000      0.650
  4515.500      0.053      0.000      0.000      0.002      0.053      0.000      1.000      0.685
  4515.600      0.054      0.000      0.000      0.002      0.054      0.000      1.000      0.724
  4515.700      0.057      0.000      0.000      0.002      0.057      0.000      1.000      0.770
  4515.800      0.062      0.000      0.000      0.002      0.062      0.000      1.000      0.834
  4515.900      0.067      0.000      0.000      0.003      0.067      0.000      1.000      0.835
  4516.000      0.071      0.000      0.000      0.004      0.071      0.000      1.000      0.831
  4516.100      0.075      0.000      0.000      0.005      0.075      0.000      1.000      0.829
  4516.200      0.078      0.000      0.000      0.007      0.078      0.000      1.000      0.817
  4516.300      0.080      0.000      0.000      0.009      0.080      0.000      1.000      0.807
  4516.400      0.081      0.000      0.000      0.009      0.081      0.000      1.000      0.809
  4516.500      0.080      0.000      0.000      0.009      0.080      0.000      1.000      0.809
  4516.600      0.079      0.000      0.000      0.008      0.079      0.000      1.000      0.799
  4516.700      0.077      0.000      0.000      0.007      0.077      0.000      1.000      0.819
  4516.800      0.076      0.000      0.000      0.007      0.076      0.000      1.000      0.802
  4516.900      0.076      0.000      0.000      0.008      0.076      0.000      1.000      0.779
  4517.000      0.076      0.000      0.000      0.007      0.076      0.000      1.000      0.788
  4517.100      0.076      0.000      0.000      0.007      0.076      0.000      1.000      0.793
  4517.200      0.076      0.000      0.000      0.007      0.076      0.000      1.000      0.799
  4517.300      0.075      0.000      0.000      0.005      0.075      0.000      1.000      0.830
  4517.400      0.073      0.000      0.000      0.005      0.073      0.000      1.000      0.817
  4517.500      0.071      0.000      0.000      0.004      0.071      0.000      1.000      0.814
  4517.600      0.070      0.000      0.000      0.004      0.070      0.000      1.000      0.798
  4517.700      0.070      0.000      0.000      0.005      0.070      0.000      1.000      0.770
  4517.800      0.071      0.000      0.000      0.006      0.071      0.000      1.000      0.747
  4517.900      0.072      0.000      0.000      0.006      0.072      0.000      1.000      0.751
  4518.000      0.071      0.000      0.000      0.005      0.071      0.000      1.000      0.773
  4518.100      0.069      0.000      0.000      0.004      0.069      0.000      1.000      0.784
  4518.200      0.067      0.000      0.000      0.003      0.067      0.000      1.000      0.811
  4518.300      0.067      0.000      0.000      0.003      0.067      0.000      1.000      0.823
  4518.400      0.067      0.000      0.000      0.003      0.067      0.000      1.000      0.799
  4518.500      0.066      0.000      0.000      0.004      0.066      0.000      1.000      0.767
  4518.600      0.065      0.000      0.000      0.004      0.065      0.000      1.000      0.746
  4518.700      0.065      0.000      0.000      0.004      0.065      0.000      1.000      0.725
  4518.800      0.068      0.000      0.000      0.005      0.068      0.000      1.000      0.729
  4518.900      0.074      0.000      0.000      0.005      0.074      0.000      1.000      0.722
  4519.000      0.082      0.000      0.000      0.005      0.082      0.000      1.000      0.714
  4519.100      0.089      0.000      0.000      0.005      0.089      0.000      1.000      0.691
  4519.200      0.094      0.000      0.000      0.005      0.094      0.000      1.000      0.640
  4519.300      0.098      0.000      0.000      0.005      0.098      0.000      1.000      0.616
  4519.400      0.100      0.000      0.000      0.005      0.101      0.000      0.990      0.598
  4519.500      0.098      0.000      0.000      0.005      0.103      0.000      0.952      0.597
  4519.600      0.097      0.000      0.000      0.005      0.103      0.000      0.940      0.614
  4519.700      0.095      0.000      0.000      0.005      0.102      0.000      0.938      0.610
  4519.800      0.094      0.000      0.000      0.005      0.100      0.000      0.941      0.627
  4519.900      0.092      0.000      0.000      0.005      0.099      0.000      0.933      0.665
  4520.000      0.090      0.000      0.000      0.052      0.098      0.000      0.917      0.713
  4520.100      0.088      0.000      0.000      0.052      0.099      0.000      0.893      0.728
  4520.200      0.088      0.000      0.000      0.047      0.100      0.000      0.874      0.768
  4520.300      0.089      0.000      0.000      0.042      0.102      0.000      0.871      0.818
  4520.400      0.091      0.000      0.000      0.037      0.103      0.000      0.885      0.859
  4520.500      0.092      0.000      0.000      0.033      0.102      0.000      0.899      0.876
  4520.600      0.094      0.000      0.000      0.029      0.100      0.000      0.937      0.865
  4520.700      0.094      0.000      0.000      0.023      0.095      0.000      0.987      0.845
  4520.800      0.089      0.000      0.000      0.015      0.089      0.000      1.000      0.831
  4520.900      0.082      0.000      0.000      0.009      0.082      0.000      1.000      0.827
