~Version Information
VERS.                     2.0: CWLS log ASCII Standard Version 2.00
WRAP.                      NO: One line per depth step

~Well Information Block
#MNEM.UNIT                 Value                       Information
#------------              -----                       -----------
STRT.M                    3351.600                    :START
STOP.M                    4759.200                    :STOP
STEP.M                       0.100                    :STEP
NULL.                     -999.25                     :NULL VALUE
COMP.         Statoil Petroleum AS                    :Company
WELL.         15/9-F-11 B                             :Well
FLD .         VOLVE                                   :Field
LOC .         Maersk Inspirer                         :Location
PROV.                                                 :Province
CNTY.                                                 :County
STATE.                                                 :State
CTRY.                                                 :Country
DATE.                                                 :Log Date
SRVC.                                                 :Service Company
UWI .                                                 :Unique Well Identifier
API .                                                 :API Number
LATI.         058 26' 29.960" N    DMS                :Latitude
LONG.         001 53' 14.870" E    DMS                :Longtitude
PD  .         MSL                                     :Permanent Datum
EDF .M            54.900                              :Elevations D.F.
EGL .M           -91.000                              :Elevations G.L.
ELZ .M            54.900                              :Elev. Log Zero
LMF .         DF                                      :Log Measured From

~Curve Information
#MNEM   .UNIT             API CODE Curve Description
#------------             -------- -----------------
DEPTH   .M            00 001 00 00:   0  Depth
BVW     .v/v          00 000 00 00:   1  BVW:CPI:rC:NONE:v1
CARB_FLAG.unitless    00 000 00 00:   2  CARB_FLAG:CPI:rC:NONE:v1
COAL_FLAG.unitless    00 000 00 00:   3  COAL_FLAG:CPI:rC:NONE:v1
KLOGH   .mD           00 000 00 00:   4  KLOGH:CPI:rC:NONE:v1
PHIF    .v/v          00 000 00 00:   5  PHIF:CPI:rC:NONE:v1
SAND_FLAG.UNKNOWN     00 000 00 00:   6  SAND_FLAG:CPI:rC:NONE:v1
SW      .v/v          00 000 00 00:   7  SW:CPI:rC:NONE:v1
VSH     .v/v          00 000 00 00:   8  VSH:CPI:rC:NONE:v1

~Parameter Information
#MNEM.UNIT       Value           Description
#------------    -----           -----------
RUN .         1                 :Run number

~Other Information
PETROPHYSICAL_INTERPRETATION: OUTPUT

# --- LOG MNEMONICS AND UNITS ---
#Depth     BVW        CARB_FLAG  COAL_FLAG  KLOGH      PHIF       SAND_FLAG  SW         VSH       
#M         v/v        unitless   unitless   mD         v/v        UNKNOWN    v/v        v/v       

~A
# ...
  4088.700      0.056      0.000      0.000     10.811      0.176      1.000      0.316      0.264
  4088.800      0.056      0.000      0.000     18.965      0.186      1.000      0.298      0.246
  4088.900      0.055      0.000      0.000     34.526      0.191      1.000      0.285      0.221
  4089.000      0.050      0.000      0.000     58.985      0.194      1.000      0.258      0.198
  4089.100      0.047      0.000      0.000     88.829      0.195      1.000      0.239      0.179
  4089.200      0.044      0.000      0.000    138.489      0.198      1.000      0.222      0.160
  4089.300      0.042      0.000      0.000    180.922      0.202      1.000      0.210      0.151
  4089.400      0.041      0.000      0.000    265.825      0.209      1.000      0.196      0.139
  4089.500      0.040      0.000      0.000    310.129      0.216      1.000      0.185      0.137
  4089.600      0.040      0.000      0.000    322.064      0.221      1.000      0.181      0.140
  4089.700      0.040      0.000      0.000    357.100      0.228      1.000      0.176      0.142
  4089.800      0.040      0.000      0.000    449.585      0.234      1.000      0.172      0.136
  4089.900      0.040      0.000      0.000    650.240      0.239      1.000      0.168      0.122
  4090.000      0.040      0.000      0.000    735.218      0.241      1.000      0.166      0.118
  4090.100      0.040      0.000      0.000    733.435      0.242      1.000      0.166      0.119
  4090.200      0.040      0.000      0.000    783.964      0.241      1.000      0.165      0.115
  4090.300      0.040      0.000      0.000    766.746      0.241      1.000      0.165      0.116
  4090.400      0.040      0.000      0.000    776.801      0.242      1.000      0.164      0.116
  4090.500      0.039      0.000      0.000    969.477      0.243      1.000      0.163      0.106
  4090.600      0.039      0.000      0.000   1012.985      0.242      1.000      0.162      0.104
  4090.700      0.039      0.000      0.000   1027.509      0.241      1.000      0.162      0.102
  4090.800      0.039      0.000      0.000   1056.956      0.241      1.000      0.162      0.100
  4090.900      0.039      0.000      0.000    934.144      0.240      1.000      0.161      0.106
  4091.000      0.039      0.000      0.000    733.879      0.240      1.000      0.161      0.117
  4091.100      0.038      0.000      0.000    703.673      0.239      1.000      0.160      0.118
  4091.200      0.038      0.000      0.000    759.222      0.236      1.000      0.161      0.112
  4091.300      0.038      0.000      0.000    675.612      0.235      1.000      0.160      0.117
  4091.400      0.038      0.000      0.000    623.204      0.236      1.000      0.160      0.121
  4091.500      0.038      0.000      0.000    541.296      0.234      1.000      0.164      0.126
  4091.600      0.039      0.000      0.000    492.084      0.233      1.000      0.167      0.131
  4091.700      0.040      0.000      0.000    404.782      0.233      1.000      0.170      0.140
  4091.800      0.041      0.000      0.000    469.498      0.234      1.000      0.174      0.133
  4091.900      0.035      0.000      0.000    698.028      0.233      1.000      0.149      0.113
  4092.000      0.035      0.000      0.000    582.223      0.232      1.000      0.151      0.122
  4092.100      0.036      0.000      0.000    485.539      0.231      1.000      0.156      0.129
  4092.200      0.037      0.000      0.000    612.526      0.229      1.000      0.161      0.116
  4092.300      0.040      0.000      0.000    623.156      0.227      1.000      0.175      0.113
  4092.400      0.042      0.000      0.000    470.233      0.224      1.000      0.189      0.124
  4092.500      0.044      0.000      0.000    251.868      0.220      1.000      0.201      0.151
  4092.600      0.045      0.000      0.000    104.048      0.215      1.000      0.211      0.189
  4092.700      0.046      0.000      0.000     32.540      0.207      1.000      0.220      0.239
  4092.800      0.049      0.000      0.000      5.927      0.198      1.000      0.250      0.312
  4092.900      0.059      0.000      0.000      0.702      0.187      1.000      0.315      0.405
  4093.000      0.059      0.000      0.000      0.100      0.139      1.000      0.426      0.457
  4093.100      0.061      0.000      0.000      0.055      0.116      1.000      0.523      0.465
  4093.200      0.067      0.000      0.000      0.036      0.103      1.000      0.650      0.475
  4093.300      0.067      0.000      0.000      0.072      0.102      1.000      0.658      0.440
  4093.400      0.063      0.000      0.000      0.087      0.108      1.000      0.581      0.436
  4093.500      0.064      0.000      0.000      0.101      0.115      1.000      0.556      0.436
  4093.600      0.066      0.000      0.000      0.177      0.121      1.000      0.550      0.413
  4093.700      0.068      0.000      0.000      0.424      0.125      1.000      0.542      0.375
  4093.800      0.070      0.000      0.000      1.229      0.165      1.000      0.422      0.359
  4093.900      0.067      0.000      0.000      1.927      0.173      1.000      0.385      0.344
  4094.000      0.066      0.000      0.000      3.082      0.182      1.000      0.364      0.330
  4094.100      0.063      0.000      0.000      3.108      0.191      1.000      0.332      0.337
  4094.200      0.062      0.000      0.000      3.939      0.197      1.000      0.312      0.332
  4094.300      0.056      0.000      0.000      5.740      0.202      1.000      0.276      0.317
  4094.400      0.054      0.000      0.000      8.002      0.204      1.000      0.263      0.303
  4094.500      0.053      0.000      0.000      6.971      0.207      1.000      0.257      0.312
  4094.600      0.053      0.000      0.000      7.317      0.207      1.000      0.254      0.310
  4094.700      0.053      0.000      0.000      5.555      0.205      1.000      0.256      0.322
  4094.800      0.052      0.000      0.000      6.252      0.201      1.000      0.259      0.313
  4094.900      0.052      0.000      0.000      8.414      0.198      1.000      0.262      0.295
  4095.000      0.052      0.000      0.000      6.205      0.197      1.000      0.262      0.309
  4095.100      0.052      0.000      0.000      5.557      0.196      1.000      0.263      0.314
  4095.200      0.048      0.000      0.000      5.070      0.196      1.000      0.246      0.318
  4095.300      0.047      0.000      0.000      4.392      0.194      1.000      0.241      0.324
  4095.400      0.045      0.000      0.000      3.220      0.194      1.000      0.234      0.338
  4095.500      0.045      0.000      0.000      2.902      0.190      1.000      0.237      0.340
  4095.600      0.044      0.000      0.000      3.438      0.186      1.000      0.238      0.328
  4095.700      0.043      0.000      0.000      4.922      0.187      1.000      0.232      0.311
  4095.800      0.044      0.000      0.000      4.229      0.189      1.000      0.234      0.321
  4095.900      0.043      0.000      0.000      3.414      0.194      1.000      0.222      0.336
  4096.000      0.042      0.000      0.000      3.082      0.195      1.000      0.214      0.342
  4096.100      0.042      0.000      0.000      2.770      0.193      1.000      0.219      0.344
  4096.200      0.042      0.000      0.000      1.006      0.150      1.000      0.281      0.355
  4096.300      0.042      0.000      0.000      0.642      0.134      1.000      0.316      0.363
  4096.400      0.041      0.000      0.000      0.531      0.122      1.000      0.335      0.361
  4096.500      0.040      0.000      0.000      0.447      0.116      1.000      0.341      0.364
  4096.600      0.039      0.000      0.000      0.486      0.118      1.000      0.332      0.362
  4096.700      0.037      0.000      0.000      0.536      0.124      1.000      0.300      0.362
