~Version Information
VERS.                     2.0: CWLS log ASCII Standard Version 2.00
WRAP.                      NO: One line per depth step

~Well Information Block
#MNEM.UNIT                 Value                       Information
#------------              -----                       -----------
STRT.M                   3465.0000                    :START
STOP.M                   4684.7000                    :STOP
STEP.M                      0.1000                    :STEP
NULL.                     -999.25                     :NULL VALUE
COMP.         STATOIL PETROLEUM AS                    :Company
WELL.         15/9-F-15 D                             :Well
FLD .         VOLVE                                   :Field
LOC .                                                 :Location
PROV.                                                 :Province
CNTY.         MAERSK INSPIRER                         :County
STATE.                                                 :State
CTRY.         NORWAY                                  :Country
DATE.                                                 :Log Date
SRVC.                                                 :Service Company
UWI .                                                 :Unique Well Identifier
API .                                                 :API Number
LATI.         058 26' 29.706" N    DMS                :Latitude
LONG.         001 53' 15.149" E    DMS                :Longtitude
PD  .         MSL                                     :Permanent Datum
EDF .M                54.9000                         :Elevations D.F.
EGL .M               -91.0000                         :Elevations G.L.
ELZ .M                54.9000                         :Elev. Log Zero
LMF .         DF                                      :Log Measured From
MP  .         DF                                      :Drill Measured From

~Curve Information
#MNEM   .UNIT             API CODE Curve Description
#------------             -------- -----------------
DEPTH   .M            00 001 00 00:   0  Depth
BVW     .v/v          00 000 00 00:   1  BVW:CPI:rC:0001:v1
COAL_FLAG.unitless    00 000 00 00:   2  COAL_FLAG:CPI:rC:0001:v1
KLOGH   .mD           00 000 00 00:   3  KLOGH:CPI:rC:0001:v1
PHIF    .v/v          00 000 00 00:   4  PHIF:CPI:rC:0001:v1
SAND_FLAG.unitless    00 000 00 00:   5  SAND_FLAG:CPI:rC:0001:v1
SW      .v/v          00 000 00 00:   6  SW:CPI:rC:0001:v1
VCARB   .v/v          00 000 00 00:   7  VCARB:CPI:rC:0001:v1
VSH     .v/v          00 000 00 00:   8  VSH:CPI:rC:0001:v1

~Parameter Information
#MNEM.UNIT       Value           Description
#------------    -----           -----------
RUN .         .                 :Run Number

~Other Information
PETROPHYSICAL INTERPRETATION: OUTPUT

# --- LOG MNEMONICS AND UNITS ---
#Depth          BVW             COAL_FLAG       KLOGH           PHIF            SAND_FLAG       SW              VCARB           VSH            
#M              v/v             unitless        mD              v/v             unitless        v/v             v/v             v/v            

~A
# ...
      4333.0000          0.1097          0.0000        665.4481          0.2133          1.0000          0.5144          0.0000          0.0981
      4333.1000          0.1098          0.0000        653.4830          0.2127          1.0000          0.5164          0.0000          0.0985
      4333.2000          0.1083          0.0000        806.2003          0.2128          1.0000          0.5092          0.0000          0.0884
      4333.3000          0.1069          0.0000        671.6186          0.2128          1.0000          0.5026          0.0000          0.0972
      4333.4000          0.1058          0.0000        527.8964          0.2124          1.0000          0.4978          0.0000          0.1086
      4333.5000          0.1044          0.0000        574.6645          0.2119          1.0000          0.4927          0.0000          0.1040
      4333.6000          0.1047          0.0000        657.8564          0.2113          1.0000          0.4957          0.0000          0.0969
      4333.7000          0.1054          0.0000        724.6642          0.2109          1.0000          0.4999          0.0000          0.0919
      4333.8000          0.1061          0.0000        755.3661          0.2113          1.0000          0.5022          0.0000          0.0903
      4333.9000          0.1066          0.0000        696.6545          0.2129          1.0000          0.5004          0.0000          0.0956
      4334.0000          0.1066          0.0000        598.1475          0.2150          1.0000          0.4957          0.0000          0.1048
      4334.1000          0.1067          0.0000        776.7936          0.2162          1.0000          0.4938          0.0000          0.0932
      4334.2000          0.1051          0.0000        785.8090          0.2153          1.0000          0.4880          0.0000          0.0919
      4334.3000          0.1053          0.0000        782.6466          0.2127          1.0000          0.4952          0.0000          0.0898
      4334.4000          0.1096          0.0000        773.7689          0.2093          1.0000          0.5236          0.0000          0.0873
      4334.5000          0.1113          0.0000        562.7186          0.2055          1.0000          0.5417          0.0000          0.0993
      4334.6000          0.1141          0.0000        699.2761          0.2010          1.0000          0.5675          0.0000          0.0849
      4334.7000          0.1123          0.0000        621.4284          0.1957          1.0000          0.5739          0.0000          0.0858
      4334.8000          0.1059          0.0000        541.5734          0.1902          1.0000          0.5566          0.0000          0.0876
      4334.9000          0.1075          0.0000        605.7633          0.1859          1.0000          0.5784          0.0000          0.0783
      4335.0000          0.1109          0.0000        677.7174          0.1841          1.0000          0.6026          0.0000          0.0713
      4335.1000          0.1103          0.0000        533.0260          0.1851          1.0000          0.5958          0.0000          0.0838
      4335.2000          0.1072          0.0000        508.6743          0.1873          1.0000          0.5723          0.0000          0.0880
      4335.3000          0.1081          0.0000        627.2940          0.1909          1.0000          0.5660          0.0000          0.0811
      4335.4000          0.1074          0.0000        585.8029          0.1919          1.0000          0.5597          0.0000          0.0852
      4335.5000          0.1045          0.0000        571.9334          0.1904          1.0000          0.5486          0.0000          0.0851
      4335.6000          0.1031          0.0000        445.0379          0.1874          1.0000          0.5503          0.0000          0.0945
      4335.7000          0.1013          0.0000        438.5193          0.1838          1.0000          0.5510          0.0000          0.0921
      4335.8000          0.0994          0.0000        429.2003          0.1805          1.0000          0.5504          0.0000          0.0902
      4335.9000          0.0976          0.0000        443.7285          0.1809          1.0000          0.5396          0.0000          0.0889
      4336.0000          0.0970          0.0000        462.6491          0.1852          1.0000          0.5240          0.0000          0.0907
      4336.1000          0.0959          0.0000        435.2310          0.1892          1.0000          0.5069          0.0000          0.0972
      4336.2000          0.0940          0.0000        494.0081          0.1941          1.0000          0.4844          0.0000          0.0955
      4336.3000          0.0930          0.0000        497.1645          0.1966          1.0000          0.4732          0.0000          0.0974
      4336.4000          0.0930          0.0000        480.2105          0.1969          1.0000          0.4722          0.0000          0.0993
      4336.5000          0.0935          0.0000        616.5546          0.1975          1.0000          0.4736          0.0000          0.0877
      4336.6000          0.0934          0.0000        463.2338          0.1984          1.0000          0.4705          0.0000          0.1024
      4336.7000          0.0930          0.0000        462.6184          0.1995          1.0000          0.4658          0.0000          0.1035
      4336.8000          0.0916          0.0000        535.6413          0.2013          1.0000          0.4550          0.0000          0.0980
      4336.9000          0.0911          0.0000        634.6000          0.2019          1.0000          0.4514          0.0000          0.0903
      4337.0000          0.0887          0.0000        686.4722          0.2027          1.0000          0.4377          0.0000          0.0872
      4337.1000          0.0868          0.0000        616.2579          0.2039          1.0000          0.4259          0.0000          0.0935
      4337.2000          0.0855          0.0000        700.8051          0.2051          1.0000          0.4169          0.0000          0.0883
      4337.3000          0.0852          0.0000        580.4510          0.2058          1.0000          0.4138          0.0000          0.0980
      4337.4000          0.0852          0.0000        573.9276          0.2052          1.0000          0.4153          0.0000          0.0981
      4337.5000          0.0860          0.0000        783.4040          0.2053          1.0000          0.4187          0.0000          0.0832
      4337.6000          0.0848          0.0000        916.1597          0.2054          1.0000          0.4129          0.0000          0.0757
      4337.7000          0.0845          0.0000        933.6963          0.2063          1.0000          0.4098          0.0000          0.0755
      4337.8000          0.0848          0.0000        731.5101          0.2068          1.0000          0.4100          0.0000          0.0878
      4337.9000          0.0837          0.0000        833.7799          0.2079          1.0000          0.4023          0.0000          0.0825
      4338.0000          0.0833          0.0000        782.4406          0.2089          1.0000          0.3988          0.0000          0.0864
      4338.1000          0.0830          0.0000        767.3415          0.2084          1.0000          0.3982          0.0000          0.0869
      4338.2000          0.0827          0.0000        816.8292          0.2069          1.0000          0.3998          0.0000          0.0825
      4338.3000          0.0826          0.0000        895.6068          0.2049          1.0000          0.4031          0.0000          0.0763
      4338.4000          0.0829          0.0000        997.5957          0.2057          1.0000          0.4030          0.0000          0.0718
      4338.5000          0.0835          0.0000        785.2514          0.2066          1.0000          0.4044          0.0000          0.0842
