~Version Information
VERS.                     2.0: CWLS log ASCII Standard Version 2.00
WRAP.                      NO: One line per depth step

~Well Information Block
#MNEM.UNIT                 Value                       Information
#------------              -----                       -----------
STRT.M                   3204.0000                    :START
STOP.M                   3464.9000                    :STOP
STEP.M                      0.1000                    :STEP
NULL.                     -999.25                     :NULL VALUE
COMP.         Statoil Petroleum                       :Company
WELL.         15/9-F-1 B                              :Well
FLD .         VOLVE                                   :Field
LOC .         Maersk Inspirer                         :Location
PROV.                                                 :Province
CNTY.                                                 :County
STATE.                                                 :State
CTRY.                                                 :Country
DATE.                                                 :Log Date
SRVC.                                                 :Service Company
UWI .                                                 :Unique Well Identifier
API .                                                 :API Number
LATI.         058 26' 29.907" N    DMS                :Latitude
LONG.         001 53' 14.708" E    DMS                :Longtitude
PD  .         MSL                                     :Permanent Datum
ELZ .M                 0.0000                         :Elev. Log Zero

~Curve Information
#MNEM   .UNIT             API CODE Curve Description
#------------             -------- -----------------
DEPTH   .M            00 001 00 00:   0  Depth
BVW     .V/V          00 000 00 00:   1  Bulk Volume Water
CARB_FLAG.V/V         00 000 00 00:   2  Carbonate Flag
COAL_FLAG.UNITLESS    00 000 00 00:   3  Coal flag
KLOGH   .mD           00 000 00 00:   4  Calculated Horizontal PERMEABILITY from logs
PHIF    .V/V          00 000 00 00:   5  Final Porosity
SAND_FLAG.UNITLESS    00 000 00 00:   6  Sand Flag
SW      .V/V          00 000 00 00:   7  Water Saturation
VCARB   .V/V          00 000 00 00:   8  VCARB
VSH     .V/V          00 000 00 00:   9  Volume of Shale

~Parameter Information
#MNEM.UNIT       Value           Description
#------------    -----           -----------
HLD .         Terms and Conditions.:Header Legal Disclaimer
RUN .         1                 :Run number

~Other Information
PETROPHYSICAL INTERPRETATION: OUTPUT

# --- LOG MNEMONICS AND UNITS ---
#Depth          BVW             CARB_FLAG       COAL_FLAG       KLOGH           PHIF            SAND_FLAG       SW              VCARB           VSH            
#M              V/V             V/V             UNITLESS        mD              V/V             UNITLESS        V/V             V/V             V/V            

~A
# ...
      3339.0000          0.0800          0.0000          0.0000          0.1049          0.0800          0.0000          1.0000          0.1271          0.2697
      3339.1000          0.0755          0.0000          0.0000          0.0803          0.0755          0.0000          1.0000          0.1603          0.2554
      3339.2000          0.0739          0.0000          0.0000          0.0675          0.0739          0.0000          1.0000          0.1510          0.2675
      3339.3000          0.0767          0.0000          0.0000          0.0715          0.0767          0.0000          1.0000          0.1041          0.2997
      3339.4000          0.0818          0.0000          0.0000          0.0888          0.0818          0.0000          1.0000          0.0516          0.3350
      3339.5000          0.0854          0.0000          0.0000          0.1166          0.0854          0.0000          1.0000          0.0422          0.3335
      3339.6000          0.0855          0.0000          0.0000          0.1200          0.0855          0.0000          1.0000          0.0470          0.3282
      3339.7000          0.0815          0.0000          0.0000          0.0945          0.0815          0.0000          1.0000          0.0704          0.3169
      3339.8000          0.0751          0.0000          0.0000          0.0547          0.0751          0.0000          1.0000          0.0737          0.3331
      3339.9000          0.0685          0.0000          0.0000          0.0314          0.0685          0.0000          1.0000          0.0802          0.3470
      3340.0000          0.0641          0.0000          0.0000          0.0237          0.0641          0.0000          1.0000          0.1028          0.3383
      3340.1000          0.0630          0.0000          0.0000          0.0254          0.0630          0.0000          1.0000          0.1429          0.3057
      3340.2000          0.0645          0.0000          0.0000          0.0337          0.0645          0.0000          1.0000          0.1831          0.2686
      3340.3000          0.0667          0.0000          0.0000          0.0467          0.0667          0.0000          1.0000          0.2217          0.2331
      3340.4000          0.0686          0.0000          0.0000          0.0629          0.0686          0.0000          1.0000          0.2644          0.1979
      3340.5000          0.0703          0.0000          0.0000          0.0771          0.0703          0.0000          1.0000          0.2822          0.1811
      3340.6000          0.0727          0.0000          0.0000          0.0880          0.0727          0.0000          1.0000          0.2568          0.1915
      3340.7000          0.0763          0.0000          0.0000          0.1003          0.0763          0.0000          1.0000          0.2031          0.2200
      3340.8000          0.0790          0.0000          0.0000          0.1127          0.0790          0.0000          1.0000          0.1701          0.2375
      3340.9000          0.0790          0.0000          0.0000          0.1069          0.0790          0.0000          1.0000          0.1542          0.2500
      3341.0000          0.0775          0.0000          0.0000          0.0907          0.0775          0.0000          1.0000          0.1464          0.2609
      3341.1000          0.0776          0.0000          0.0000          0.0916          0.0776          0.0000          1.0000          0.1461          0.2607
      3341.2000          0.0814          0.0000          0.0000          0.1283          0.0814          0.0000          1.0000          0.1472          0.2487
      3341.3000          0.0881          0.0000          0.0000          0.2262          0.0881          0.0000          1.0000          0.1444          0.2317
      3341.4000          0.0962          0.0000          0.0000          0.4448          0.0962          0.0000          1.0000          0.1359          0.2147
      3341.5000          0.1054          0.0000          0.0000          0.9322          0.1054          1.0000          1.0000          0.1175          0.2021
      3341.6000          0.1150          0.0000          0.0000          1.9346          0.1150          1.0000          1.0000          0.0888          0.1972
      3341.7000          0.1230          0.0000          0.0000          3.4081          0.1230          1.0000          1.0000          0.0550          0.2022
      3341.8000          0.1266          0.0000          0.0000          4.1271          0.1266          1.0000          1.0000          0.0270          0.2173
      3341.9000          0.1246          0.0000          0.0000          3.5938          0.1246          1.0000          1.0000          0.0346          0.2163
      3342.0000          0.1187          0.0000          0.0000          2.1863          0.1187          1.0000          1.0000          0.0410          0.2291
      3342.1000          0.1118          0.0000          0.0000          1.2546          0.1118          1.0000          1.0000          0.0524          0.2400
      3342.2000          0.1065          0.0000          0.0000          0.7965          0.1065          1.0000          1.0000          0.0568          0.2527
      3342.3000          0.1031          0.0000          0.0000          0.6011          0.1031          1.0000          1.0000          0.0595          0.2605
      3342.4000          0.0998          0.0000          0.0000          0.4518          0.0998          0.0000          1.0000          0.0618          0.2689
      3342.5000          0.0978          0.0000          0.0000          0.3937          0.0978          0.0000          1.0000          0.0694          0.2676
      3342.6000          0.0978          0.0000          0.0000          0.4050          0.0978          0.0000          1.0000          0.0760          0.2615
      3342.7000          0.0994          0.0000          0.0000          0.4530          0.0994          0.0000          1.0000          0.0693          0.2628
      3342.8000          0.1007          0.0000          0.0000          0.4866          0.1007          1.0000          1.0000          0.0592          0.2683
      3342.9000          0.1007          0.0000          0.0000          0.4332          0.1007          1.0000          1.0000          0.0339          0.2936
      3343.0000          0.0991          0.0000          0.0000          0.3554          0.0991          0.0000          1.0000          0.0234          0.3100
      3343.1000          0.0965          0.0000          0.0000          0.2813          0.0965          0.0000          1.0000          0.0232          0.3187
      3343.2000          0.0938          0.0000          0.0000          0.2098          0.0938          0.0000          1.0000          0.0115          0.3404
      3343.3000          0.0926          0.0000          0.0000          0.1817          0.0926          0.0000          1.0000          0.0055          0.3515
      3343.4000          0.0926          0.0000          0.0000          0.1691          0.0926          0.0000          1.0000          0.0000          0.3670
      3343.5000          0.0918          0.0000          0.0000          0.1642          0.0918          0.0000          1.0000          0.0001          0.3606
      3343.6000          0.0878          0.0000          0.0000          0.1285          0.0878          0.0000          1.0000          0.0204          0.3499
      3343.7000          0.0792          0.0000          0.0000          0.0788          0.0792          0.0000          1.0000          0.0756          0.3189
      3343.8000          0.0677          0.0000          0.0000          0.0371          0.0677          0.0000          1.0000          0.1355          0.2985
      3343.9000          0.0564          0.0000          0.0000          0.0182          0.0564          0.0000          1.0000          0.2079          0.2722
