~Version Information
VERS.                     2.0: CWLS log ASCII Standard Version 2.00
WRAP.                      NO: One line per depth step

~Well Information Block
#MNEM.UNIT                 Value                       Information
#------------              -----                       -----------
STRT.M                   3358.0000                    :START
STOP.M                   3681.9000                    :STOP
STEP.M                      0.1000                    :STEP
NULL.                     -999.25                     :NULL VALUE
COMP.         Statoil Petroleum AS                    :Company
WELL.         15/9-F-1 A                              :Well
FLD .         VOLVE                                   :Field
LOC .         Maersk Inspirer                         :Location
PROV.                                                 :Province
CNTY.         Unused                                  :County
STATE.                                                 :State
CTRY.                                                 :Country
DATE.                                                 :Log Date
SRVC.                                                 :Service Company
UWI .                                                 :Unique Well Identifier
API .                                                 :API Number
LATI.         058 26' 29.907" N    DMS                :Latitude
LONG.         001 53' 14.708" E    DMS                :Longtitude
PD  .         MSL                                     :Permanent Datum
ELZ .M                 0.0000                         :Elev. Log Zero

~Curve Information
#MNEM   .UNIT             API CODE Curve Description
#------------             -------- -----------------
DEPTH   .M            00 001 00 00:   0  Depth
BVW     .V/V          00 000 00 00:   1  Bound Volume Water
COAL_FLAG.unitless    00 000 00 00:   2  Coal Flag
KLOGH   .mD           00 000 00 00:   3  Calculated Horizontal PERMEABILITY from logs
PHIF    .V/V          00 000 00 00:   4  Final porosity
SAND_FLAG.unitless    00 000 00 00:   5  Sand Flag
SW      .V/V          00 000 00 00:   6  Water Saturation (Archie)
VCARB   .V/V          00 000 00 00:   7  IFC(CARB_FLAG>0.5,1-VSH, VCARB)
VSH     .V/V          00 000 00 00:   8  Volume of Shale

~Parameter Information
#MNEM.UNIT       Value           Description
#------------    -----           -----------
HLD .         Terms and Conditions.:Header Legal Disclaimer
RUN .         1                 :Run number

~Other Information
PETROPHYSICAL INTERPRETATION: OUTPUT

# --- LOG MNEMONICS AND UNITS ---
#Depth          BVW             COAL_FLAG       KLOGH           PHIF            SAND_FLAG       SW              VCARB           VSH            
#M              V/V             unitless        mD              V/V             unitless        V/V             V/V             V/V            

~A
# ...
      3565.2000          0.0984          0.0000          0.1447          0.0984          0.0000          1.0000          0.1054          0.2336
      3565.3000          0.0964          0.0000          0.1127          0.0964          0.0000          1.0000          0.0841          0.2585
      3565.4000          0.0980          0.0000          0.1192          0.0980          0.0000          1.0000          0.0776          0.2596
      3565.5000          0.1022          0.0000          0.1466          0.1022          1.0000          1.0000          0.0697          0.2539
      3565.6000          0.1056          0.0000          0.1690          0.1056          1.0000          1.0000          0.0594          0.2530
      3565.7000          0.1042          0.0000          0.1583          0.1042          1.0000          1.0000          0.0628          0.2542
      3565.8000          0.0969          0.0000          0.0998          0.0969          0.0000          1.0000          0.0608          0.2788
      3565.9000          0.0860          0.0000          0.0456          0.0860          0.0000          1.0000          0.0447          0.3291
      3566.0000          0.0763          0.0000          0.0228          0.0763          0.0000          1.0000          0.0322          0.3732
      3566.1000          0.0710          0.0000          0.0139          0.0710          0.0000          1.0000          0.0125          0.4138
      3566.2000          0.0702          0.0000          0.0126          0.0702          0.0000          1.0000          0.0071          0.4234
      3566.3000          0.0717          0.0000          0.0164          0.0717          0.0000          1.0000          0.0263          0.3946
      3566.4000          0.0737          0.0000          0.0146          0.0737          0.0000          1.0000          0.0000          0.4226
      3566.5000          0.0755          0.0000          0.0126          0.0755          0.0000          1.0000          0.0000          0.4545
      3566.6000          0.0768          0.0000          0.0130          0.0768          0.0000          1.0000          0.0000          0.4577
      3566.7000          0.0767          0.0000          0.0136          0.0767          0.0000          1.0000          0.0000          0.4504
      3566.8000          0.0743          0.0000          0.0140          0.0743          0.0000          1.0000          0.0000          0.4323
      3566.9000          0.0696          0.0000          0.0156          0.0696          0.0000          1.0000          0.0369          0.3894
      3567.0000          0.0640          0.0000          0.0171          0.0640          0.0000          1.0000          0.0976          0.3436
      3567.1000          0.0602          0.0000          0.0184          0.0602          0.0000          1.0000          0.1460          0.3111
      3567.2000          0.0604          0.0000          0.0251          0.0604          0.0000          1.0000          0.2005          0.2667
      3567.3000          0.0644          0.0000          0.0368          0.0644          0.0000          1.0000          0.2281          0.2349
      3567.4000          0.0704          0.0000          0.0561          0.0704          0.0000          1.0000          0.2411          0.2089
      3567.5000          0.0760          0.0000          0.0816          0.0760          0.0000          1.0000          0.2503          0.1869
      3567.6000          0.0792          0.0000          0.0968          0.0792          0.0000          1.0000          0.2466          0.1807
      3567.7000          0.0806          0.0000          0.1060          0.0809          0.0000          0.9963          0.2438          0.1776
      3567.8000          0.0793          0.0000          0.1084          0.0838          0.0000          0.9462          0.2138          0.1909
      3567.9000          0.0791          0.0000          0.1142          0.0903          0.0000          0.8765          0.1496          0.2210
      3568.0000          0.0841          0.0000          0.1214          0.1001          1.0000          0.8404          0.0608          0.2689
      3568.1000          0.0937          0.0000          0.1524          0.1106          1.0000          0.8475          0.0007          0.2972
      3568.2000          0.1032          0.0000          0.1773          0.1187          1.0000          0.8687          0.0000          0.3225
      3568.3000          0.1132          0.0000          0.1722          0.1234          1.0000          0.9172          0.0000          0.3536
      3568.4000          0.1205          0.0000          0.1709          0.1261          1.0000          0.9557          0.0000          0.3705
      3568.5000          0.1271          0.0000          0.1993          0.1283          1.0000          0.9909          0.0000          0.3610
      3568.6000          0.1294          0.0000          0.2405          0.1294          1.0000          1.0000          0.0000          0.3402
      3568.7000          0.1265          0.0000          0.2675          0.1265          1.0000          1.0000          0.0000          0.3079
      3568.8000          0.1236          0.0000          0.2803          0.1236          1.0000          1.0000          0.0000          0.2841
      3568.9000          0.1154          0.0000          0.2265          0.1154          1.0000          1.0000          0.0137          0.2674
      3569.0000          0.1036          0.0000          0.1817          0.1036          1.0000          1.0000          0.0900          0.2311
      3569.1000          0.0897          0.0000          0.1211          0.0897          0.0000          1.0000          0.1669          0.2091
      3569.2000          0.0756          0.0000          0.0713          0.0756          0.0000          1.0000          0.2277          0.2040
      3569.3000          0.0642          0.0000          0.0514          0.0642          0.0000          1.0000          0.3017          0.1850
      3569.4000          0.0572          0.0000          0.0403          0.0572          0.0000          1.0000          0.3394          0.1797
      3569.5000          0.0542          0.0000          0.0336          0.0542          0.0000          1.0000          0.3382          0.1885
      3569.6000          0.0523          0.0000          0.0290          0.0523          0.0000          1.0000          0.3290          0.1993
      3569.7000          0.0489          0.0000          0.0254          0.0489          0.0000          1.0000          0.3440          0.1988
      3569.8000          0.0430          0.0000          0.0216          0.0430          0.0000          1.0000          0.3865          0.1882
      3569.9000          0.0352          0.0000          0.0165          0.0352          0.0000          1.0000          0.4320          0.1816
      3570.0000          0.0265          0.0000          0.0111          0.0265          0.0000          1.0000          0.4590          0.1885
      3570.1000          0.0200          0.0000          0.0078          0.0200          0.0000          1.0000          0.4643          0.2021
      3570.2000          0.0200          0.0000          0.0082          0.0200          0.0000          1.0000          0.4788          0.1939
      3570.3000          0.0200          0.0000          0.0080          0.0200          0.0000          1.0000          0.4706          0.1985
      3570.4000          0.0307          0.0000          0.0106          0.0307          0.0000          1.0000          0.3875          0.2198
      3570.5000          0.0559          0.0000          0.0273          0.0559          0.0000          1.0000          0.2699          0.2288
      3570.6000          0.0834          0.0000          0.0784          0.0834          0.0000          1.0000          0.1565          0.2355
      3570.7000          0.1016          0.0000          0.1672          0.1044          1.0000          0.9730          0.0686          0.2479
