~Version Information
VERS.                     2.0: CWLS log ASCII Standard Version 2.00
WRAP.                      NO: One line per depth step

~Well Information Block
#MNEM.UNIT                 Value                       Information
#------------              -----                       -----------
STRT.M                    3575.000                    :START
STOP.M                    3761.800                    :STOP
STEP.M                       0.100                    :STEP
NULL.                     -999.25                     :NULL VALUE
COMP.         Statoil Petroleum AS                    :Company
WELL.         15/9-F-11 A                             :Well
FLD .         VOLVE                                   :Field
LOC .         Maersk Inspirer                         :Location
PROV.                                                 :Province
CNTY.                                                 :County
STATE.                                                 :State
CTRY.         Norway                                  :Country
DATE.                                                 :Log Date
SRVC.                                                 :Service Company
UWI .                                                 :Unique Well Identifier
API .                                                 :API Number
LATI.         058 26' 29.956" N    DMS                :Latitude
LONG.         001 53' 14.866" E    DMS                :Longtitude
PD  .         MSL                                     :Permanent Datum
EDF .M            54.900                              :Elevations D.F.
EGL .M           -91.000                              :Elevations G.L.
ELZ .M            54.900                              :Elev. Log Zero
LMF .         DF                                      :Log Measured From

~Curve Information
#MNEM   .UNIT             API CODE Curve Description
#------------             -------- -----------------
DEPTH   .M            00 001 00 00:   0  Depth
BVW     .v/v          00 000 00 00:   1  BVW:CPI:rC:NONE:v1
CARB_FLAG.UNKNOWN     00 000 00 00:   2  CARB_FLAG:CPI:rC:NONE:v1
COAL_FLAG.UNKNOWN     00 000 00 00:   3  COAL_FLAG:CPI:rC:NONE:v1
KLOGH   .mD           00 000 00 00:   4  KLOGH:CPI:rC:NONE:v1
PHIF    .v/v          00 000 00 00:   5  PHIF:CPI:rC:NONE:v1
SAND_FLAG.UNKNOWN     00 000 00 00:   6  SAND_FLAG:CPI:rC:NONE:v1
SW      .v/v          00 000 00 00:   7  SW:CPI:rC:NONE:v1
VSH     .v/v          00 000 00 00:   8  VSH:CPI:rC:NONE:v1

~Parameter Information
#MNEM.UNIT       Value           Description
#------------    -----           -----------
RUN .         1                 :Run number

~Other Information
PETROPHYSICAL_INTERPRETATION: OUTPUT

# --- LOG MNEMONICS AND UNITS ---
#Depth     BVW        CARB_FLAG  COAL_FLAG  KLOGH      PHIF       SAND_FLAG  SW         VSH       
#M         v/v        UNKNOWN    UNKNOWN    mD         v/v        UNKNOWN    v/v        v/v       

~A
# ...
  3704.600      0.093      0.000      0.000      2.787      0.118      1.000      0.785      0.164
  3704.700      0.093      0.000      0.000      2.287      0.116      1.000      0.802      0.175
  3704.800      0.093      0.000      0.000      1.682      0.113      1.000      0.826      0.196
  3704.900      0.094      0.000      0.000      1.252      0.110      1.000      0.859      0.209
  3705.000      0.090      0.000      0.000      1.042      0.108      1.000      0.833      0.216
  3705.100      0.080      0.000      0.000      0.999      0.108      1.000      0.748      0.221
  3705.200      0.075      0.000      0.000      1.088      0.108      1.000      0.691      0.213
  3705.300      0.074      0.000      0.000      1.236      0.109      1.000      0.682      0.198
  3705.400      0.080      0.000      0.000      1.297      0.109      1.000      0.733      0.189
  3705.500      0.086      0.000      0.000      1.280      0.108      1.000      0.796      0.179
  3705.600      0.088      0.000      0.000      1.231      0.108      1.000      0.818      0.176
  3705.700      0.090      0.000      0.000      1.324      0.108      1.000      0.833      0.166
  3705.800      0.092      0.000      0.000      1.528      0.109      1.000      0.842      0.159
  3705.900      0.092      0.000      0.000      1.606      0.111      1.000      0.832      0.164
  3706.000      0.093      0.000      0.000      1.384      0.109      1.000      0.850      0.178
  3706.100      0.093      0.000      0.000      1.013      0.105      1.000      0.878      0.186
  3706.200      0.089      0.000      0.000      0.608      0.100      1.000      0.895      0.206
  3706.300      0.086      0.000      0.000      0.315      0.093      0.000      0.931      0.231
  3706.400      0.082      0.000      0.000      0.142      0.083      0.000      0.988      0.258
  3706.500      0.073      0.000      0.000      0.059      0.073      0.000      1.000      0.286
  3706.600      0.064      0.000      0.000      0.028      0.064      0.000      1.000      0.295
  3706.700      0.057      0.000      0.000      0.016      0.057      0.000      1.000      0.317
  3706.800      0.054      0.000      0.000      0.011      0.054      0.000      1.000      0.353
  3706.900      0.054      0.000      0.000      0.010      0.054      0.000      1.000      0.361
  3707.000      0.054      0.000      0.000      0.009      0.054      0.000      1.000      0.394
  3707.100      0.054      0.000      0.000      0.008      0.054      0.000      1.000      0.417
  3707.200      0.056      0.000      0.000      0.009      0.056      0.000      1.000      0.407
  3707.300      0.058      0.000      0.000      0.012      0.058      0.000      1.000      0.387
  3707.400      0.062      0.000      0.000      0.019      0.062      0.000      1.000      0.353
  3707.500      0.067      1.000      0.000      0.032      0.067      0.000      1.000      0.322
  3707.600      0.073      1.000      0.000      0.054      0.073      0.000      1.000      0.310
  3707.700      0.080      1.000      0.000      0.081      0.080      0.000      1.000      0.323
  3707.800      0.082      1.000      0.000      0.099      0.084      0.000      0.978      0.349
  3707.900      0.077      1.000      0.000      0.105      0.085      0.000      0.900      0.354
  3708.000      0.071      1.000      0.000      0.086      0.083      0.000      0.857      0.361
  3708.100      0.068      1.000      0.000      0.055      0.078      0.000      0.880      0.370
  3708.200      0.069      1.000      0.000      0.032      0.070      0.000      0.980      0.367
  3708.300      0.065      1.000      0.000      0.023      0.065      0.000      1.000      0.352
  3708.400      0.063      1.000      0.000      0.021      0.063      0.000      1.000      0.351
  3708.500      0.066      1.000      0.000      0.025      0.066      0.000      1.000      0.350
  3708.600      0.070      1.000      0.000      0.039      0.070      0.000      1.000      0.319
  3708.700      0.076      0.000      0.000      0.059      0.076      1.000      1.000      0.324
  3708.800      0.083      0.000      0.000      0.091      0.083      1.000      1.000      0.343
  3708.900      0.089      0.000      0.000      0.133      0.089      1.000      1.000      0.365
  3709.000      0.088      0.000      0.000      0.161      0.094      1.000      0.936      0.395
  3709.100      0.087      0.000      0.000      0.204      0.096      1.000      0.902      0.386
  3709.200      0.092      0.000      0.000      0.250      0.098      1.000      0.933      0.375
  3709.300      0.101      0.000      0.000      0.309      0.101      1.000      1.000      0.368
  3709.400      0.104      0.000      0.000      0.439      0.104      1.000      1.000      0.347
  3709.500      0.110      0.000      0.000      0.745      0.110      1.000      1.000      0.325
  3709.600      0.119      0.000      0.000      1.448      0.119      1.000      1.000      0.316
  3709.700      0.128      0.000      0.000      2.756      0.128      1.000      1.000      0.330
  3709.800      0.135      0.000      0.000      3.678      0.135      1.000      1.000      0.382
  3709.900      0.137      0.000      0.000      3.308      0.137      1.000      1.000      0.431
  3710.000      0.131      0.000      0.000      2.115      0.133      1.000      0.988      0.463
  3710.100      0.117      0.000      0.000      1.255      0.125      1.000      0.932      0.458
  3710.200      0.109      0.000      0.000      0.657      0.117      1.000      0.927      0.470
  3710.300      0.109      0.000      0.000      0.384      0.111      1.000      0.986      0.481
  3710.400      0.106      0.000      0.000      0.282      0.106      1.000      1.000      0.479
  3710.500      0.105      0.000      0.000      0.272      0.105      1.000      1.000      0.456
  3710.600      0.100      0.000      0.000      0.343      0.105      1.000      0.956      0.408
  3710.700      0.099      0.000      0.000      0.479      0.106      1.000      0.934      0.360
  3710.800      0.101      0.000      0.000      0.713      0.108      1.000      0.936      0.308
  3710.900      0.107      0.000      0.000      0.897      0.110      1.000      0.970      0.286
  3711.000      0.111      0.000      0.000      1.070      0.111      1.000      1.000      0.268
  3711.100      0.113      0.000      0.000      1.235      0.113      1.000      1.000      0.269
  3711.200      0.117      0.000      0.000      1.662      0.117      1.000      1.000      0.270
  3711.300      0.123      0.000      0.000      2.471      0.123      1.000      1.000      0.272
  3711.400      0.128      0.000      0.000      3.474      0.128      1.000      1.000      0.274
  3711.500      0.130      0.000      0.000      3.674      0.130      1.000      1.000      0.301
  3711.600      0.128      0.000      0.000      2.760      0.129      1.000      0.992      0.346
  3711.700      0.107      0.000      0.000      1.470      0.123      1.000      0.867      0.391
  3711.800      0.096      0.000      0.000      0.524      0.112      1.000      0.855      0.435
  3711.900      0.092      0.000      0.000      0.137      0.097      1.000      0.953      0.482
  3712.000      0.081      0.000      0.000      0.029      0.081      0.000      1.000      0.559
  3712.100      0.067      0.000      0.000      0.007      0.067      0.000      1.000      0.658
  3712.200      0.056      0.000      0.000      0.002      0.056      0.000      1.000      0.766
  3712.300      0.048      0.000      0.000      0.001      0.048      0.000      1.000      0.843
  3712.400      0.042      0.000      0.000      0.001      0.042      0.000      1.000      0.916
  3712.500      0.036      0.000      0.000      0.001      0.036      0.000      1.000      0.933
  3712.600      0.032      0.000      0.000      0.001      0.032      0.000      1.000      0.923
