~Version Information
VERS.                     2.0: CWLS log ASCII Standard Version 2.00
WRAP.                      NO: One line per depth step

~Well Information Block
#MNEM.UNIT                 Value                       Information
#------------              -----                       -----------
STRT.M                   3465.0000                    :START
STOP.M                   4684.7000                    :STOP
STEP.M                      0.1000                    :STEP
NULL.                     -999.25                     :NULL VALUE
COMP.         STATOIL PETROLEUM AS                    :Company
WELL.         15/9-F-15 D                             :Well
FLD .         VOLVE                                   :Field
LOC .                                                 :Location
PROV.                                                 :Province
CNTY.         MAERSK INSPIRER                         :County
STATE.                                                 :State
CTRY.         NORWAY                                  :Country
DATE.                                                 :Log Date
SRVC.                                                 :Service Company
UWI .                                                 :Unique Well Identifier
API .                                                 :API Number
LATI.         058 26' 29.706" N    DMS                :Latitude
LONG.         001 53' 15.149" E    DMS                :Longtitude
PD  .         MSL                                     :Permanent Datum
EDF .M                54.9000                         :Elevations D.F.
EGL .M               -91.0000                         :Elevations G.L.
ELZ .M                54.9000                         :Elev. Log Zero
LMF .         DF                                      :Log Measured From
MP  .         DF                                      :Drill Measured From

~Curve Information
#MNEM   .UNIT             API CODE Curve Description
#------------             -------- -----------------
DEPTH   .M            00 001 00 00:   0  Depth
BVW     .v/v          00 000 00 00:   1  BVW:CPI:rC:0001:v1
COAL_FLAG.unitless    00 000 00 00:   2  COAL_FLAG:CPI:rC:0001:v1
KLOGH   .mD           00 000 00 00:   3  KLOGH:CPI:rC:0001:v1
PHIF    .v/v          00 000 00 00:   4  PHIF:CPI:rC:0001:v1
SAND_FLAG.unitless    00 000 00 00:   5  SAND_FLAG:CPI:rC:0001:v1
SW      .v/v          00 000 00 00:   6  SW:CPI:rC:0001:v1
VCARB   .v/v          00 000 00 00:   7  VCARB:CPI:rC:0001:v1
VSH     .v/v          00 000 00 00:   8  VSH:CPI:rC:0001:v1

~Parameter Information
#MNEM.UNIT       Value           Description
#------------    -----           -----------
RUN .         .                 :Run Number

~Other Information
PETROPHYSICAL INTERPRETATION: OUTPUT

# --- LOG MNEMONICS AND UNITS ---
#Depth          BVW             COAL_FLAG       KLOGH           PHIF            SAND_FLAG       SW              VCARB           VSH            
#M              v/v             unitless        mD              v/v             unitless        v/v             v/v             v/v            

~A
# ...
      4019.4000          0.0430          0.0000          0.3746          0.1935          1.0000          0.2222          0.0000          0.4416
      4019.5000          0.0429          0.0000          0.4899          0.1945          1.0000          0.2207          0.0000          0.4295
      4019.6000          0.0427          0.0000          0.7448          0.1942          1.0000          0.2200          0.0000          0.4091
      4019.7000          0.0423          0.0000          1.8149          0.1930          1.0000          0.2190          0.0000          0.3650
      4019.8000          0.0421          0.0000          1.8903          0.1909          1.0000          0.2208          0.0000          0.3612
      4019.9000          0.0419          0.0000          2.4279          0.1880          1.0000          0.2228          0.0000          0.3465
      4020.0000          0.0413          0.0000          5.8266          0.1853          1.0000          0.2231          0.0000          0.3019
      4020.1000          0.0414          0.0000          6.6909          0.1848          1.0000          0.2239          0.0000          0.2948
      4020.2000          0.0417          0.0000          5.8007          0.1872          1.0000          0.2227          0.0000          0.3038
      4020.3000          0.0420          0.0000          7.0739          0.1923          1.0000          0.2184          0.0000          0.2988
      4020.4000          0.0424          0.0000          8.5978          0.1988          1.0000          0.2132          0.0000          0.2951
      4020.5000          0.0429          0.0000          8.1750          0.2063          1.0000          0.2081          0.0000          0.3042
      4020.6000          0.0433          0.0000         11.7092          0.2147          1.0000          0.2018          0.0000          0.2944
      4020.7000          0.0438          0.0000         10.1110          0.2207          1.0000          0.1986          0.0000          0.3067
      4020.8000          0.0441          0.0000          7.9650          0.2236          1.0000          0.1971          0.0000          0.3208
      4020.9000          0.0441          0.0000          9.3368          0.2260          1.0000          0.1953          0.0000          0.3153
      4021.0000          0.0442          0.0000          8.5354          0.2264          1.0000          0.1951          0.0000          0.3200
      4021.1000          0.0442          0.0000          7.2538          0.2253          1.0000          0.1962          0.0000          0.3269
      4021.2000          0.0439          0.0000          6.3303          0.2190          1.0000          0.2006          0.0000          0.3278
      4021.3000          0.0436          0.0000          6.2616          0.2129          1.0000          0.2050          0.0000          0.3229
      4021.4000          0.0434          0.0000          6.1879          0.2078          1.0000          0.2087          0.0000          0.3190
      4021.5000          0.0431          0.0000          7.6724          0.2051          1.0000          0.2103          0.0000          0.3062
      4021.6000          0.0431          0.0000          7.9146          0.2055          1.0000          0.2100          0.0000          0.3051
      4021.7000          0.0433          0.0000          8.0750          0.2078          1.0000          0.2082          0.0000          0.3061
      4021.8000          0.0434          0.0000          8.7029          0.2108          1.0000          0.2058          0.0000          0.3052
      4021.9000          0.0434          0.0000          9.9936          0.2130          1.0000          0.2039          0.0000          0.3005
      4022.0000          0.0434          0.0000         11.1048          0.2139          1.0000          0.2031          0.0000          0.2961
      4022.1000          0.0432          0.0000         20.0819          0.2136          1.0000          0.2022          0.0000          0.2673
      4022.2000          0.0431          0.0000         23.9759          0.2134          1.0000          0.2019          0.0000          0.2586
      4022.3000          0.0431          0.0000         28.3152          0.2156          1.0000          0.2002          0.0000          0.2525
      4022.4000          0.0435          0.0000         18.2689          0.2168          1.0000          0.2007          0.0000          0.2748
      4022.5000          0.0438          0.0000         18.8265          0.2205          1.0000          0.1987          0.0000          0.2766
      4022.6000          0.0441          0.0000         23.0444          0.2258          1.0000          0.1954          0.0000          0.2716
      4022.7000          0.0442          0.0000         43.1916          0.2297          1.0000          0.1924          0.0000          0.2447
      4022.8000          0.0444          0.0000         50.0212          0.2320          1.0000          0.1913          0.0000          0.2396
      4022.9000          0.0447          0.0000         46.5638          0.2354          1.0000          0.1899          0.0000          0.2461
      4023.0000          0.0450          0.0000         48.5362          0.2386          1.0000          0.1885          0.0000          0.2469
      4023.1000          0.0451          0.0000         65.6214          0.2402          1.0000          0.1879          0.0000          0.2338
      4023.2000          0.0453          0.0000         63.2108          0.2393          1.0000          0.1893          0.0000          0.2348
      4023.3000          0.0454          0.0000         59.8357          0.2370          1.0000          0.1915          0.0000          0.2355
      4023.4000          0.0454          0.0000         90.7337          0.2355          1.0000          0.1926          0.0000          0.2140
      4023.5000          0.0456          0.0000        104.8667          0.2365          1.0000          0.1926          0.0000          0.2079
      4023.6000          0.0460          0.0000         94.3559          0.2394          1.0000          0.1919          0.0000          0.2156
      4023.7000          0.0463          0.0000        107.2619          0.2425          1.0000          0.1908          0.0000          0.2122
      4023.8000          0.0465          0.0000        135.4299          0.2442          1.0000          0.1903          0.0000          0.2024
      4023.9000          0.0466          0.0000        173.6178          0.2447          1.0000          0.1905          0.0000          0.1909
      4024.0000          0.0468          0.0000        198.8787          0.2446          1.0000          0.1913          0.0000          0.1843
      4024.1000          0.0471          0.0000        157.5567          0.2446          1.0000          0.1926          0.0000          0.1955
      4024.2000          0.0474          0.0000        123.1095          0.2446          1.0000          0.1939          0.0000          0.2074
      4024.3000          0.0478          0.0000        107.0899          0.2452          1.0000          0.1948          0.0000          0.2146
      4024.4000          0.0479          0.0000         86.1584          0.2468          1.0000          0.1940          0.0000          0.2265
      4024.5000          0.0480          0.0000         79.0049          0.2490          1.0000          0.1926          0.0000          0.2327
      4024.6000          0.0480          0.0000         71.9402          0.2507          1.0000          0.1915          0.0000          0.2387
      4024.7000          0.0479          0.0000         89.2730          0.2511          1.0000          0.1907          0.0000          0.2286
      4024.8000          0.0477          0.0000        105.2018          0.2504          1.0000          0.1906          0.0000          0.2202
      4024.9000          0.0476          0.0000        108.7090          0.2501          1.0000          0.1905          0.0000          0.2183
