~Version Information
VERS.                     2.0: CWLS log ASCII Standard Version 2.00
WRAP.                      NO: One line per depth step

~Well Information Block
#MNEM.UNIT                 Value                       Information
#------------              -----                       -----------
STRT.M                    3575.000                    :START
STOP.M                    3761.800                    :STOP
STEP.M                       0.100                    :STEP
NULL.                     -999.25                     :NULL VALUE
COMP.         Statoil Petroleum AS                    :Company
WELL.         15/9-F-11 A                             :Well
FLD .         VOLVE                                   :Field
LOC .         Maersk Inspirer                         :Location
PROV.                                                 :Province
CNTY.                                                 :County
STATE.                                                 :State
CTRY.         Norway                                  :Country
DATE.                                                 :Log Date
SRVC.                                                 :Service Company
UWI .                                                 :Unique Well Identifier
API .                                                 :API Number
LATI.         058 26' 29.956" N    DMS                :Latitude
LONG.         001 53' 14.866" E    DMS                :Longtitude
PD  .         MSL                                     :Permanent Datum
EDF .M            54.900                              :Elevations D.F.
EGL .M           -91.000                              :Elevations G.L.
ELZ .M            54.900                              :Elev. Log Zero
LMF .         DF                                      :Log Measured From

~Curve Information
#MNEM   .UNIT             API CODE Curve Description
#------------             -------- -----------------
DEPTH   .M            00 001 00 00:   0  Depth
BVW     .v/v          00 000 00 00:   1  BVW:CPI:rC:NONE:v1
CARB_FLAG.UNKNOWN     00 000 00 00:   2  CARB_FLAG:CPI:rC:NONE:v1
COAL_FLAG.UNKNOWN     00 000 00 00:   3  COAL_FLAG:CPI:rC:NONE:v1
KLOGH   .mD           00 000 00 00:   4  KLOGH:CPI:rC:NONE:v1
PHIF    .v/v          00 000 00 00:   5  PHIF:CPI:rC:NONE:v1
SAND_FLAG.UNKNOWN     00 000 00 00:   6  SAND_FLAG:CPI:rC:NONE:v1
SW      .v/v          00 000 00 00:   7  SW:CPI:rC:NONE:v1
VSH     .v/v          00 000 00 00:   8  VSH:CPI:rC:NONE:v1

~Parameter Information
#MNEM.UNIT       Value           Description
#------------    -----           -----------
RUN .         1                 :Run number

~Other Information
PETROPHYSICAL_INTERPRETATION: OUTPUT

# --- LOG MNEMONICS AND UNITS ---
#Depth     BVW        CARB_FLAG  COAL_FLAG  KLOGH      PHIF       SAND_FLAG  SW         VSH       
#M         v/v        UNKNOWN    UNKNOWN    mD         v/v        UNKNOWN    v/v        v/v       

~A
# ...
  3656.000      0.074      0.000      0.000     34.006      0.202      1.000      0.367      0.231
  3656.100      0.074      0.000      0.000     28.007      0.201      1.000      0.369      0.240
  3656.200      0.074      0.000      0.000     25.850      0.200      1.000      0.371      0.243
  3656.300      0.074      0.000      0.000     24.541      0.199      1.000      0.372      0.244
  3656.400      0.074      0.000      0.000     22.070      0.198      1.000      0.372      0.249
  3656.500      0.074      0.000      0.000     23.762      0.198      1.000      0.371      0.246
  3656.600      0.074      0.000      0.000     20.431      0.198      1.000      0.372      0.253
  3656.700      0.074      0.000      0.000     22.377      0.198      1.000      0.371      0.249
  3656.800      0.074      0.000      0.000     23.428      0.199      1.000      0.370      0.247
  3656.900      0.074      0.000      0.000     18.367      0.199      1.000      0.369      0.259
  3657.000      0.073      0.000      0.000     19.771      0.200      1.000      0.366      0.256
  3657.100      0.073      0.000      0.000     22.446      0.201      1.000      0.363      0.251
  3657.200      0.072      0.000      0.000     23.085      0.201      1.000      0.360      0.249
  3657.300      0.072      0.000      0.000     27.155      0.202      1.000      0.354      0.242
  3657.400      0.071      0.000      0.000     25.658      0.204      1.000      0.347      0.247
  3657.500      0.070      0.000      0.000     24.716      0.209      1.000      0.334      0.253
  3657.600      0.069      0.000      0.000     25.083      0.214      1.000      0.320      0.257
  3657.700      0.068      0.000      0.000     27.320      0.220      1.000      0.311      0.258
  3657.800      0.067      0.000      0.000     38.047      0.224      1.000      0.300      0.246
  3657.900      0.066      0.000      0.000     47.047      0.228      1.000      0.292      0.239
  3658.000      0.066      0.000      0.000     69.046      0.232      1.000      0.283      0.224
  3658.100      0.065      0.000      0.000     79.156      0.238      1.000      0.275      0.223
  3658.200      0.065      0.000      0.000     77.524      0.245      1.000      0.268      0.230
  3658.300      0.065      0.000      0.000    115.855      0.251      1.000      0.261      0.216
  3658.400      0.066      0.000      0.000    125.552      0.255      1.000      0.257      0.216
  3658.500      0.065      0.000      0.000    115.160      0.257      1.000      0.255      0.222
  3658.600      0.065      0.000      0.000    145.817      0.256      1.000      0.253      0.209
  3658.700      0.064      0.000      0.000    139.381      0.254      1.000      0.253      0.210
  3658.800      0.064      0.000      0.000     93.371      0.252      1.000      0.254      0.227
  3658.900      0.064      0.000      0.000    114.459      0.251      1.000      0.253      0.217
  3659.000      0.063      0.000      0.000    108.479      0.250      1.000      0.252      0.219
  3659.100      0.063      0.000      0.000     91.881      0.250      1.000      0.251      0.227
  3659.200      0.062      0.000      0.000     95.257      0.248      1.000      0.250      0.223
  3659.300      0.061      0.000      0.000     68.058      0.242      1.000      0.253      0.234
  3659.400      0.060      0.000      0.000     68.199      0.229      1.000      0.263      0.222
  3659.500      0.059      0.000      0.000     43.188      0.209      1.000      0.282      0.227
  3659.600      0.057      0.000      0.000     25.396      0.180      1.000      0.314      0.226
  3659.700      0.051      0.000      0.000     15.933      0.145      1.000      0.350      0.217
  3659.800      0.043      0.000      0.000      9.470      0.104      1.000      0.411      0.206
  3659.900      0.035      1.000      0.000      5.491      0.065      0.000      0.541      0.198
  3660.000      0.029      1.000      0.000      3.678      0.036      0.000      0.809      0.192
  3660.100    -999.25      1.000      0.000    -999.25    -999.25      0.000    -999.25      0.195
  3660.200    -999.25      1.000      0.000    -999.25    -999.25      0.000    -999.25      0.194
  3660.300    -999.25      1.000      0.000    -999.25    -999.25      0.000    -999.25      0.184
  3660.400    -999.25      1.000      0.000    -999.25    -999.25      0.000    -999.25      0.193
  3660.500    -999.25      1.000      0.000    -999.25    -999.25      0.000    -999.25      0.195
  3660.600    -999.25      1.000      0.000    -999.25    -999.25      0.000    -999.25      0.194
  3660.700    -999.25      1.000      0.000    -999.25    -999.25      0.000    -999.25      0.197
  3660.800    -999.25      1.000      0.000    -999.25    -999.25      0.000    -999.25      0.195
  3660.900    -999.25      1.000      0.000    -999.25    -999.25      0.000    -999.25      0.192
  3661.000    -999.25      1.000      0.000    -999.25    -999.25      0.000    -999.25      0.189
  3661.100    -999.25      1.000      0.000    -999.25    -999.25      0.000    -999.25      0.185
  3661.200    -999.25      1.000      0.000    -999.25    -999.25      0.000    -999.25      0.186
  3661.300    -999.25      1.000      0.000    -999.25    -999.25      0.000    -999.25      0.189
  3661.400    -999.25      1.000      0.000    -999.25    -999.25      0.000    -999.25      0.192
  3661.500    -999.25      1.000      0.000    -999.25    -999.25      0.000    -999.25      0.187
  3661.600    -999.25      1.000      0.000    -999.25    -999.25      0.000    -999.25      0.189
  3661.700    -999.25      1.000      0.000    -999.25    -999.25      0.000    -999.25      0.191
  3661.800    -999.25      1.000      0.000    -999.25    -999.25      0.000    -999.25      0.193
  3661.900    -999.25      1.000      0.000    -999.25    -999.25      0.000    -999.25      0.197
  3662.000    -999.25      1.000      0.000    -999.25    -999.25      0.000    -999.25      0.201
  3662.100    -999.25      1.000      0.000    -999.25    -999.25      0.000    -999.25      0.204
  3662.200    -999.25      1.000      0.000    -999.25    -999.25      0.000    -999.25      0.195
  3662.300    -999.25      1.000      0.000    -999.25    -999.25      0.000    -999.25      0.200
  3662.400    -999.25      1.000      0.000    -999.25    -999.25      0.000    -999.25      0.198
  3662.500    -999.25      1.000      0.000    -999.25    -999.25      0.000    -999.25      0.205
  3662.600    -999.25      1.000      0.000    -999.25    -999.25      0.000    -999.25      0.207
  3662.700      0.013      1.000      0.000      1.382      0.013      0.000      1.000      0.218
  3662.800      0.040      1.000      0.000      4.083      0.074      0.000      0.538      0.220
  3662.900      0.046      1.000      0.000      5.525      0.102      0.000      0.449      0.230
  3663.000      0.051      0.000      0.000      8.539      0.132      1.000      0.385      0.236
  3663.100      0.056      0.000      0.000     11.451      0.160      1.000      0.347      0.247
  3663.200      0.058      0.000      0.000     16.857      0.183      1.000      0.319      0.248
  3663.300      0.061      0.000      0.000     20.437      0.199      1.000      0.307      0.254
  3663.400      0.064      0.000      0.000     13.489      0.212      1.000      0.303      0.285
  3663.500      0.066      0.000      0.000     10.125      0.220      1.000      0.300      0.306
  3663.600      0.067      0.000      0.000      7.202      0.225      1.000      0.297      0.327
  3663.700      0.068      0.000      0.000      4.096      0.226      1.000      0.301      0.355
  3663.800      0.070      0.000      0.000      2.109      0.227      1.000      0.306      0.388
  3663.900      0.071      0.000      0.000      2.026      0.225      1.000      0.315      0.388
  3664.000      0.071      0.000      0.000      1.923      0.221      1.000      0.321      0.387
