~Version Information
VERS.                     2.0: CWLS log ASCII Standard Version 2.00
WRAP.                      NO: One line per depth step

~Well Information Block
#MNEM.UNIT                 Value                       Information
#------------              -----                       -----------
STRT.M                   3204.0000                    :START
STOP.M                   3464.9000                    :STOP
STEP.M                      0.1000                    :STEP
NULL.                     -999.25                     :NULL VALUE
COMP.         Statoil Petroleum                       :Company
WELL.         15/9-F-1 B                              :Well
FLD .         VOLVE                                   :Field
LOC .         Maersk Inspirer                         :Location
PROV.                                                 :Province
CNTY.                                                 :County
STATE.                                                 :State
CTRY.                                                 :Country
DATE.                                                 :Log Date
SRVC.                                                 :Service Company
UWI .                                                 :Unique Well Identifier
API .                                                 :API Number
LATI.         058 26' 29.907" N    DMS                :Latitude
LONG.         001 53' 14.708" E    DMS                :Longtitude
PD  .         MSL                                     :Permanent Datum
ELZ .M                 0.0000                         :Elev. Log Zero

~Curve Information
#MNEM   .UNIT             API CODE Curve Description
#------------             -------- -----------------
DEPTH   .M            00 001 00 00:   0  Depth
BVW     .V/V          00 000 00 00:   1  Bulk Volume Water
CARB_FLAG.V/V         00 000 00 00:   2  Carbonate Flag
COAL_FLAG.UNITLESS    00 000 00 00:   3  Coal flag
KLOGH   .mD           00 000 00 00:   4  Calculated Horizontal PERMEABILITY from logs
PHIF    .V/V          00 000 00 00:   5  Final Porosity
SAND_FLAG.UNITLESS    00 000 00 00:   6  Sand Flag
SW      .V/V          00 000 00 00:   7  Water Saturation
VCARB   .V/V          00 000 00 00:   8  VCARB
VSH     .V/V          00 000 00 00:   9  Volume of Shale

~Parameter Information
#MNEM.UNIT       Value           Description
#------------    -----           -----------
HLD .         Terms and Conditions.:Header Legal Disclaimer
RUN .         1                 :Run number

~Other Information
PETROPHYSICAL INTERPRETATION: OUTPUT

# --- LOG MNEMONICS AND UNITS ---
#Depth          BVW             CARB_FLAG       COAL_FLAG       KLOGH           PHIF            SAND_FLAG       SW              VCARB           VSH            
#M              V/V             V/V             UNITLESS        mD              V/V             UNITLESS        V/V             V/V             V/V            

~A
# ...
      3244.0000          0.0200          1.0000          0.0000          0.1171          0.0200          0.0000          1.0000          0.2449          0.3435
      3244.1000          0.0200          1.0000          0.0000          0.0258          0.0200          0.0000          1.0000          0.1550          0.4166
      3244.2000          0.0248          0.0000          0.0000          0.0128          0.0248          0.0000          1.0000          0.1010          0.4546
      3244.3000          0.0257          0.0000          0.0000          0.0061          0.0257          0.0000          1.0000          0.0649          0.4913
      3244.4000          0.0200          0.0000          0.0000          0.0035          0.0200          0.0000          1.0000          0.0605          0.5136
      3244.5000          0.0200          0.0000          0.0000          0.0033          0.0200          0.0000          1.0000          0.0587          0.5157
      3244.6000          0.0200          0.0000          0.0000          0.0056          0.0200          0.0000          1.0000          0.0808          0.4900
      3244.7000          0.0200          0.0000          0.0000          0.0136          0.0200          0.0000          1.0000          0.1219          0.4474
      3244.8000          0.0200          0.0000          0.0000          0.0079          0.0200          0.0000          1.0000          0.0959          0.4737
      3244.9000          0.0200          0.0000          0.0000          0.0022          0.0200          0.0000          1.0000          0.0426          0.5361
      3245.0000          0.0237          0.0000          0.0000          0.0495          0.0237          0.0000          1.0000          0.1760          0.3883
      3245.1000          0.0290          0.0000          0.0000          0.2038          0.0290          0.0000          1.0000          0.2376          0.3248
      3245.2000          0.0360          0.0000          0.0000          1.2808          0.0360          0.0000          1.0000          0.3295          0.2423
      3245.3000          0.0499          0.0000          0.0000          7.4226          0.0499          0.0000          1.0000          0.3865          0.1699
      3245.4000          0.0700          0.0000          0.0000         22.8054          0.0700          0.0000          1.0000          0.3581          0.1336
      3245.5000          0.0897          0.0000          0.0000         58.5889          0.0962          0.0000          0.9326          0.2791          0.1113
      3245.6000          0.0833          0.0000          0.0000        197.6325          0.1562          1.0000          0.5329          0.0441          0.1060
      3245.7000          0.0737          0.0000          0.0000        421.5130          0.1875          1.0000          0.3932          0.0000          0.0972
      3245.8000          0.0694          0.0000          0.0000        820.6310          0.2169          1.0000          0.3198          0.0000          0.0913
      3245.9000          0.0657          0.0000          0.0000       1163.0996          0.2370          1.0000          0.2772          0.0000          0.0922
      3246.0000          0.0637          0.0000          0.0000       1384.3640          0.2466          1.0000          0.2581          0.0000          0.0924
      3246.1000          0.0629          0.0000          0.0000       1266.7657          0.2484          1.0000          0.2530          0.0000          0.0983
      3246.2000          0.0619          0.0000          0.0000        989.1470          0.2467          1.0000          0.2511          0.0000          0.1087
      3246.3000          0.0613          0.0000          0.0000        863.1213          0.2439          1.0000          0.2516          0.0000          0.1128
      3246.4000          0.0609          0.0000          0.0000        848.7354          0.2411          1.0000          0.2528          0.0000          0.1111
      3246.5000          0.0595          0.0000          0.0000        890.0452          0.2386          1.0000          0.2495          0.0000          0.1066
      3246.6000          0.0585          0.0000          0.0000        932.6011          0.2367          1.0000          0.2472          0.0000          0.1027
      3246.7000          0.0580          0.0000          0.0000        862.6440          0.2352          1.0000          0.2466          0.0000          0.1051
      3246.8000          0.0575          0.0000          0.0000        795.6525          0.2339          1.0000          0.2460          0.0000          0.1078
      3246.9000          0.0569          0.0000          0.0000        865.4520          0.2328          1.0000          0.2445          0.0000          0.1028
      3247.0000          0.0557          0.0000          0.0000        848.0112          0.2320          1.0000          0.2402          0.0000          0.1031
      3247.1000          0.0549          0.0000          0.0000        941.1896          0.2319          1.0000          0.2366          0.0000          0.0979
      3247.2000          0.0538          0.0000          0.0000       1053.6504          0.2325          1.0000          0.2315          0.0000          0.0931
      3247.3000          0.0528          0.0000          0.0000       1119.4255          0.2338          1.0000          0.2258          0.0000          0.0913
      3247.4000          0.0521          0.0000          0.0000       1065.5450          0.2355          1.0000          0.2214          0.0000          0.0951
      3247.5000          0.0502          0.0000          0.0000       1165.1815          0.2369          1.0000          0.2118          0.0000          0.0921
      3247.6000          0.0488          0.0000          0.0000       1214.0537          0.2383          1.0000          0.2047          0.0000          0.0913
      3247.7000          0.0481          0.0000          0.0000       1407.4148          0.2419          1.0000          0.1986          0.0000          0.0874
      3247.8000          0.0478          0.0000          0.0000       1289.5785          0.2432          1.0000          0.1965          0.0000          0.0928
      3247.9000          0.0472          0.0000          0.0000       1439.2130          0.2434          1.0000          0.1941          0.0000          0.0877
      3248.0000          0.0471          0.0000          0.0000       1481.2546          0.2413          1.0000          0.1951          0.0000          0.0844
      3248.1000          0.0473          0.0000          0.0000       1558.4324          0.2391          1.0000          0.1980          0.0000          0.0800
      3248.2000          0.0474          0.0000          0.0000       1507.6224          0.2363          1.0000          0.2007          0.0000          0.0792
      3248.3000          0.0483          0.0000          0.0000       1423.6473          0.2335          1.0000          0.2070          0.0000          0.0794
      3248.4000          0.0489          0.0000          0.0000       1102.8190          0.2307          1.0000          0.2118          0.0000          0.0892
      3248.5000          0.0499          0.0000          0.0000        974.2649          0.2274          1.0000          0.2195          0.0000          0.0923
      3248.6000          0.0513          0.0000          0.0000       1074.4661          0.2268          1.0000          0.2263          0.0000          0.0870
      3248.7000          0.0522          0.0000          0.0000        982.1635          0.2273          1.0000          0.2298          0.0000          0.0918
      3248.8000          0.0534          0.0000          0.0000       1097.8223          0.2275          1.0000          0.2346          0.0000          0.0866
      3248.9000          0.0542          0.0000          0.0000       1213.3455          0.2260          1.0000          0.2399          0.0000          0.0805
