~Version Information
VERS.                     2.0: CWLS log ASCII Standard Version 2.00
WRAP.                      NO: One line per depth step

~Well Information Block
#MNEM       .UNIT          Value                       Information
#-------------------------------------------------------------------------
STRT        .M             3102.102                    :START
STOP        .M             3505.8096                   :STOP
STEP        .M             0.1524                      :STEP
NULL        .              -999.25                     :NULL VALUE
COMP        .              STATOILHYDRO                :COMPANY
WELL        .              15/9-F-12                   :WELL
FLD         .              VOLVE                       :FIELD
LOC         .              UNKNOWN                     :LOCATION
CNTY        .              UNKNOWN                     :COUNTY
STAT        .              UNKNOWN                     :STATE
CTRY        .              Norway                      :COUNTRY
SRVC        .              UNKNOWN                     :SERVICE COMPANY
DATE        .              UNKNOWN                     :LOG DATE
UWI         .              NO 15/9-F-12                :UNIQUE WELL ID
XCOORD      .              435050.170000               :SURFACE X
YCOORD      .              6478574.700000              :SURFACE Y
LAT         .              58.441713                   :LATITUDE
LON         .              1.887480                    :LONGITUDE
ELEV        .M             54.9000                     :SURFACE ELEV
ELEV_TYPE   .              KB                          :ELEV TYPE

~Curve Information
#MNEM       .UNIT             API CODE : Curve Description
#-------------------------------------------------------------------------
DEPTH       .M                UNKNOWN  : Measured Dept
BVW         .v/v_decimal      UNKNOWN  : BVW:UNKNOWN:rC:NONE:v1
KLOGH       .mD               UNKNOWN  : KLOGH:UNKNOWN:rC:NONE:v1
PHIF        .v/v_decimal      UNKNOWN  : PHIF:UNKNOWN:rC:NONE:v1
SW          .v/v_decimal      UNKNOWN  : SW:UNKNOWN:rC:NONE:v1
VSH         .v/v_decimal      UNKNOWN  : VSH:UNKNOWN:rC:NONE:v1
# --- LOG MNEMONICS AND UNITS ---
#Depth     BVW        KLOGH      PHIF       SW         VSH       
#M         v/v_decima mD         v/v_decima v/v_decima v/v_decima
~A
# ...
 3306.6228 0.13349999 663.062072 0.19560000 0.68250000 0.21920000
 3306.7752 0.13539999 434.313385 0.18989999 0.71299999 0.21979999
 3306.9276 0.13750000 284.480285 0.18420000 0.74620002 0.22040000
   3307.08 0.13729999 228.979598 0.18160000 0.75609999 0.22529999
 3307.2324 0.13510000 222.094604 0.18170000 0.74360001 0.23420000
 3307.3848 0.13310000 215.415206 0.18189999 0.73180001 0.24300000
 3307.5372 0.13220000 217.916503 0.18269999 0.72380000 0.25369998
 3307.6896 0.13490000 251.125198 0.18559999 0.72649997 0.27000001
  3307.842 0.13760000 289.392700 0.18860000 0.72990000 0.28630000
 3307.9944 0.14059999 333.491912 0.19149999 0.73409998 0.30259999
 3308.1468 0.13959999 230.553802 0.18819999 0.74150002 0.33019998
 3308.2992 0.13840000 156.312194 0.18469999 0.74940001 0.35830000
 3308.4516 0.13729999 105.976898 0.18119999 0.75779998 0.38629999
  3308.604 0.13670000 107.140197 0.18209999 0.75059998 0.39820000
 3308.7564 0.13619999 130.451400 0.18500000 0.73629999 0.40250000
 3308.9088 0.13580000 158.834594 0.18799999 0.72259998 0.40689998
 3309.0612 0.13490000 137.903106 0.18649999 0.72369998 0.41359999
 3309.2136 0.13339999 72.3335037 0.17829999 0.74779999 0.42390000
  3309.366 0.13179999 37.9408988 0.17020000 0.77429997 0.43419998
 3309.5184 0.12980000 20.2737007 0.16249999 0.79860001 0.44670000
 3309.6708 0.12080000 0.87419998 0.12169999 0.99269998 0.47589999
 3309.8232 0.11299999 0.40230000 0.11299999          1 0.50510001
 3309.9756 0.10429999 0.18510000 0.10429999          1 0.53430002
  3310.128 0.10719999 0.21719999 0.10719999          1 0.54750001
 3310.2804 0.11249999 0.30439999 0.11249999          1 0.55779999
 3310.4328 0.11770000 0.42680001 0.11770000          1 0.56800001
 3310.5852 0.11519999 0.51389998 0.11999999 0.96020001 0.56459999
 3310.7376 0.10899999 0.54879999 0.11999999 0.90850001 0.55030000
   3310.89 0.10379999 0.58609998 0.11999999 0.86510002 0.53600001
 3311.0424 0.10270000 0.70069998 0.12150000 0.84600001 0.52050000
 3311.1948 0.11219999 1.12290000 0.12669999 0.88590002 0.50169998
 3311.3472 0.12530000 1.79970002 0.13189999 0.94999998 0.48289999
 3311.4996 0.13709999 2.88779997 0.13709999          1 0.46399998
  3311.652 0.13019999 1.71619999 0.13019999          1 0.46579998
 3311.8044 0.12319999 1.01849997 0.12319999          1 0.46770000
 3311.9568 0.11630000 0.60449999 0.11630000          1 0.46950000
 3312.1092 0.11550000 0.60879999 0.11550000          1 0.45629999
 3312.2616 0.11729999 0.75580000 0.11729999          1 0.43720000
  3312.414 0.11900000 0.93830001 0.11900000          1 0.41809999
 3312.5664 0.14069999 17.0827999 0.15719999 0.89490002 0.39860001
 3312.7188 0.14169999 31.8612995 0.16439999 0.86210000 0.37869998
 3312.8712 0.14280000 59.4250984 0.17159999 0.83209997 0.35870000
 3313.0236 0.14399999 102.470298 0.17810000 0.80870002 0.34349998
  3313.176 0.14589999 115.143997 0.18029999 0.80919998 0.35440000
 3313.3284 0.14790000 129.385299 0.18260000 0.81010001 0.36520001
 3313.4808 0.15000000 145.388000 0.18479999 0.81129997 0.37610000
 3313.6332 0.14419999 72.2499008 0.17759999 0.81209999 0.41220000
 3313.7856 0.13819999 31.9204006 0.16899999 0.81760001 0.45199999
  3313.938 0.13279999 14.1027002 0.16040000 0.82800000 0.49169999
 3314.0904 0.13500000 13.2797002 0.16040000 0.84189999 0.50419998
 3314.2428 0.14319999 21.0125007 0.16619999 0.86159998 0.49799999
 3314.3952 0.15320000 33.2480010 0.17200000 0.89029997 0.49180001
 3314.5476 0.12939999 31.8064994 0.17069999 0.75800001 0.48019999
    3314.7 0.09049999 10.0488996 0.15360000 0.58899998 0.45660001
 3314.8524 0.07410000 3.17479991 0.13650000 0.54299998 0.43290001
 3315.0048 0.06120000 0.08110000 0.08519999 0.71829998 0.40900000
 3315.1572 0.04740000 0.02969999 0.06949999 0.68129998 0.37619999
 3315.3096 0.03950000 0.01090000 0.05389999 0.73350000 0.34349998
  3315.462 0.03379999 0.00400000 0.03819999 0.88370001 0.31069999
 3315.6144 0.03040000 0.00200000 0.03040000          1 0.33370000
 3315.7668 0.02510000 0.00109999 0.02510000          1 0.37509998
 3315.9192 0.01989999 0.00100000 0.01989999          1 0.41659998
 3316.0716 0.02529999 0.00100000 0.02529999          1 0.44029998
  3316.224 0.04270000 0.00300000 0.04270000          1 0.44409999
 3316.3764 0.05840000 0.01070000 0.06019999 0.97030001 0.44800001
 3316.5288 0.07819999 0.04010000 0.07819999          1 0.44999998
 3316.6812 0.08529999 0.19239999 0.09910000 0.86040002 0.44409999
 3316.8336 0.08990000 0.92220002 0.11999999 0.74900001 0.43819999
  3316.986 0.09470000 4.42010021 0.14090000 0.67159998 0.43230000
 3317.1384 0.09409999 3.47609996 0.14129999 0.66579997 0.48989999
 3317.2908 0.09300000 2.27690005 0.13950000 0.66640001 0.55390000
 3317.4432 0.09200000 1.49140000 0.13779999 0.66740000 0.61790001
 3317.5956 0.09070000 1.06990003 0.13709999 0.66149997 0.67960000
  3317.748 0.08940000 0.81010001 0.13709999 0.65170001 0.74000000
 3317.9004 0.08810000 0.61339998 0.13709999 0.64259999 0.80040001
 3318.0528 0.08810000 0.35960000 0.13289999 0.66310000 0.84880000
 3318.2052 0.09059999 0.13009999 0.12070000 0.75029999 0.87459999
 3318.3576 0.09329999 0.04699999 0.10849999 0.86000001 0.90030002
   3318.51 0.09650000 0.01820000 0.09709999 0.99349999 0.92379999
 3318.6624 0.09709999 0.01899999 0.09709999          1 0.91460001
 3318.8148 0.09709999 0.01979999 0.09709999          1 0.90539997
 3318.9672 0.09709999 0.02070000 0.09709999          1 0.89620000
 3319.1196 0.10670000 0.04639999 0.10670000          1 0.87419998
  3319.272 0.11890000 0.12819999 0.11890000          1 0.84859997
 3319.4244 0.12749999 0.35409998 0.13109999 0.97289997 0.82300001
 3319.5768 0.13089999 0.70359998 0.13889999 0.94249999 0.79869997
 3319.7292 0.13189999 1.01100003 0.14239999 0.92650002 0.77569997
 3319.8816 0.13289999 1.45260000 0.14589999 0.91140002 0.75279998
  3320.034 0.13279999 1.80869996 0.14740000 0.90109997 0.72979998
 3320.1864 0.12890000 1.36800003 0.14219999 0.90630000 0.70679998
 3320.3388 0.12520000 1.03470003 0.13699999 0.91390001 0.68389999
 3320.4912 0.12169999 0.78259998 0.13169999 0.92390000 0.66089999
 3320.6436 0.12330000 1.07790005 0.13140000 0.93800002 0.58660000
  3320.796 0.12530000 1.54019999 0.13140000 0.95340001 0.50910001
 3320.9484 0.12749999 2.20070004 0.13140000 0.97030001 0.43160000
 3321.1008 0.12950000 4.01789999 0.13600000 0.95200002 0.37459999
 3321.2532 0.13130000 8.31630039 0.14300000 0.91850000 0.32809999
 3321.4056 0.13320000 17.2127990 0.15000000 0.88840001 0.28159999
  3321.558 0.13580000 27.8526992 0.15489999 0.87669998 0.25670000
 3321.7104 0.13979999 30.1907997 0.15670000 0.89209997 0.26710000
 3321.8628 0.14409999 32.7254981 0.15839999 0.90960001 0.27750000
 3322.0152 0.14849999 36.6520996 0.16050000 0.92519998 0.28630000
 3322.1676 0.14990000 55.1501007 0.16570000 0.90429997 0.28119999
   3322.32 0.15479999 895.386413 0.20329999 0.76160001 0.27599999
 3322.4724 0.15590000 1113.20898 0.20589999 0.75720000 0.27090001
 3322.6248 0.15610000 1104.95800 0.20509999 0.76120001 0.25999999
 3322.7772 0.15620000 1043.48706 0.20360000 0.76709997 0.24779999
 3322.9296 0.15230000 76.4392013 0.16730000 0.91009998 0.23549999
  3323.082 0.15309999 77.8797988 0.16760000 0.91329997 0.23569999
 3323.2344 0.15469999 95.7623977 0.17110000 0.90439999 0.24660000
 3323.3868 0.15639999     117.75 0.17460000 0.89609998 0.25740000
 3323.5392 0.15760000 142.081893 0.17759999 0.88739997 0.26519998
 3323.6916 0.16089999 1909.66101 0.21279999 0.75609999 0.26409998
  3323.844 0.16030000 1939.63793 0.21289999 0.75269997 0.26300001
 3323.9964 0.15970000 1970.08496 0.21310000 0.74930000 0.26190000
 3324.1488 0.15700000 2174.00805 0.21500000 0.73030000 0.27099999
 3324.3012 0.15090000 195.248992 0.18289999 0.82520002 0.28040000
 3324.4536 0.14839999 186.987792 0.18289999 0.81160002 0.28979998
  3324.606 0.14730000 205.109603 0.18410000 0.80000001 0.28909999
 3324.7584 0.14980000 2261.88793 0.21629999 0.69239997 0.28400000
 3324.9108 0.14880000 2019.75305 0.21449999 0.69400000 0.27889999
 3325.0632 0.14749999 1973.95996 0.21349999 0.69080001 0.26850000
