~Version Information
VERS.                     2.0: CWLS log ASCII Standard Version 2.00
WRAP.                      NO: One line per depth step

~Well Information Block
#MNEM.UNIT                 Value                       Information
#------------              -----                       -----------
STRT.M                    4334.700                    :START
STOP.M                    4561.700                    :STOP
STEP.M                       0.100                    :STEP
NULL.                     -999.25                     :NULL VALUE
COMP.         Statoil Petroleum AS                    :Company
WELL.         15/9-F-11 T2                            :Well
FLD .         VOLVE                                   :Field
LOC .                                                 :Location
PROV.                                                 :Province
CNTY.                                                 :County
STATE.                                                 :State
CTRY.         Norway                                  :Country
DATE.                                                 :Log Date
SRVC.                                                 :Service Company
UWI .                                                 :Unique Well Identifier
API .                                                 :API Number
PD  .         MSL                                     :Permanent Datum
EDF .M            54.900                              :Elevations D.F.
EGL .M           -91.000                              :Elevations G.L.
ELZ .M            54.900                              :Elev. Log Zero
LMF .         DF                                      :Log Measured From

~Curve Information
#MNEM   .UNIT             API CODE Curve Description
#------------             -------- -----------------
DEPTH   .M            00 001 00 00:   0  Depth
BVW     .v/v          00 000 00 00:   1  BVW:CPI:rC:NONE:v1
CARB_FLAG.unitless    00 000 00 00:   2  CARB_FLAG:CPI:rC:NONE:v1
COAL_FLAG.unitless    00 000 00 00:   3  COAL_FLAG:CPI:rC:NONE:v1
KLOGH   .mD           00 000 00 00:   4  KLOGH:CPI:rC:NONE:v1
PHIF    .v/v          00 000 00 00:   5  PHIF:CPI:rC:NONE:v1
SAND_FLAG.unitless    00 000 00 00:   6  SAND_FLAG:CPI:rC:NONE:v1
SW      .v/v          00 000 00 00:   7  SW:CPI:rC:NONE:v1
VSH     .v/v          00 000 00 00:   8  VSH:CPI:rC:NONE:v1

~Parameter Information
#MNEM.UNIT       Value           Description
#------------    -----           -----------
RUN .         1                 :Run number

~Other Information
PETROPHYSICAL INTERPRETATION: OUTPUT

# --- LOG MNEMONICS AND UNITS ---
#Depth     BVW        CARB_FLAG  COAL_FLAG  KLOGH      PHIF       SAND_FLAG  SW         VSH       
#M         v/v        unitless   unitless   mD         v/v        unitless   v/v        v/v       

~A
# ...
  4375.200      0.120      0.000      0.000      0.019      0.120      0.000      1.000      0.520
  4375.300      0.121      0.000      0.000      0.017      0.121      0.000      1.000      0.526
  4375.400      0.121      0.000      0.000      0.019      0.121      0.000      1.000      0.522
  4375.500      0.121      0.000      0.000      0.012      0.121      0.000      1.000      0.542
  4375.600      0.119      0.000      0.000      0.009      0.119      0.000      1.000      0.554
  4375.700      0.115      0.000      0.000      0.006      0.115      0.000      1.000      0.572
  4375.800      0.111      0.000      0.000      0.007      0.111      0.000      1.000      0.558
  4375.900      0.109      0.000      0.000      0.007      0.109      0.000      1.000      0.557
  4376.000      0.109      0.000      0.000      0.005      0.109      0.000      1.000      0.575
  4376.100      0.114      0.000      0.000      0.006      0.114      0.000      1.000      0.573
  4376.200      0.120      0.000      0.000      0.007      0.120      0.000      1.000      0.570
  4376.300      0.126      0.000      0.000      0.011      0.126      0.000      1.000      0.553
  4376.400      0.130      0.000      0.000      0.012      0.130      0.000      1.000      0.553
  4376.500      0.132      0.000      0.000      0.012      0.132      0.000      1.000      0.554
  4376.600      0.133      0.000      0.000      0.012      0.133      0.000      1.000      0.541
  4376.700      0.132      0.000      0.000      0.012      0.134      0.000      0.984      0.513
  4376.800      0.125      0.000      0.000      0.012      0.135      0.000      0.924      0.511
  4376.900      0.120      0.000      0.000      0.012      0.135      0.000      0.884      0.492
  4377.000      0.117      0.000      0.000      0.012      0.134      0.000      0.873      0.495
  4377.100      0.111      0.000      0.000      0.012      0.131      0.000      0.851      0.486
  4377.200      0.107      0.000      0.000      0.012      0.126      0.000      0.849      0.485
  4377.300      0.100      0.000      0.000      0.012      0.116      0.000      0.862      0.461
  4377.400      0.096      0.000      0.000      0.012      0.100      0.000      0.953      0.438
  4377.500      0.078      0.000      0.000      0.012      0.078      0.000      1.000      0.402
  4377.600      0.052      0.000      0.000      0.012      0.052      0.000      1.000      0.392
  4377.700      0.023      0.000      0.000      0.012      0.023      0.000      1.000      0.348
  4377.800      0.020      1.000      0.000      0.012      0.020      0.000      1.000      0.331
  4377.900      0.020      1.000      0.000      0.012      0.020      0.000      1.000      0.337
  4378.000      0.020      1.000      0.000      0.107      0.020      0.000      1.000      0.348
  4378.100      0.020      1.000      0.000      0.070      0.020      0.000      1.000      0.368
  4378.200      0.020      0.000      0.000      0.061      0.020      0.000      1.000      0.375
  4378.300      0.047      0.000      0.000      0.138      0.047      0.000      1.000      0.359
  4378.400      0.068      0.000      0.000      0.327      0.068      0.000      1.000      0.336
  4378.500      0.075      0.000      0.000      0.480      0.075      0.000      1.000      0.324
  4378.600      0.072      0.000      0.000      0.746      0.072      0.000      1.000      0.300
  4378.700      0.064      0.000      0.000      0.932      0.064      0.000      1.000      0.283
  4378.800      0.055      0.000      0.000      1.143      0.055      0.000      1.000      0.264
  4378.900      0.044      0.000      0.000      0.772      0.044      0.000      1.000      0.274
  4379.000      0.035      0.000      0.000      0.416      0.035      0.000      1.000      0.295
  4379.100      0.031      0.000      0.000      0.236      0.031      0.000      1.000      0.320
  4379.200      0.037      0.000      0.000      0.112      0.037      0.000      1.000      0.360
  4379.300      0.050      0.000      0.000      0.077      0.050      0.000      1.000      0.390
  4379.400      0.068      0.000      0.000      0.111      0.068      0.000      1.000      0.389
  4379.500      0.085      0.000      0.000      0.080      0.085      0.000      1.000      0.419
  4379.600      0.097      0.000      0.000      0.088      0.097      0.000      1.000      0.426
  4379.700      0.105      0.000      0.000      0.105      0.105      0.000      1.000      0.424
  4379.800      0.111      0.000      0.000      0.096      0.111      0.000      1.000      0.434
  4379.900      0.117      0.000      0.000      0.095      0.117      0.000      1.000      0.440
  4380.000      0.124      0.000      0.000      0.100      0.124      0.000      1.000      0.444
  4380.100      0.130      0.000      0.000      0.086      0.130      0.000      1.000      0.456
  4380.200      0.133      0.000      0.000      0.126      0.133      0.000      1.000      0.441
  4380.300      0.134      0.000      0.000      0.249      0.134      0.000      1.000      0.408
  4380.400      0.132      0.000      0.000      0.372      0.132      0.000      1.000      0.388
  4380.500      0.128      0.000      0.000      0.573      0.128      0.000      1.000      0.363
  4380.600      0.122      0.000      0.000      0.716      0.122      0.000      1.000      0.346
  4380.700      0.111      0.000      0.000      1.007      0.111      0.000      1.000      0.320
  4380.800      0.094      0.000      0.000      1.487      0.094      0.000      1.000      0.287
  4380.900      0.073      0.000      0.000      1.258      0.073      0.000      1.000      0.276
  4381.000      0.050      0.000      0.000      1.024      0.050      0.000      1.000      0.265
  4381.100      0.028      0.000      0.000      0.873      0.028      0.000      1.000      0.254
  4381.200      0.020      0.000      0.000      0.563      0.020      0.000      1.000      0.268
  4381.300      0.020      0.000      0.000      0.294      0.020      0.000      1.000      0.299
  4381.400      0.023      0.000      0.000      0.200      0.023      0.000      1.000      0.320
  4381.500      0.045      0.000      0.000      0.194      0.045      0.000      1.000      0.341
  4381.600      0.076      0.000      0.000      0.198      0.076      0.000      1.000      0.368
  4381.700      0.108      0.000      0.000      0.269      0.108      0.000      1.000      0.382
  4381.800      0.134      0.000      0.000      0.315      0.134      0.000      1.000      0.397
  4381.900      0.148      0.000      0.000      0.302      0.150      0.000      0.988      0.413
  4382.000      0.148      0.000      0.000      0.267      0.155      0.000      0.955      0.424
  4382.100      0.146      0.000      0.000      0.175      0.155      0.000      0.944      0.444
  4382.200      0.146      0.000      0.000      0.248      0.152      0.000      0.956      0.425
  4382.300      0.150      0.000      0.000      0.362      0.150      0.000      1.000      0.404
  4382.400      0.149      0.000      0.000      0.370      0.149      0.000      1.000      0.402
  4382.500      0.149      0.000      0.000      0.379      0.149      0.000      1.000      0.402
  4382.600      0.151      0.000      0.000      0.487      0.151      0.000      1.000      0.391
  4382.700      0.152      0.000      0.000      0.991      0.152      0.000      1.000      0.358
  4382.800      0.151      0.000      0.000      1.041      0.151      0.000      1.000      0.355
  4382.900      0.146      0.000      0.000      1.072      0.146      0.000      1.000      0.349
  4383.000      0.137      0.000      0.000      0.901      0.137      0.000      1.000      0.349
  4383.100      0.125      0.000      0.000      0.693      0.125      0.000      1.000      0.351
  4383.200      0.113      0.000      0.000      0.586      0.113      0.000      1.000      0.349
