~Version Information
VERS.                     2.0: CWLS log ASCII Standard Version 2.00
WRAP.                      NO: One line per depth step

~Well Information Block
#MNEM.UNIT                 Value                       Information
#------------              -----                       -----------
STRT.M                   3358.0000                    :START
STOP.M                   3681.9000                    :STOP
STEP.M                      0.1000                    :STEP
NULL.                     -999.25                     :NULL VALUE
COMP.         Statoil Petroleum AS                    :Company
WELL.         15/9-F-1 A                              :Well
FLD .         VOLVE                                   :Field
LOC .         Maersk Inspirer                         :Location
PROV.                                                 :Province
CNTY.         Unused                                  :County
STATE.                                                 :State
CTRY.                                                 :Country
DATE.                                                 :Log Date
SRVC.                                                 :Service Company
UWI .                                                 :Unique Well Identifier
API .                                                 :API Number
LATI.         058 26' 29.907" N    DMS                :Latitude
LONG.         001 53' 14.708" E    DMS                :Longtitude
PD  .         MSL                                     :Permanent Datum
ELZ .M                 0.0000                         :Elev. Log Zero

~Curve Information
#MNEM   .UNIT             API CODE Curve Description
#------------             -------- -----------------
DEPTH   .M            00 001 00 00:   0  Depth
BVW     .V/V          00 000 00 00:   1  Bound Volume Water
COAL_FLAG.unitless    00 000 00 00:   2  Coal Flag
KLOGH   .mD           00 000 00 00:   3  Calculated Horizontal PERMEABILITY from logs
PHIF    .V/V          00 000 00 00:   4  Final porosity
SAND_FLAG.unitless    00 000 00 00:   5  Sand Flag
SW      .V/V          00 000 00 00:   6  Water Saturation (Archie)
VCARB   .V/V          00 000 00 00:   7  IFC(CARB_FLAG>0.5,1-VSH, VCARB)
VSH     .V/V          00 000 00 00:   8  Volume of Shale

~Parameter Information
#MNEM.UNIT       Value           Description
#------------    -----           -----------
HLD .         Terms and Conditions.:Header Legal Disclaimer
RUN .         1                 :Run number

~Other Information
PETROPHYSICAL INTERPRETATION: OUTPUT

# --- LOG MNEMONICS AND UNITS ---
#Depth          BVW             COAL_FLAG       KLOGH           PHIF            SAND_FLAG       SW              VCARB           VSH            
#M              V/V             unitless        mD              V/V             unitless        V/V             V/V             V/V            

~A
# ...
      3442.0000          0.0597          0.0000         41.8601          0.1527          1.0000          0.3907          0.0000          0.1778
      3442.1000          0.0702          0.0000         27.6317          0.1486          1.0000          0.4726          0.0000          0.1942
      3442.2000          0.0783          0.0000         25.3288          0.1481          1.0000          0.5288          0.0000          0.1979
      3442.3000          0.0932          0.0000         23.2832          0.1519          1.0000          0.6134          0.0000          0.2054
      3442.4000          0.1098          0.0000         24.3962          0.1583          1.0000          0.6931          0.0000          0.2088
      3442.5000          0.1264          0.0000         28.5670          0.1651          1.0000          0.7657          0.0000          0.2072
      3442.6000          0.1328          0.0000         27.5237          0.1711          1.0000          0.7764          0.0000          0.2143
      3442.7000          0.1275          0.0000         25.2311          0.1762          1.0000          0.7236          0.0000          0.2230
      3442.8000          0.1200          0.0000         28.0709          0.1803          1.0000          0.6654          0.0000          0.2216
      3442.9000          0.1150          0.0000         36.1820          0.1829          1.0000          0.6285          0.0000          0.2116
      3443.0000          0.1163          0.0000         34.0823          0.1837          1.0000          0.6333          0.0000          0.2152
      3443.1000          0.1228          0.0000         40.2155          0.1830          1.0000          0.6709          0.0000          0.2066
      3443.2000          0.1339          0.0000         50.3724          0.1815          1.0000          0.7378          0.0000          0.1945
      3443.3000          0.1459          0.0000         45.5677          0.1795          1.0000          0.8124          0.0000          0.1975
      3443.4000          0.1520          0.0000         38.4724          0.1774          1.0000          0.8572          0.0000          0.2038
      3443.5000          0.1523          0.0000         32.5306          0.1761          1.0000          0.8649          0.0000          0.2107
      3443.6000          0.1564          0.0000         24.3520          0.1766          1.0000          0.8857          0.0000          0.2251
      3443.7000          0.1607          0.0000         25.8277          0.1791          1.0000          0.8974          0.0000          0.2245
      3443.8000          0.1632          0.0000         31.0471          0.1826          1.0000          0.8938          0.0000          0.2188
      3443.9000          0.1653          0.0000         41.3571          0.1859          1.0000          0.8891          0.0000          0.2079
      3444.0000          0.1654          0.0000         45.8074          0.1878          1.0000          0.8808          0.0000          0.2046
      3444.1000          0.1634          0.0000         43.5226          0.1879          1.0000          0.8696          0.0000          0.2072
      3444.2000          0.1605          0.0000         35.6199          0.1873          1.0000          0.8570          0.0000          0.2163
      3444.3000          0.1572          0.0000         53.9422          0.1877          1.0000          0.8375          0.0000          0.1966
      3444.4000          0.1584          0.0000         63.5571          0.1907          1.0000          0.8305          0.0000          0.1914
      3444.5000          0.1630          0.0000         70.6166          0.1961          1.0000          0.8313          0.0000          0.1911
      3444.6000          0.1684          0.0000        102.3258          0.2019          1.0000          0.8337          0.0000          0.1784
      3444.7000          0.1819          0.0000        135.2919          0.2070          1.0000          0.8786          0.0000          0.1694
      3444.8000          0.1978          0.0000        150.2202          0.2112          1.0000          0.9364          0.0000          0.1681
      3444.9000          0.1955          0.0000        219.7751          0.2150          1.0000          0.9091          0.0000          0.1531
      3445.0000          0.1901          0.0000        273.8465          0.2187          1.0000          0.8689          0.0000          0.1458
      3445.1000          0.1840          0.0000        318.6295          0.2215          1.0000          0.8308          0.0000          0.1410
      3445.2000          0.1814          0.0000        375.7757          0.2217          1.0000          0.8186          0.0000          0.1331
      3445.3000          0.1812          0.0000        236.8450          0.2146          1.0000          0.8441          0.0000          0.1492
      3445.4000          0.1834          0.0000        188.1232          0.2077          1.0000          0.8832          0.0000          0.1541
      3445.5000          0.1892          0.0000        164.3941          0.1957          1.0000          0.9666          0.0000          0.1500
      3445.6000          0.1863          0.0000        125.6713          0.1863          1.0000          1.0000          0.0000          0.1546
      3445.7000          0.1833          0.0000        125.2380          0.1833          1.0000          1.0000          0.0000          0.1520
      3445.8000          0.1861          0.0000        110.7206          0.1861          1.0000          1.0000          0.0000          0.1605
      3445.9000          0.1910          0.0000        105.3677          0.1910          1.0000          1.0000          0.0000          0.1672
      3446.0000          0.1870          0.0000         66.0444          0.1944          1.0000          0.9618          0.0000          0.1928
      3446.1000          0.1546          0.0000         24.1725          0.1949          1.0000          0.7935          0.0000          0.2417
      3446.2000          0.1297          0.0000         19.0252          0.1924          1.0000          0.6739          0.0000          0.2511
      3446.3000          0.1182          0.0000         14.4901          0.1859          1.0000          0.6360          0.0000          0.2584
      3446.4000          0.1067          0.0000          8.1935          0.1747          1.0000          0.6104          0.0000          0.2761
      3446.5000          0.1011          0.0000          4.3513          0.1593          1.0000          0.6349          0.0000          0.2928
      3446.6000          0.0947          0.0000          2.7096          0.1415          1.0000          0.6691          0.0000          0.2999
      3446.7000          0.0923          0.0000          1.7371          0.1239          1.0000          0.7447          0.0000          0.3057
      3446.8000          0.0975          0.0000          0.7791          0.1083          1.0000          0.9005          0.0000          0.3305
      3446.9000          0.0959          0.0000          0.7250          0.0959          0.0000          1.0000          0.0208          0.3230
      3447.0000          0.0876          0.0000          0.6940          0.0876          0.0000          1.0000          0.0508          0.3177
      3447.1000          0.0834          0.0000          0.5123          0.0834          0.0000          1.0000          0.0528          0.3287
      3447.2000          0.0850          0.0000          0.3972          0.0850          0.0000          1.0000          0.0351          0.3424
      3447.3000          0.0942          0.0000          0.3294          0.0942          0.0000          1.0000          0.0000          0.3596
      3447.4000          0.1099          0.0000          0.3638          0.1100          1.0000          0.9989          0.0000          0.3688
      3447.5000          0.1199          0.0000          0.3141          0.1284          1.0000          0.9337          0.0000          0.3922
