~Version Information
VERS.                     2.0: CWLS log ASCII Standard Version 2.00
WRAP.                      NO: One line per depth step

~Well Information Block
#MNEM.UNIT                 Value                       Information
#------------              -----                       -----------
STRT.M                   3271.0000                    :START
STOP.M                   3631.9000                    :STOP
STEP.M                      0.1000                    :STEP
NULL.                     -999.25                     :NULL VALUE
COMP.         Statoil Petroleum                       :Company
WELL.         15/9-F-1                                :Well
FLD .         VOLVE                                   :Field
LOC .         Maersk Inspirer                         :Location
PROV.                                                 :Province
CNTY.                                                 :County
STATE.                                                 :State
CTRY.                                                 :Country
DATE.                                                 :Log Date
SRVC.                                                 :Service Company
UWI .                                                 :Unique Well Identifier
API .                                                 :API Number
LATI.         058 26' 29.907" N    DMS                :Latitude
LONG.         001 53' 14.708" E    DMS                :Longtitude
PD  .         MSL                                     :Permanent Datum
ELZ .M                 0.0000                         :Elev. Log Zero

~Curve Information
#MNEM   .UNIT             API CODE Curve Description
#------------             -------- -----------------
DEPTH   .M            00 001 00 00:   0  Depth
BVW     .V/V          00 000 00 00:   1  Bound Volume Water
COAL_FLAG.unitless    00 000 00 00:   2  Coal Flag
KLOGH   .MD           00 000 00 00:   3  Calculated Horizontal PERMEABILITY from logs
PHIF    .V/V          00 000 00 00:   4  Final porosity
SAND_FLAG.unitless    00 000 00 00:   5  Sand Flag
SW      .V/V          00 000 00 00:   6  Water Saturation (Archie)
VCARB   .V/V          00 000 00 00:   7  Volume of calcite; dolomite and siderite from log analysis; repo
VSH     .V/V          00 000 00 00:   8  (GR-15)/(250-15)

~Parameter Information
#MNEM.UNIT       Value           Description
#------------    -----           -----------
HLD .         Terms and Conditions.:Header Legal Disclaimer
RUN .         1                 :Run number

~Other Information
PETROPHYSICAL INTERPRETATION: OUTPUT

# --- LOG MNEMONICS AND UNITS ---
#Depth          BVW             COAL_FLAG       KLOGH           PHIF            SAND_FLAG       SW              VCARB           VSH            
#M              V/V             unitless        MD              V/V             unitless        V/V             V/V             V/V            

~A
# ...
      3489.4000          0.0749          0.0000          0.0419          0.0749          0.0000          1.0000          0.1359          0.2771
      3489.5000          0.0617          0.0000          0.0179          0.0617          0.0000          1.0000          0.1272          0.3232
      3489.6000          0.0584          0.0000          0.0104          0.0584          0.0000          1.0000          0.0740          0.3835
      3489.7000          0.0633          0.0000          0.0073          0.0633          0.0000          1.0000          0.0000          0.4634
      3489.8000          0.0688          0.0000          0.0076          0.0688          0.0000          1.0000          0.0000          0.4887
      3489.9000          0.0698          0.0000          0.0098          0.0698          0.0000          1.0000          0.0000          0.4571
      3490.0000          0.0664          0.0000          0.0160          0.0664          0.0000          1.0000          0.0660          0.3674
      3490.1000          0.0621          0.0000          0.0292          0.0621          0.0000          1.0000          0.2099          0.2549
      3490.2000          0.0574          0.0000          0.0442          0.0574          0.0000          1.0000          0.3568          0.1681
      3490.3000          0.0515          0.0000          0.0412          0.0515          0.0000          1.0000          0.4243          0.1437
      3490.4000          0.0437          0.0000          0.0317          0.0437          0.0000          1.0000          0.4724          0.1367
      3490.5000          0.0372          0.0000          0.0222          0.0372          0.0000          1.0000          0.4787          0.1501
      3490.6000          0.0374          0.0000          0.0172          0.0374          0.0000          1.0000          0.4112          0.1881
      3490.7000          0.0461          0.0000          0.0182          0.0461          0.0000          1.0000          0.3070          0.2303
      3490.8000          0.0610          0.0000          0.0207          0.0610          0.0000          1.0000          0.1589          0.2981
      3490.9000          0.0778          0.0000          0.0252          0.0778          0.0000          1.0000          0.0332          0.3674
      3491.0000          0.0928          0.0000          0.0309          0.0928          0.0000          1.0000          0.0000          0.4252
      3491.1000          0.1028          0.0000          0.0405          0.1028          1.0000          1.0000          0.0000          0.4440
      3491.2000          0.1093          0.0000          0.0674          0.1093          1.0000          1.0000          0.0000          0.4080
      3491.3000          0.1167          0.0000          0.1525          0.1167          1.0000          1.0000          0.0000          0.3322
      3491.4000          0.1266          0.0000          0.3118          0.1266          1.0000          1.0000          0.0000          0.2864
      3491.5000          0.1372          0.0000          0.6355          0.1372          1.0000          1.0000          0.0000          0.2448
      3491.6000          0.1447          0.0000          1.1675          0.1447          1.0000          1.0000          0.0000          0.2002
      3491.7000          0.1474          0.0000          1.5924          0.1474          1.0000          1.0000          0.0047          0.1708
      3491.8000          0.1456          0.0000          1.6908          0.1456          1.0000          1.0000          0.0309          0.1520
      3491.9000          0.1415          0.0000          1.2809          0.1415          1.0000          1.0000          0.0280          0.1681
      3492.0000          0.1381          0.0000          0.8786          0.1381          1.0000          1.0000          0.0029          0.2033
      3492.1000          0.1380          0.0000          0.5763          0.1380          1.0000          1.0000          0.0000          0.2634
      3492.2000          0.1386          0.0000          0.3930          0.1386          1.0000          1.0000          0.0000          0.3223
      3492.3000          0.1369          0.0000          0.2898          0.1369          1.0000          1.0000          0.0000          0.3569
      3492.4000          0.1328          0.0000          0.2358          0.1328          1.0000          1.0000          0.0000          0.3627
      3492.5000          0.1299          0.0000          0.2292          0.1299          1.0000          1.0000          0.0000          0.3499
      3492.6000          0.1311          0.0000          0.2282          0.1311          1.0000          1.0000          0.0000          0.3579
      3492.7000          0.1354          0.0000          0.2501          0.1354          1.0000          1.0000          0.0000          0.3690
      3492.8000          0.1397          0.0000          0.4496          0.1397          1.0000          1.0000          0.0000          0.3091
      3492.9000          0.1442          0.0000          0.7272          0.1442          1.0000          1.0000          0.0000          0.2659
      3493.0000          0.1501          0.0000          1.1845          0.1501          1.0000          1.0000          0.0000          0.2295
      3493.1000          0.1576          0.0000          1.8790          0.1576          1.0000          1.0000          0.0000          0.2061
      3493.2000          0.1652          0.0000          2.4490          0.1652          1.0000          1.0000          0.0000          0.2121
      3493.3000          0.1725          0.0000          3.3479          0.1725          1.0000          1.0000          0.0000          0.2087
      3493.4000          0.1802          0.0000          5.1012          0.1802          1.0000          1.0000          0.0000          0.1924
      3493.5000          0.1877          0.0000          7.9863          0.1877          1.0000          1.0000          0.0000          0.1712
      3493.6000          0.1930          0.0000         10.0286          0.1930          1.0000          1.0000          0.0000          0.1687
      3493.7000          0.1933          0.0000         10.6273          0.1933          1.0000          1.0000          0.0000          0.1625
      3493.8000          0.1894          0.0000          8.4247          0.1894          1.0000          1.0000          0.0000          0.1733
      3493.9000          0.1840          0.0000          7.2424          0.1840          1.0000          1.0000          0.0000          0.1638
      3494.0000          0.1793          0.0000          5.7774          0.1793          1.0000          1.0000          0.0000          0.1696
      3494.1000          0.1747          0.0000          4.5862          0.1747          1.0000          1.0000          0.0000          0.1761
      3494.2000          0.1684          0.0000          3.3391          0.1684          1.0000          1.0000          0.0000          0.1853
      3494.3000          0.1603          0.0000          2.2931          0.1603          1.0000          1.0000          0.0000          0.1928
      3494.4000          0.1527          0.0000          1.8392          0.1527          1.0000          1.0000          0.0000          0.1810
      3494.5000          0.1482          0.0000          1.5827          0.1482          1.0000          1.0000          0.0000          0.1764
      3494.6000          0.1475          0.0000          1.6530          0.1475          1.0000          1.0000          0.0088          0.1663
      3494.7000          0.1498          0.0000          1.9007          0.1498          1.0000          1.0000          0.0081          0.1594
      3494.8000          0.1527          0.0000          1.8810          0.1527          1.0000          1.0000          0.0000          0.1777
      3494.9000          0.1546          0.0000          1.4823          0.1546          1.0000          1.0000          0.0000          0.2233
