~Version Information
VERS.                     2.0: CWLS log ASCII Standard Version 2.00
WRAP.                      NO: One line per depth step

~Well Information Block
#MNEM       .UNIT          Value                       Information
#-------------------------------------------------------------------------
STRT        .M             3102.102                    :START
STOP        .M             3505.8096                   :STOP
STEP        .M             0.1524                      :STEP
NULL        .              -999.25                     :NULL VALUE
COMP        .              STATOILHYDRO                :COMPANY
WELL        .              15/9-F-12                   :WELL
FLD         .              VOLVE                       :FIELD
LOC         .              UNKNOWN                     :LOCATION
CNTY        .              UNKNOWN                     :COUNTY
STAT        .              UNKNOWN                     :STATE
CTRY        .              Norway                      :COUNTRY
SRVC        .              UNKNOWN                     :SERVICE COMPANY
DATE        .              UNKNOWN                     :LOG DATE
UWI         .              NO 15/9-F-12                :UNIQUE WELL ID
XCOORD      .              435050.170000               :SURFACE X
YCOORD      .              6478574.700000              :SURFACE Y
LAT         .              58.441713                   :LATITUDE
LON         .              1.887480                    :LONGITUDE
ELEV        .M             54.9000                     :SURFACE ELEV
ELEV_TYPE   .              KB                          :ELEV TYPE

~Curve Information
#MNEM       .UNIT             API CODE : Curve Description
#-------------------------------------------------------------------------
DEPTH       .M                UNKNOWN  : Measured Dept
BVW         .v/v_decimal      UNKNOWN  : BVW:UNKNOWN:rC:NONE:v1
KLOGH       .mD               UNKNOWN  : KLOGH:UNKNOWN:rC:NONE:v1
PHIF        .v/v_decimal      UNKNOWN  : PHIF:UNKNOWN:rC:NONE:v1
SW          .v/v_decimal      UNKNOWN  : SW:UNKNOWN:rC:NONE:v1
VSH         .v/v_decimal      UNKNOWN  : VSH:UNKNOWN:rC:NONE:v1
# --- LOG MNEMONICS AND UNITS ---
#Depth     BVW        KLOGH      PHIF       SW         VSH       
#M         v/v_decima mD         v/v_decima v/v_decima v/v_decima
~A
# ...
  3473.958 0.17239999 1.32149994 0.22450000 0.76810002 0.64509999
 3474.1104 0.17239999 1.16770005 0.22370000 0.77060002 0.65839999
 3474.2628 0.17170000 0.84340000 0.22130000 0.77569997 0.69169998
 3474.4152 0.17100000 0.60909998 0.21899999 0.78090000 0.72509998
 3474.5676 0.17090000 0.48339998 0.21629999 0.79019999 0.74290001
   3474.72 0.17159999 0.43180000 0.21320000 0.80489999 0.74129998
 3474.8724 0.17229999 0.38580000 0.21009999 0.81999999 0.73960000
 3475.0248 0.17309999 0.38109999 0.20829999 0.83130002 0.73089998
 3475.1772 0.17499999 0.63230001 0.21310000 0.82090002 0.68589997
 3475.3296 0.17689999 1.04890000 0.21799999 0.81129997 0.64079999
  3475.482 0.17880000 1.74020004 0.22290000 0.80239999 0.59570002
 3475.6344 0.17900000 1.76540005 0.22030000 0.81269997 0.57880002
 3475.7868 0.17900000 1.67690002 0.21680000 0.82590001 0.56569999
 3475.9392 0.17900000 1.59280002 0.21320000 0.83960002 0.55260002
 3476.0916 0.17759999 1.48749995 0.21330000 0.83259999 0.56300002
  3476.244 0.17530000 1.37370002 0.21580000 0.81239998 0.58910000
 3476.3964 0.17319999 1.26859998 0.21829999 0.79309999 0.61519998
 3476.5488 0.17159999 1.20560002 0.21960000 0.78130000 0.63020002
 3476.7012 0.17129999 1.21759998 0.21840000 0.78409999 0.62159997
 3476.8536 0.17090000 1.22969996 0.21719999 0.78689998 0.61299997
  3477.006 0.17039999 1.25800001 0.21619999 0.78850001 0.60390001
 3477.1584 0.16709999 1.76170003 0.22050000 0.75789999 0.58050000
 3477.3108 0.16400000 2.46700000 0.22490000 0.72930002 0.55709999
 3477.4632 0.16110000 3.45479989 0.22930000 0.70260000 0.53380000
 3477.6156 0.15929999 2.82690000 0.22550000 0.70649999 0.54089999
  3477.768 0.15780000 0.49649998 0.18500000 0.85299998 0.55769997
 3477.9204 0.15639999 0.33849999 0.17829999 0.87720000 0.57450002
 3478.0728 0.15539999 0.25889998 0.17409999 0.89259999 0.58859997
 3478.2252 0.15459999 0.22450000 0.17239999 0.89670002 0.59950000
 3478.3776 0.15379999 0.19470000 0.17069999 0.90100002 0.61049997
   3478.53 0.15289999 0.18009999 0.16969999 0.90109997 0.61589998
 3478.6824 0.15150000 0.21699999 0.17139999 0.88389998 0.59859997
 3478.8348 0.15019999 0.97759997 0.20600000 0.72920000 0.58130002
 3478.9872 0.14880000 1.08630001 0.20559999 0.72380000 0.56400001
 3479.1396 0.14339999 1.06040000 0.20219999 0.70929998 0.54759997
  3479.292 0.13819999 1.02279996 0.19850000 0.69650000 0.53119999
 3479.4444 0.13349999 0.24799999 0.16030000 0.83270001 0.51490002
 3479.5968 0.13060000 0.20399999 0.15320000 0.85250002 0.50190001
 3479.7492 0.12860000 0.15780000 0.14489999 0.88789999 0.49079999
 3479.9016 0.12669999 0.12200000 0.13650000 0.92820000 0.47969999
  3480.054 0.12399999 0.42219999 0.16670000 0.74370002 0.47519999
 3480.2064 0.11959999 0.46950000 0.17069999 0.70050001 0.48269999
 3480.3588 0.11559999 0.52209997 0.17460000 0.66189998 0.49020001
 3480.5112 0.11270000 0.59659999 0.17890000 0.62989997 0.49590000
 3480.6636 0.11969999 0.95810002 0.18770000 0.63749998 0.47819998
  3480.816 0.12809999 1.53869998 0.19650000 0.65200001 0.46050000
 3480.9684 0.13869999 2.47099995 0.20530000 0.67549997 0.44290000
 3481.1208 0.13719999 3.01440000 0.21179999 0.64800000 0.45199999
 3481.2732 0.13269999 3.42219996 0.21770000 0.60960000 0.46810001
 3481.4256 0.12860000 3.88499999 0.22370000 0.57510000 0.48429998
  3481.578 0.11829999 4.52710008 0.22769999 0.51969999 0.48530000
 3481.7304 0.10580000 5.40810012 0.22980000 0.46029999 0.47189998
 3481.8828 0.09660000 6.46070003 0.23190000 0.41629999 0.45849999
 3482.0352 0.09290000 7.38910007 0.23280000 0.39910000 0.44420000
 3482.1876 0.10329999 7.31020021 0.22959999 0.45010000 0.42689999
   3482.34 0.11840000 7.23210000 0.22630000 0.52300000 0.40950000
 3482.4924 0.14280000 7.15479993 0.22300000 0.64039999 0.39210000
 3482.6448 0.15500000 6.71439981 0.21999999 0.70420002 0.38389998
 3482.7972 0.16889999 6.28359985 0.21699999 0.77819997 0.37610000
 3482.9496     0.1875 5.88049983 0.21410000 0.87599998 0.36840000
  3483.102 0.18829999 4.77190017 0.20849999 0.90319997 0.36640000
 3483.2544 0.17929999 3.60879993 0.20170000 0.88899999 0.36730000
 3483.4068 0.17149999 2.72919988 0.19490000 0.87989997 0.36809998
 3483.5592 0.16369999 2.02719998 0.18829999 0.86970001 0.37299999
 3483.7116 0.15590000 1.46360003 0.18209999 0.85610002 0.38420000
  3483.864 0.14010000 0.25180000 0.14010000          1 0.39539998
 3484.0164 0.13289999 0.17540000 0.13289999          1 0.40639999
 3484.1688 0.12089999 0.32030001 0.14959999 0.80800002 0.41580000
 3484.3212 0.10779999 2.04940009 0.19760000 0.54549998 0.42530000
 3484.4736 0.09809999 3.22129988 0.21050000 0.46630001 0.43479999
  3484.626 0.10180000 3.92239999 0.21799999 0.46709999 0.44999998
 3484.7784 0.10920000 4.52740001 0.22439999 0.48679998 0.46639999
 3484.9308 0.11860000 5.22569990 0.23080000 0.51370000 0.48280000
 3485.0832 0.11789999 5.73629999 0.23389999 0.50419998 0.48690000
 3485.2356 0.10920000 6.03919982 0.23409999 0.46650001 0.48069998
  3485.388 0.10220000 6.35820007 0.23430000 0.43599998 0.47450000
 3485.5404 0.09669999 6.82539987 0.23549999 0.41060000 0.47099998
 3485.6928 0.09279999 7.73260021 0.23919999 0.38809999 0.47479999
 3485.8452 0.08940000 8.76039981 0.24300000 0.36800000 0.47859999
 3485.9976 0.08640000 9.92479991 0.24680000 0.34999999 0.48230001
   3486.15 0.09179999 8.42290019 0.24379999 0.37670001 0.48899999
 3486.3024 0.09870000 7.11539983 0.24079999 0.40999999 0.49579998
 3486.4548 0.10740000 6.01079988 0.23770000 0.45190000 0.50249999
 3486.6072 0.11379999 5.26980018 0.23589999 0.48240000 0.51120001
 3486.7596 0.11909999 4.69309997 0.23469999 0.50739997 0.52060002
  3486.912 0.12510000 4.17950010 0.23340000 0.53609997 0.52999997
 3487.0644 0.13179999 4.08640003 0.23309999 0.56569999 0.53140002
 3487.2168 0.13910000 4.53900003 0.23409999 0.59450000 0.52189999
 3487.3692 0.14779999 5.04180002 0.23499999 0.62900000 0.51230001
 3487.5216 0.15760000 5.14410018 0.23489999 0.67100000 0.50870001
  3487.674 0.16419999 3.13779997 0.22810000 0.71990001 0.54060000
 3487.8264 0.17159999 1.91400003 0.22120000 0.77590000 0.57249999
 3487.9788 0.18019999 1.16750001 0.21439999 0.84069997 0.60439997
 3488.1312 0.18230000 1.01590001 0.21469999 0.84880000 0.62639999
 3488.2836 0.18310000 0.93629997 0.21619999 0.84689998 0.64679998
  3488.436 0.18099999 0.19859999 0.18099999          1 0.66729998
 3488.5884 0.18029999 0.21310000 0.18029999          1 0.65299999
 3488.7408 0.18029999 0.27979999 0.18029999          1 0.61360001
 3488.8932 0.18029999 0.36719998 0.18029999          1 0.57429999
 3489.0456 0.19619999 1.73979997 0.21439999 0.91530001 0.54650002
  3489.198 0.18250000 0.48649999 0.18250000          1 0.54610002
 3489.3504 0.18420000 0.52170002 0.18420000          1 0.54559999
 3489.5028 0.18590000 0.56489998 0.18590000          1 0.54449999
 3489.6552 0.21279999 3.87490010 0.22740000 0.93589997 0.50599998
 3489.8076 0.21770000 6.41520023 0.23330000 0.93290001 0.46750000
   3489.96 0.22290000 10.6208000 0.23929999 0.93150001 0.42899999
 3490.1124 0.22550000 13.2735996 0.24179999 0.93260002 0.41119998
 3490.2648 0.22709999 15.0094003 0.24300000 0.93440002 0.40079998
 3490.4172 0.22869999 16.9722003 0.24429999 0.93629997 0.39030000
 3490.5696 0.23080000 19.4950008 0.24709999 0.93400001 0.38670000
  3490.722 0.23340000 22.8145999 0.25180000 0.92710000 0.39109998
 3490.8744 0.23620000 26.6993007 0.25650000 0.92070001 0.39539998
 3491.0268 0.23810000 29.2714996 0.25970000 0.91699999 0.40070000
 3491.1792 0.23630000 23.6352005 0.25589999 0.92320001 0.40990000
 3491.3316 0.23440000 19.0841007 0.25220000 0.92960000 0.41909998
  3491.484 0.23260000 15.4093999 0.24840000 0.93650001 0.42820000
 3491.6364 0.23010000 12.0416002 0.24529999 0.93819999 0.44589999
 3491.7888 0.22759999 9.37370014 0.24230000 0.93949997 0.46450001
 3491.9412 0.22519999 7.29699993 0.23919999 0.94129997 0.48320001
 3492.0936 0.22280000 6.34929990 0.23569999 0.94539999 0.48280000
  3492.246 0.22050000 5.92509984 0.23180000 0.95130002 0.47040000
 3492.3984 0.21829999 5.52909994 0.22800000 0.95770001 0.45800000
