~Version Information
VERS.                     2.0: CWLS log ASCII Standard Version 2.00
WRAP.                      NO: One line per depth step

~Well Information Block
#MNEM       .UNIT          Value                       Information
#-------------------------------------------------------------------------
STRT        .M             3102.102                    :START
STOP        .M             3505.8096                   :STOP
STEP        .M             0.1524                      :STEP
NULL        .              -999.25                     :NULL VALUE
COMP        .              STATOILHYDRO                :COMPANY
WELL        .              15/9-F-12                   :WELL
FLD         .              VOLVE                       :FIELD
LOC         .              UNKNOWN                     :LOCATION
CNTY        .              UNKNOWN                     :COUNTY
STAT        .              UNKNOWN                     :STATE
CTRY        .              Norway                      :COUNTRY
SRVC        .              UNKNOWN                     :SERVICE COMPANY
DATE        .              UNKNOWN                     :LOG DATE
UWI         .              NO 15/9-F-12                :UNIQUE WELL ID
XCOORD      .              435050.170000               :SURFACE X
YCOORD      .              6478574.700000              :SURFACE Y
LAT         .              58.441713                   :LATITUDE
LON         .              1.887480                    :LONGITUDE
ELEV        .M             54.9000                     :SURFACE ELEV
ELEV_TYPE   .              KB                          :ELEV TYPE

~Curve Information
#MNEM       .UNIT             API CODE : Curve Description
#-------------------------------------------------------------------------
DEPTH       .M                UNKNOWN  : Measured Dept
BVW         .v/v_decimal      UNKNOWN  : BVW:UNKNOWN:rC:NONE:v1
KLOGH       .mD               UNKNOWN  : KLOGH:UNKNOWN:rC:NONE:v1
PHIF        .v/v_decimal      UNKNOWN  : PHIF:UNKNOWN:rC:NONE:v1
SW          .v/v_decimal      UNKNOWN  : SW:UNKNOWN:rC:NONE:v1
VSH         .v/v_decimal      UNKNOWN  : VSH:UNKNOWN:rC:NONE:v1
# --- LOG MNEMONICS AND UNITS ---
#Depth     BVW        KLOGH      PHIF       SW         VSH       
#M         v/v_decima mD         v/v_decima v/v_decima v/v_decima
~A
  3102.102 0.00549999 0.00100000 0.26989999 0.02050000 0.33250001
 3102.2544 0.00350000 0.00100000 0.26800000 0.01310000 0.33889999
 3102.4068 0.00279999 0.00100000 0.26620000 0.01040000 0.34529998
 3102.5592 0.00270000 0.00100000 0.26510000 0.01009999 0.37509998
 3102.7116 0.00329999 0.00100000 0.26510000 0.01240000 0.44179999
  3102.864 0.00480000 0.00100000 0.26510000 0.01799999 0.50840002
 3103.0164 0.03790000 0.00100000 0.26570001 0.14249999 0.57099997
 3103.1688 0.04369999 0.00100000 0.27120000 0.16099999 0.60039997
 3103.3212 0.05339999 0.00100000 0.27669999 0.19280000 0.62989997
 3103.4736 0.07500000 0.00100000 0.28220000 0.26570001 0.65939998
  3103.626 0.00499999 0.00100000 0.29379999 0.01689999 0.66699999
 3103.7784 0.00340000 0.00100000 0.30660000 0.01090000 0.67009997
 3103.9308 0.00319999 0.00100000 0.31949999 0.00999999 0.67320001
 3104.0832 0.00329999 0.00100000 0.32629999 0.00999999 0.66710001
 3104.2356 0.00329999 0.00100000 0.32809999 0.00999999 0.65329998
  3104.388 0.00329999 0.00100000 0.33000001 0.00999999 0.63950002
 3104.5404 0.00329999 0.00100000 0.32690000 0.00999999 0.62830001
 3104.6928 0.00319999 0.00100000 0.31040000 0.01030000 0.62449997
 3104.8452 0.00449999 0.00100000 0.29390001 0.01520000 0.62059998
 3104.9976 0.02789999 0.00100000 0.27739998 0.10059999 0.61669999
   3105.15 0.03330000 0.00100000 0.26269999 0.12669999 0.59439998
 3105.3024 0.02779999 0.00100000 0.24799999 0.11219999 0.57190001
 3105.4548 0.02439999 0.00100000 0.23330000 0.10459999 0.54930001
 3105.6072 0.02339999 0.00100000 0.23800000 0.09849999 0.54290002
 3105.7596 0.02319999 0.00100000 0.25080001 0.09250000 0.54329997
  3105.912 0.02300000 0.00100000 0.26370000 0.08720000 0.54369997
 3106.0644 0.00669999 0.00100000 0.25870001 0.02590000 0.54650002
 3106.2168 0.00380000 0.00100000 0.22930000 0.01640000 0.55250000
 3106.3692 0.00289999 0.00100000 0.19990000 0.01449999 0.55849999
 3106.5216 0.00249999 0.00100000 0.18089999 0.01379999 0.56480002
  3106.674 0.00249999 0.00100000 0.22499999 0.01109999 0.57270002
 3106.8264 0.00270000 0.00100000 0.26910001 0.00999999 0.58050000
 3106.9788 0.00310000 0.00100000 0.31310001 0.00999999 0.58840000
 3107.1312 0.00300000 0.00100000 0.29559999 0.00999999 0.59020000
 3107.2836 0.00370000 0.00100000 0.26800000 0.01389999 0.59119999
  3107.436 0.00639999 0.00100000 0.24050000 0.02649999 0.59210002
 3107.5884 0.00559999 0.00100000 0.25450000 0.02190000 0.58039999
 3107.7408 0.00350000 0.00100000 0.29850000 0.01190000 0.55959999
 3107.8932 0.00340000 0.00100000 0.34259998 0.00999999 0.53880000
 3108.0456 0.00350000 0.00100000 0.35260000 0.00999999 0.52289998
  3108.198 0.00279999 0.00100000 0.28279998 0.00999999 0.51840001
 3108.3504 0.00249999 0.00100000 0.21310000 0.01169999 0.51399999
 3108.5028 0.00249999 0.00100000 0.14509999 0.01730000 0.50959998
 3108.6552 0.00300000 0.00100000 0.17080000 0.01759999 0.50809997
 3108.8076 0.00400000 0.00100000 0.19650000 0.02040000 0.50660002
   3108.96 0.00839999 0.00100000 0.22220000 0.03779999 0.50510001
 3109.1124 0.02520000 0.00100000 0.23569999 0.10670000 0.50139999
 3109.2648 0.02490000 0.00100000 0.24490000 0.10159999 0.49680000
 3109.4172 0.02459999 0.00100000 0.25400000 0.09679999 0.49219998
 3109.5696 0.00650000 0.00100000 0.24140000 0.02690000 0.47810000
  3109.722 0.00370000 0.00100000 0.20290000 0.01840000 0.45260000
 3109.8744 0.00289999 0.00100000 0.16429999 0.01759999 0.42699998
 3110.0268 0.00249999 0.00100000 0.13639999 0.01830000 0.40900000
 3110.1792 0.00249999 0.00100000 0.15839999 0.01579999 0.42620000
 3110.3316 0.00249999 0.00100000 0.18050000 0.01389999 0.44339999
  3110.484 0.00249999 0.00100000 0.20250000 0.01240000 0.46059998
 3110.6364 0.00249999 0.00100000 0.22450000 0.01109999 0.46489998
 3110.7888 0.00249999 0.00100000 0.24660000 0.01009999 0.46770000
 3110.9412 0.00270000 0.00100000 0.26859998 0.00999999 0.47049999
 3111.0936 0.00249999 0.00100000 0.25459998 0.00999999 0.47049999
  3111.246 0.00249999 0.00100000 0.21780000 0.01150000 0.46889999
 3111.3984 0.00249999 0.00100000 0.18109999 0.01379999 0.46720001
 3111.5508 0.00260000 0.00100000 0.17069999 0.01539999 0.46509999
 3111.7032 0.00319999 0.00100000 0.21289999 0.01510000 0.46230000
 3111.8556 0.00449999 0.00100000 0.25519999 0.01769999 0.45950001
  3112.008 0.01219999 0.00100000 0.28979998 0.04230000 0.45570001
 3112.1604 0.00430000 0.00100000 0.18700000 0.02300000 0.43410000
 3112.3128 0.00310000 0.00100000 0.08410000 0.03730000 0.41249999
 3112.4652 0.00279999 0.00100000 0.04720000 0.14059999 0.39089998
 3112.6176 0.00249999 0.00100000 0.01030000 0.24379999 0.42590001
   3112.77 0.00249999 0.00100000 0.07819999 0.03200000 0.47769999
 3112.9224 0.00249999 0.00100000 0.14609999 0.01710000 0.52950000
 3113.0748 0.00270000 0.00100000 0.19059999 0.01420000 0.57419997
 3113.2272 0.00340000 0.00100000 0.21080000 0.01600000 0.61180001
 3113.3796 0.00510000 0.00100000 0.23100000 0.02199999 0.64929997
  3113.532 0.05849999 0.00100000 0.25049999 0.23370000 0.68339997
 3113.6844 0.06830000 0.00100000 0.26699998 0.25600001 0.70499998
 3113.8368 0.08569999 0.00100000 0.28349998 0.30219998 0.72659999
 3113.9892 0.13099999 0.00100000 0.30000001 0.43650001 0.74809998
 3114.1416 0.13089999 0.00100000 0.24830000 0.52700001 0.80199998
  3114.294 0.12460000 0.00100000 0.19140000 0.65079998 0.85839998
 3114.4464 0.11909999 0.00100000 0.13449999 0.88569998 0.91479998
 3114.5988 0.10140000 0.00100000 0.10140000          1 0.93599998
 3114.7512 0.08120000 0.00100000 0.08120000          1 0.93809998
 3114.9036 0.06100000 0.00100000 0.06100000          1 0.94019997
  3115.056 0.04410000 0.00100000 0.04410000          1 0.93930000
 3115.2084 0.03310000 0.00100000 0.03310000          1 0.93309998
 3115.3608 0.02209999 0.00100000 0.02209999          1 0.92690002
 3115.5132 0.01140000 0.00100000 0.01140000          1 0.92690002
 3115.6656 0.00410000 0.00100000 0.00410000          1 0.99169999
  3115.818 0.00419999 0.00100000 0.00419999          1          1
 3115.9704 0.00430000 0.00100000 0.00430000          1          1
 3116.1228 0.00439999 0.00100000 0.00439999          1          1
 3116.2752 0.00449999 0.00100000 0.00449999          1          1
 3116.4276 0.01370000 0.00100000 0.01370000          1          1
   3116.58 0.01899999 0.00100000 0.01899999          1          1
 3116.7324 0.02089999 0.00100000 0.02089999          1          1
 3116.8848 0.02270000 0.00100000 0.02270000          1          1
 3117.0372 0.02280000 0.00100000 0.02280000          1          1
 3117.1896 0.01720000 0.00100000 0.01720000          1 0.86580002
  3117.342 0.01169999 0.00100000 0.01169999          1 0.69349998
 3117.4944 0.00620000 0.00100000 0.00620000          1 0.52120000
 3117.6468 0.00600000 0.00100000 0.00600000          1 0.50059998
 3117.7992 0.00579999 0.00100000 0.00579999          1 0.48579999
 3117.9516 0.00549999 0.00100000 0.00549999          1 0.47099998
  3118.104 0.00529999 0.00100000 0.00529999          1 0.46639999
 3118.2564 0.00510000 0.00100000 0.00510000          1 0.46669998
 3118.4088 0.00490000 0.00100000 0.00490000          1 0.46689999
 3118.5612 0.00460000 0.00100000 0.00460000          1 0.47240000
 3118.7136 0.00439999 0.00100000 0.00439999          1 0.48559999
  3118.866 0.00419999 0.00100000 0.00419999          1 0.49880000
 3119.0184 0.00400000 0.00100000 0.00400000          1 0.50900000
 3119.1708 0.00370000 0.00100000 0.00370000          1 0.49709999
 3119.3232 0.00350000 0.00100000 0.00350000          1 0.48519998
 3119.4756 0.00329999 0.00100000 0.00329999          1 0.47339999
  3119.628 0.00300000 0.00100000 0.00300000          1 0.44980001
 3119.7804 0.00279999 0.00100000 0.00279999          1 0.42399999
 3119.9328 0.00260000 0.00100000 0.00260000          1 0.39829999
 3120.0852 0.00240000 0.00100000 0.00240000          1 0.38229998
 3120.2376 0.00209999 0.00100000 0.00209999          1 0.37409999
   3120.39 0.00190000 0.00100000 0.00190000          1 0.36590000
 3120.5424 0.00170000 0.00100000 0.00170000          1 0.36030000
