~Version Information
VERS.                     2.0: CWLS log ASCII Standard Version 2.00
WRAP.                      NO: One line per depth step

~Well Information Block
#MNEM.UNIT                 Value                       Information
#------------              -----                       -----------
STRT.M                   3358.0000                    :START
STOP.M                   3681.9000                    :STOP
STEP.M                      0.1000                    :STEP
NULL.                     -999.25                     :NULL VALUE
COMP.         Statoil Petroleum AS                    :Company
WELL.         15/9-F-1 A                              :Well
FLD .         VOLVE                                   :Field
LOC .         Maersk Inspirer                         :Location
PROV.                                                 :Province
CNTY.         Unused                                  :County
STATE.                                                 :State
CTRY.                                                 :Country
DATE.                                                 :Log Date
SRVC.                                                 :Service Company
UWI .                                                 :Unique Well Identifier
API .                                                 :API Number
LATI.         058 26' 29.907" N    DMS                :Latitude
LONG.         001 53' 14.708" E    DMS                :Longtitude
PD  .         MSL                                     :Permanent Datum
ELZ .M                 0.0000                         :Elev. Log Zero

~Curve Information
#MNEM   .UNIT             API CODE Curve Description
#------------             -------- -----------------
DEPTH   .M            00 001 00 00:   0  Depth
BVW     .V/V          00 000 00 00:   1  Bound Volume Water
COAL_FLAG.unitless    00 000 00 00:   2  Coal Flag
KLOGH   .mD           00 000 00 00:   3  Calculated Horizontal PERMEABILITY from logs
PHIF    .V/V          00 000 00 00:   4  Final porosity
SAND_FLAG.unitless    00 000 00 00:   5  Sand Flag
SW      .V/V          00 000 00 00:   6  Water Saturation (Archie)
VCARB   .V/V          00 000 00 00:   7  IFC(CARB_FLAG>0.5,1-VSH, VCARB)
VSH     .V/V          00 000 00 00:   8  Volume of Shale

~Parameter Information
#MNEM.UNIT       Value           Description
#------------    -----           -----------
HLD .         Terms and Conditions.:Header Legal Disclaimer
RUN .         1                 :Run number

~Other Information
PETROPHYSICAL INTERPRETATION: OUTPUT

# --- LOG MNEMONICS AND UNITS ---
#Depth          BVW             COAL_FLAG       KLOGH           PHIF            SAND_FLAG       SW              VCARB           VSH            
#M              V/V             unitless        mD              V/V             unitless        V/V             V/V             V/V            

~A
# ...
      3593.2000          0.1208          0.0000          0.3759          0.1208          1.0000          1.0000          0.0374          0.2257
      3593.3000          0.1280          0.0000          0.5542          0.1280          1.0000          1.0000          0.0288          0.2111
      3593.4000          0.1348          0.0000          0.7078          0.1348          1.0000          1.0000          0.0020          0.2152
      3593.5000          0.1299          0.0000          0.7860          0.1387          1.0000          0.9368          0.0000          0.2226
      3593.6000          0.1276          0.0000          0.7307          0.1391          1.0000          0.9177          0.0000          0.2354
      3593.7000          0.1321          0.0000          0.6949          0.1360          1.0000          0.9712          0.0000          0.2249
      3593.8000          0.1270          0.0000          0.4791          0.1270          1.0000          1.0000          0.0164          0.2264
      3593.9000          0.1121          0.0000          0.2988          0.1121          1.0000          1.0000          0.0859          0.2086
      3594.0000          0.0972          0.0000          0.1763          0.0972          0.0000          1.0000          0.1530          0.1981
      3594.1000          0.0895          0.0000          0.1203          0.0895          0.0000          1.0000          0.1681          0.2088
      3594.2000          0.0914          0.0000          0.1202          0.0914          0.0000          1.0000          0.1469          0.2199
      3594.3000          0.0978          0.0000          0.1328          0.0978          0.0000          1.0000          0.0971          0.2426
      3594.4000          0.1023          0.0000          0.1195          0.1023          1.0000          1.0000          0.0381          0.2842
      3594.5000          0.1033          0.0000          0.0886          0.1033          1.0000          1.0000          0.0000          0.3332
      3594.6000          0.1050          0.0000          0.0620          0.1050          1.0000          1.0000          0.0000          0.3947
      3594.7000          0.1127          0.0000          0.0525          0.1127          1.0000          1.0000          0.0000          0.4637
      3594.8000          0.1265          0.0000          0.0840          0.1265          1.0000          1.0000          0.0000          0.4757
      3594.9000          0.1189          0.0000          0.1796          0.1386          1.0000          0.8582          0.0000          0.4357
      3595.0000          0.1266          0.0000          0.2939          0.1403          1.0000          0.9027          0.0000          0.3742
      3595.1000          0.1313          0.0000          0.3370          0.1313          1.0000          1.0000          0.0000          0.3021
      3595.2000          0.1206          0.0000          0.3016          0.1206          1.0000          1.0000          0.0078          0.2563
      3595.3000          0.1175          0.0000          0.3625          0.1175          1.0000          1.0000          0.0632          0.2120
      3595.4000          0.1237          0.0000          0.5879          0.1237          1.0000          1.0000          0.0807          0.1775
      3595.5000          0.1323          0.0000          0.7523          0.1323          1.0000          1.0000          0.0338          0.1922
      3595.6000          0.1343          0.0000          0.7826          0.1343          1.0000          1.0000          0.0211          0.1979
      3595.7000          0.1253          0.0000          0.5121          0.1253          1.0000          1.0000          0.0421          0.2070
      3595.8000          0.1107          0.0000          0.2391          0.1107          1.0000          1.0000          0.0641          0.2326
      3595.9000          0.0997          0.0000          0.1170          0.0997          0.0000          1.0000          0.0583          0.2723
      3596.0000          0.1001          0.0000          0.0927          0.1001          1.0000          1.0000          0.0224          0.3079
      3596.1000          0.1131          0.0000          0.1213          0.1131          1.0000          1.0000          0.0000          0.3448
      3596.2000          0.1314          0.0000          0.2182          0.1314          1.0000          1.0000          0.0000          0.3656
      3596.3000          0.1456          0.0000          0.3356          0.1456          1.0000          1.0000          0.0000          0.3857
      3596.4000          0.1519          0.0000          0.4512          0.1519          1.0000          1.0000          0.0000          0.3796
      3596.5000          0.1507          0.0000          0.4544          0.1507          1.0000          1.0000          0.0000          0.3713
      3596.6000          0.1468          0.0000          0.4467          0.1468          1.0000          1.0000          0.0000          0.3516
      3596.7000          0.1446          0.0000          0.3935          0.1446          1.0000          1.0000          0.0000          0.3573
      3596.8000          0.1451          0.0000          0.3824          0.1451          1.0000          1.0000          0.0000          0.3640
      3596.9000          0.1470          0.0000          0.4485          0.1470          1.0000          1.0000          0.0000          0.3520
      3597.0000          0.1490          0.0000          0.5673          0.1490          1.0000          1.0000          0.0000          0.3297
      3597.1000          0.1509          0.0000          0.6651          0.1509          1.0000          1.0000          0.0000          0.3177
      3597.2000          0.1541          0.0000          0.7789          0.1541          1.0000          1.0000          0.0000          0.3133
      3597.3000          0.1590          0.0000          0.8801          0.1590          1.0000          1.0000          0.0000          0.3238
      3597.4000          0.1645          0.0000          1.0025          0.1645          1.0000          1.0000          0.0000          0.3370
      3597.5000          0.1680          0.0000          1.0513          0.1680          1.0000          1.0000          0.0000          0.3504
      3597.6000          0.1686          0.0000          1.1408          0.1686          1.0000          1.0000          0.0000          0.3420
      3597.7000          0.1671          0.0000          0.9354          0.1671          1.0000          1.0000          0.0000          0.3622
      3597.8000          0.1648          0.0000          0.7241          0.1648          1.0000          1.0000          0.0000          0.3856
      3597.9000          0.1625          0.0000          0.6104          0.1625          1.0000          1.0000          0.0000          0.3971
      3598.0000          0.1600          0.0000          0.5516          0.1600          1.0000          1.0000          0.0000          0.3975
      3598.1000          0.1571          0.0000          0.5760          0.1571          1.0000          1.0000          0.0000          0.3744
      3598.2000          0.1532          0.0000          0.6313          0.1532          1.0000          1.0000          0.0000          0.3386
      3598.3000          0.1480          0.0000          0.6531          0.1480          1.0000          1.0000          0.0000          0.3036
      3598.4000          0.1421          0.0000          0.6566          0.1421          1.0000          1.0000          0.0000          0.2683
      3598.5000          0.1354          0.0000          0.6233          0.1354          1.0000          1.0000          0.0000          0.2371
      3598.6000          0.1283          0.0000          0.4729          0.1283          1.0000          1.0000          0.0034          0.2356
      3598.7000          0.1204          0.0000          0.3591          0.1204          1.0000          1.0000          0.0347          0.2298
