~Version Information
VERS.                     2.0: CWLS log ASCII Standard Version 2.00
WRAP.                      NO: One line per depth step

~Well Information Block
#MNEM.UNIT                 Value                       Information
#------------              -----                       -----------
STRT.M                   3271.0000                    :START
STOP.M                   3631.9000                    :STOP
STEP.M                      0.1000                    :STEP
NULL.                     -999.25                     :NULL VALUE
COMP.         Statoil Petroleum                       :Company
WELL.         15/9-F-1                                :Well
FLD .         VOLVE                                   :Field
LOC .         Maersk Inspirer                         :Location
PROV.                                                 :Province
CNTY.                                                 :County
STATE.                                                 :State
CTRY.                                                 :Country
DATE.                                                 :Log Date
SRVC.                                                 :Service Company
UWI .                                                 :Unique Well Identifier
API .                                                 :API Number
LATI.         058 26' 29.907" N    DMS                :Latitude
LONG.         001 53' 14.708" E    DMS                :Longtitude
PD  .         MSL                                     :Permanent Datum
ELZ .M                 0.0000                         :Elev. Log Zero

~Curve Information
#MNEM   .UNIT             API CODE Curve Description
#------------             -------- -----------------
DEPTH   .M            00 001 00 00:   0  Depth
BVW     .V/V          00 000 00 00:   1  Bound Volume Water
COAL_FLAG.unitless    00 000 00 00:   2  Coal Flag
KLOGH   .MD           00 000 00 00:   3  Calculated Horizontal PERMEABILITY from logs
PHIF    .V/V          00 000 00 00:   4  Final porosity
SAND_FLAG.unitless    00 000 00 00:   5  Sand Flag
SW      .V/V          00 000 00 00:   6  Water Saturation (Archie)
VCARB   .V/V          00 000 00 00:   7  Volume of calcite; dolomite and siderite from log analysis; repo
VSH     .V/V          00 000 00 00:   8  (GR-15)/(250-15)

~Parameter Information
#MNEM.UNIT       Value           Description
#------------    -----           -----------
HLD .         Terms and Conditions.:Header Legal Disclaimer
RUN .         1                 :Run number

~Other Information
PETROPHYSICAL INTERPRETATION: OUTPUT

# --- LOG MNEMONICS AND UNITS ---
#Depth          BVW             COAL_FLAG       KLOGH           PHIF            SAND_FLAG       SW              VCARB           VSH            
#M              V/V             unitless        MD              V/V             unitless        V/V             V/V             V/V            

~A
# ...
      3528.6000          0.0687          0.0000          0.0263          0.0687          0.0000          1.0000          0.1206          0.3086
      3528.7000          0.0531          0.0000          0.0131          0.0531          0.0000          1.0000          0.1607          0.3189
      3528.8000          0.0452          0.0000          0.0043          0.0452          0.0000          1.0000          0.0637          0.4343
      3528.9000          0.0422          0.0000          0.0015          0.0422          0.0000          1.0000          0.0000          0.5670
      3529.0000          0.0412          0.0000          0.0010          0.0412          0.0000          1.0000          0.0000          0.6647
      3529.1000          0.0407          0.0000          0.0010          0.0407          0.0000          1.0000          0.0000          0.7323
      3529.2000          0.0401          0.0000          0.0010          0.0401          0.0000          1.0000          0.0000          0.7312
      3529.3000          0.0391          0.0000          0.0010          0.0391          0.0000          1.0000          0.0000          0.6714
      3529.4000          0.0370          0.0000          0.0010          0.0370          0.0000          1.0000          0.0000          0.5944
      3529.5000          0.0341          0.0000          0.0015          0.0341          0.0000          1.0000          0.0177          0.5263
      3529.6000          0.0306          0.0000          0.0013          0.0306          0.0000          1.0000          0.0259          0.5257
      3529.7000          0.0270          0.0000          0.0010          0.0270          0.0000          1.0000          0.0000          0.5871
      3529.8000          0.0224          0.0000          0.0010          0.0224          0.0000          1.0000          0.0000          0.6620
      3529.9000          0.0200          0.0000          0.0010          0.0200          0.0000          1.0000          0.0000          0.7340
      3530.0000          0.0200          0.0000          0.0010          0.0200          0.0000          1.0000          0.0000          0.7610
      3530.1000          0.0200          0.0000          0.0010          0.0200          0.0000          1.0000          0.0000          0.7399
      3530.2000          0.0200          0.0000          0.0010          0.0200          0.0000          1.0000          0.0000          0.6882
      3530.3000          0.0229          0.0000          0.0010          0.0229          0.0000          1.0000          0.0000          0.6456
      3530.4000          0.0309          0.0000          0.0010          0.0309          0.0000          1.0000          0.0000          0.6352
      3530.5000          0.0327          0.0000          0.0010          0.0327          0.0000          1.0000          0.0000          0.6836
      3530.6000          0.0287          0.0000          0.0010          0.0287          0.0000          1.0000          0.0000          0.7500
      3530.7000          0.0238          0.0000          0.0010          0.0238          0.0000          1.0000          0.0000          0.7724
      3530.8000          0.0215          0.0000          0.0010          0.0215          0.0000          1.0000          0.0000          0.7900
      3530.9000          0.0221          0.0000          0.0010          0.0221          0.0000          1.0000          0.0000          0.7834
      3531.0000          0.0234          0.0000          0.0010          0.0234          0.0000          1.0000          0.0000          0.7697
      3531.1000          0.0237          0.0000          0.0010          0.0237          0.0000          1.0000          0.0000          0.7228
      3531.2000          0.0228          0.0000          0.0010          0.0228          0.0000          1.0000          0.0000          0.6655
      3531.3000          0.0218          0.0000          0.0010          0.0218          0.0000          1.0000          0.0000          0.6447
      3531.4000          0.0214          0.0000          0.0010          0.0214          0.0000          1.0000          0.0000          0.6791
      3531.5000          0.0215          0.0000          0.0010          0.0215          0.0000          1.0000          0.0000          0.6920
      3531.6000          0.0218          0.0000          0.0010          0.0218          0.0000          1.0000          0.0000          0.6929
      3531.7000          0.0222          0.0000          0.0010          0.0222          0.0000          1.0000          0.0000          0.7022
      3531.8000          0.0223          0.0000          0.0010          0.0223          0.0000          1.0000          0.0000          0.7304
      3531.9000          0.0219          0.0000          0.0010          0.0219          0.0000          1.0000          0.0000          0.7346
      3532.0000          0.0221          0.0000          0.0010          0.0221          0.0000          1.0000          0.0000          0.7415
      3532.1000          0.0243          0.0000          0.0010          0.0243          0.0000          1.0000          0.0000          0.7808
      3532.2000          0.0289          0.0000          0.0010          0.0289          0.0000          1.0000          0.0000          0.8208
      3532.3000          0.0339          0.0000          0.0010          0.0339          0.0000          1.0000          0.0000          0.8329
      3532.4000          0.0372          0.0000          0.0010          0.0372          0.0000          1.0000          0.0000          0.8258
      3532.5000          0.0375          0.0000          0.0010          0.0375          0.0000          1.0000          0.0000          0.8057
      3532.6000          0.0354          0.0000          0.0010          0.0354          0.0000          1.0000          0.0000          0.7751
      3532.7000          0.0327          0.0000          0.0010          0.0327          0.0000          1.0000          0.0000          0.7130
      3532.8000          0.0314          0.0000          0.0010          0.0314          0.0000          1.0000          0.0000          0.7262
      3532.9000          0.0318          0.0000          0.0010          0.0318          0.0000          1.0000          0.0000          0.7647
      3533.0000          0.0329          0.0000          0.0010          0.0329          0.0000          1.0000          0.0000          0.7721
      3533.1000          0.0335          0.0000          0.0010          0.0335          0.0000          1.0000          0.0000          0.7514
      3533.2000          0.0333          0.0000          0.0010          0.0333          0.0000          1.0000          0.0000          0.7105
      3533.3000          0.0311          0.0000          0.0010          0.0311          0.0000          1.0000          0.0000          0.6316
      3533.4000          0.0259          0.0000          0.0010          0.0259          0.0000          1.0000          0.0335          0.5300
      3533.5000          0.0200          0.0000          0.0013          0.0200          0.0000          1.0000          0.1040          0.4653
      3533.6000          0.0200          0.0000          0.0018          0.0200          0.0000          1.0000          0.1575          0.4143
      3533.7000          0.0200          0.0000          0.0021          0.0200          0.0000          1.0000          0.1826          0.3927
      3533.8000          0.0200          0.0000          0.0016          0.0200          0.0000          1.0000          0.1419          0.4285
      3533.9000          0.0200          0.0000          0.0010          0.0200          0.0000          1.0000          0.0581          0.5165
      3534.0000          0.0200          0.0000          0.0010          0.0200          0.0000          1.0000          0.0000          0.6085
      3534.1000          0.0278          0.0000          0.0010          0.0278          0.0000          1.0000          0.0000          0.6699
