~Version Information
VERS.                     2.0: CWLS log ASCII Standard Version 2.00
WRAP.                      NO: One line per depth step

~Well Information Block
#MNEM       .UNIT          Value                       Information
#-------------------------------------------------------------------------
STRT        .M             3102.102                    :START
STOP        .M             3505.8096                   :STOP
STEP        .M             0.1524                      :STEP
NULL        .              -999.25                     :NULL VALUE
COMP        .              STATOILHYDRO                :COMPANY
WELL        .              15/9-F-12                   :WELL
FLD         .              VOLVE                       :FIELD
LOC         .              UNKNOWN                     :LOCATION
CNTY        .              UNKNOWN                     :COUNTY
STAT        .              UNKNOWN                     :STATE
CTRY        .              Norway                      :COUNTRY
SRVC        .              UNKNOWN                     :SERVICE COMPANY
DATE        .              UNKNOWN                     :LOG DATE
UWI         .              NO 15/9-F-12                :UNIQUE WELL ID
XCOORD      .              435050.170000               :SURFACE X
YCOORD      .              6478574.700000              :SURFACE Y
LAT         .              58.441713                   :LATITUDE
LON         .              1.887480                    :LONGITUDE
ELEV        .M             54.9000                     :SURFACE ELEV
ELEV_TYPE   .              KB                          :ELEV TYPE

~Curve Information
#MNEM       .UNIT             API CODE : Curve Description
#-------------------------------------------------------------------------
DEPTH       .M                UNKNOWN  : Measured Dept
BVW         .v/v_decimal      UNKNOWN  : BVW:UNKNOWN:rC:NONE:v1
KLOGH       .mD               UNKNOWN  : KLOGH:UNKNOWN:rC:NONE:v1
PHIF        .v/v_decimal      UNKNOWN  : PHIF:UNKNOWN:rC:NONE:v1
SW          .v/v_decimal      UNKNOWN  : SW:UNKNOWN:rC:NONE:v1
VSH         .v/v_decimal      UNKNOWN  : VSH:UNKNOWN:rC:NONE:v1
# --- LOG MNEMONICS AND UNITS ---
#Depth     BVW        KLOGH      PHIF       SW         VSH       
#M         v/v_decima mD         v/v_decima v/v_decima v/v_decima
~A
# ...
 3232.2516 0.03339999 2.13639998 0.19859999 0.16799999 0.36210000
  3232.404 0.03429999 0.90640002 0.19410000 0.17679999 0.39950001
 3232.5564 0.03620000 0.34689998 0.19069999 0.18970000 0.44279998
 3232.7088 0.04019999 0.11140000 0.18919999 0.21240000 0.49630001
 3232.8612 0.04600000 0.03579999 0.18780000 0.24510000 0.54989999
 3233.0136 0.05449999 0.01319999 0.18790000 0.28990000 0.59789997
  3233.166 0.05299999 0.02099999 0.20319999 0.26089999 0.58920001
 3233.3184 0.05169999 0.03330000 0.21850000 0.23680000 0.58060002
 3233.4708 0.05059999 0.05279999 0.23379999 0.21639999 0.57190001
 3233.6232 0.04919999 0.06459999 0.24070000 0.20450000 0.56830000
 3233.7756 0.04789999 0.07440000 0.24549999 0.19509999 0.56580001
  3233.928 0.04670000 0.08569999 0.25040000 0.18659999 0.56339997
 3234.0804 0.04580000 0.07639999 0.25330001 0.18080000 0.57139998
 3234.2328 0.04500000 0.05409999 0.25429999 0.17710000 0.58890002
 3234.3852 0.04430000 0.03840000 0.25519999 0.17360000 0.60640001
 3234.5376 0.04360000 0.03240000 0.25690001 0.16979999 0.61610001
   3234.69 0.04289999 0.04670000 0.26050001 0.16449999 0.60170000
 3234.8424 0.04210000 0.06719999 0.26420000 0.15950000 0.58740001
 3234.9948 0.04149999 0.09679999 0.26789999 0.15479999 0.57300001
 3235.1472 0.04080000 0.09929999 0.26510000 0.15379999 0.56929999
 3235.2996 0.04010000 0.10059999 0.26210001 0.15309999 0.56599998
  3235.452 0.03950000 0.10189999 0.25920000 0.15240000 0.56279999
 3235.6044 0.03900000 0.10629999 0.25510001 0.15279999 0.55709999
 3235.7568 0.03849999 0.11240000 0.25060001 0.15379999 0.55040001
 3235.9092 0.03810000 0.11869999 0.24600000 0.15479999 0.54369997
 3236.0616 0.03759999 0.12349999 0.24439999 0.15410000 0.54040002
  3236.214 0.03720000 0.12540000 0.24709999 0.15070000 0.54199999
 3236.3664 0.03680000 0.12739999 0.24979999 0.14749999 0.54369997
 3236.5188 0.03640000 0.13279999 0.25240001 0.14409999 0.54400002
 3236.6712 0.03539999 0.16640000 0.25479999 0.13879999 0.53530001
 3236.8236 0.03449999 0.20839999 0.25720000 0.13400000 0.52660000
  3236.976 0.03359999 0.26120001 0.25970000 0.12960000 0.51779997
 3237.1284 0.03330000 0.34760001 0.26060000 0.12790000 0.50480002
 3237.2808 0.03310000 0.46799999 0.26120001 0.12669999 0.49099999
 3237.4332 0.03290000 0.62999999 0.26179999 0.12559999 0.47720000
 3237.5856 0.03269999 0.84689998 0.26440000 0.12380000 0.46529999
  3237.738 0.03269999 1.13740003 0.26859998 0.12160000 0.45480000
 3237.8904 0.03260000 1.52760004 0.27279999 0.11940000 0.44429999
 3238.0428 0.03249999 1.88670003 0.27529999 0.11800000 0.43630000
 3238.1952 0.03240000 1.88010001 0.27329999 0.11860000 0.43470001
 3238.3476 0.03229999 1.87349998 0.27129998 0.11909999 0.43309998
    3238.5 0.03220000 1.86689996 0.26930001 0.11959999 0.43140000
 3238.6524 0.03220000 1.91600000 0.26899999 0.11980000 0.43000000
 3238.8048 0.03220000 1.96630001 0.26879999 0.11990000 0.42849999
 3238.9572 0.03220000 2.01799988 0.26850000 0.11999999 0.42699998
 3239.1096 0.03229999 2.16059994 0.26820001 0.12049999 0.42340001
  3239.262 0.03249999 2.35190010 0.26780000 0.12120000 0.41899999
 3239.4144 0.03260000 2.56019997 0.26739999 0.12189999 0.41449999
 3239.5668 0.03280000 2.72799992 0.26829999 0.12210000 0.41229999
 3239.7192 0.03299999 2.82820010 0.27099999 0.12179999 0.41290000
 3239.8716 0.03319999 2.93210005 0.27360001 0.12150000 0.41350001
  3240.024 0.03350000 2.99300003 0.27570000 0.12150000 0.41440001
 3240.1764 0.03370000 2.81170010 0.27469998 0.12259999 0.41650000
 3240.3288 0.03390000 2.64149999 0.27369999 0.12370000 0.41870000
 3240.4812 0.03409999 2.48149991 0.27270001 0.12489999 0.42080000
 3240.6336 0.03409999 2.68289995 0.27300000      0.125 0.41729998
  3240.786 0.03420000 2.95860004 0.27349999 0.12489999 0.41299998
 3240.9384 0.03420000 3.26270008 0.27390000 0.12489999 0.40869998
 3241.0908 0.03429999 3.53029990 0.27500000 0.12479999 0.40580001
 3241.2432 0.03449999 3.77110004 0.27649998 0.12479999 0.40389999
 3241.3956 0.03469999 4.02829980 0.27799999 0.12479999 0.40209999
  3241.548 0.03480000 4.12020015 0.27860000 0.12479999 0.40160000
 3241.7004 0.03469999 3.83419990 0.27759999      0.125 0.40410000
 3241.8528 0.03460000 3.56809997 0.27649998 0.12520000 0.40659999
 3242.0052 0.03449999 3.30189990 0.27540001 0.12549999 0.40939998
 3242.1576 0.03480000 2.60800004 0.27349999 0.12739999 0.41909998
   3242.31 0.03510000 2.05979990 0.27160000 0.12939999 0.42879998
 3242.4624 0.03539999 1.62689995 0.26969999 0.13140000 0.43849998
 3242.6148 0.03510000 1.35880005 0.26039999 0.13490000 0.43889999
 3242.7672 0.03460000 1.15569996 0.24860000 0.13910000 0.43619999
 3242.9196 0.03400000 0.98299998 0.23690000 0.14370000 0.43360000
  3243.072 0.03310000 0.84689998 0.22370000 0.14810000 0.42910000
 3243.2244 0.03189999 0.74000000 0.20900000 0.15250000 0.42250001
 3243.3768 0.03070000 0.64660000 0.19419999 0.15790000 0.41589999
 3243.5292 0.02969999 0.58399999 0.18160000 0.16329999 0.40959998
 3243.6816 0.02930000 0.60650002 0.17820000 0.16449999 0.40470001
  3243.834 0.02899999 0.62980002 0.17470000 0.16580000 0.39980000
 3243.9864 0.02859999 0.65410000 0.17120000 0.16709999 0.39489999
 3244.1388 0.02840000 0.73269999 0.16979999 0.16730000 0.38809999
 3244.2912 0.02820000 0.82679998 0.16850000 0.16740000 0.38119998
 3244.4436 0.02800000 0.93300002 0.16730000 0.16750000 0.37430000
  3244.596 0.02800000 1.14999997 0.16930000 0.16529999 0.36599999
 3244.7484 0.02800000 1.49269998 0.17319999 0.16179999 0.35690000
 3244.9008 0.02810000 1.93760001 0.17710000 0.15839999 0.34779998
 3245.0532 0.02820000 2.38790011 0.18170000 0.15489999 0.34180000
 3245.2056 0.02830000 2.67149996 0.18760000 0.15109999 0.34160000
  3245.358 0.02850000 2.98889994 0.19349999 0.14740000 0.34130001
 3245.5104 0.02869999 3.34130001 0.19920000 0.14409999 0.34099999
 3245.6628 0.02879999 3.69560003 0.20260000 0.14210000 0.33930000
 3245.8152 0.02889999 4.08739995 0.20610000 0.14020000 0.33750000
 3245.9676 0.02899999 4.52069997 0.20960000 0.13830000 0.33579999
   3246.12 0.02910000 4.17689990 0.21199999 0.13709999 0.34160000
 3246.2724 0.02910000 3.67630004 0.21400000 0.13600000 0.34959998
 3246.4248 0.02910000 3.23569989 0.21600000 0.13490000 0.35749998
 3246.5772 0.02930000 3.25530004 0.22040000 0.13269999 0.36120000
 3246.7296 0.02950000 3.73060011 0.22730000 0.12970000 0.36070001
  3246.882 0.02969999 4.27530002 0.23420000 0.12680000 0.36030000
 3247.0344 0.02989999 5.08529996 0.24040000 0.12430000 0.35740000
 3247.1868 0.02999999 6.87190008 0.24420000 0.12280000 0.34630000
 3247.3392 0.03009999 9.28619956 0.24809999 0.12129999 0.33520001
 3247.4916 0.03020000 12.5488004 0.25200000 0.11990000 0.32420000
  3247.644 0.03030000 9.95489978 0.25180000 0.12049999 0.33509999
 3247.7964 0.03050000 7.65560007 0.25130000 0.12129999 0.34740000
 3247.9488 0.03060000 5.88730001 0.25080001 0.12200000 0.35960000
 3248.1012 0.03060000 4.85020017 0.24840000 0.12330000 0.36680001
 3248.2536 0.03060000 4.13740015 0.24490000 0.12489999 0.37139999
  3248.406 0.03060000 3.52940011 0.24150000 0.12659999 0.37599998
 3248.5584 0.03060000 2.90019989 0.23939999 0.12790000 0.38370001
 3248.7108 0.03079999 2.24390006 0.23960000 0.12870000 0.39620000
 3248.8632 0.03099999 1.73609995 0.23980000 0.12939999 0.40869998
 3249.0156 0.03119999 1.35529994 0.23999999 0.13019999 0.42089998
  3249.168 0.03159999 1.14489996 0.24029999 0.13160000 0.42930001
 3249.3204 0.03200000 0.96710002 0.24060000 0.13310000 0.43770000
 3249.4728 0.03240000 0.81690001 0.24089999 0.13459999 0.44609999
 3249.6252 0.03269999 0.82099997 0.23849999 0.13709999 0.44369998
 3249.7776 0.03299999 0.85680001 0.23549999 0.14000000 0.43900001
   3249.93 0.03319999 0.89420002 0.23250000 0.14300000 0.43430000
 3250.0824 0.03359999 0.98059999 0.23540000 0.14290000 0.43239998
 3250.2348 0.03409999 1.12150001 0.24330000 0.14010000 0.43290001
 3250.3872 0.03449999 1.28269994 0.25119999 0.13760000 0.43349999
 3250.5396 0.03489999 1.31659996 0.25519999 0.13689999 0.43579998
  3250.692 0.03510000 0.99279999 0.24819999 0.14159999 0.44319999
