~Version Information
VERS.                     2.0: CWLS log ASCII Standard Version 2.00
WRAP.                      NO: One line per depth step

~Well Information Block
#MNEM.UNIT                 Value                       Information
#------------              -----                       -----------
STRT.M                    3575.000                    :START
STOP.M                    3761.800                    :STOP
STEP.M                       0.100                    :STEP
NULL.                     -999.25                     :NULL VALUE
COMP.         Statoil Petroleum AS                    :Company
WELL.         15/9-F-11 A                             :Well
FLD .         VOLVE                                   :Field
LOC .         Maersk Inspirer                         :Location
PROV.                                                 :Province
CNTY.                                                 :County
STATE.                                                 :State
CTRY.         Norway                                  :Country
DATE.                                                 :Log Date
SRVC.                                                 :Service Company
UWI .                                                 :Unique Well Identifier
API .                                                 :API Number
LATI.         058 26' 29.956" N    DMS                :Latitude
LONG.         001 53' 14.866" E    DMS                :Longtitude
PD  .         MSL                                     :Permanent Datum
EDF .M            54.900                              :Elevations D.F.
EGL .M           -91.000                              :Elevations G.L.
ELZ .M            54.900                              :Elev. Log Zero
LMF .         DF                                      :Log Measured From

~Curve Information
#MNEM   .UNIT             API CODE Curve Description
#------------             -------- -----------------
DEPTH   .M            00 001 00 00:   0  Depth
BVW     .v/v          00 000 00 00:   1  BVW:CPI:rC:NONE:v1
CARB_FLAG.UNKNOWN     00 000 00 00:   2  CARB_FLAG:CPI:rC:NONE:v1
COAL_FLAG.UNKNOWN     00 000 00 00:   3  COAL_FLAG:CPI:rC:NONE:v1
KLOGH   .mD           00 000 00 00:   4  KLOGH:CPI:rC:NONE:v1
PHIF    .v/v          00 000 00 00:   5  PHIF:CPI:rC:NONE:v1
SAND_FLAG.UNKNOWN     00 000 00 00:   6  SAND_FLAG:CPI:rC:NONE:v1
SW      .v/v          00 000 00 00:   7  SW:CPI:rC:NONE:v1
VSH     .v/v          00 000 00 00:   8  VSH:CPI:rC:NONE:v1

~Parameter Information
#MNEM.UNIT       Value           Description
#------------    -----           -----------
RUN .         1                 :Run number

~Other Information
PETROPHYSICAL_INTERPRETATION: OUTPUT

# --- LOG MNEMONICS AND UNITS ---
#Depth     BVW        CARB_FLAG  COAL_FLAG  KLOGH      PHIF       SAND_FLAG  SW         VSH       
#M         v/v        UNKNOWN    UNKNOWN    mD         v/v        UNKNOWN    v/v        v/v       

~A
# ...
  3696.500      0.084      0.000      0.000    437.512      0.248      1.000      0.341      0.149
  3696.600      0.085      0.000      0.000    378.736      0.247      1.000      0.344      0.155
  3696.700      0.085      0.000      0.000    360.056      0.245      1.000      0.348      0.156
  3696.800      0.086      0.000      0.000    387.062      0.245      1.000      0.351      0.153
  3696.900      0.087      0.000      0.000    326.511      0.245      1.000      0.356      0.161
  3697.000      0.088      0.000      0.000    239.467      0.244      1.000      0.362      0.175
  3697.100      0.089      0.000      0.000    236.534      0.242      1.000      0.368      0.173
  3697.200      0.089      0.000      0.000    222.493      0.237      1.000      0.376      0.172
  3697.300      0.090      0.000      0.000    165.713      0.231      1.000      0.388      0.181
  3697.400      0.091      0.000      0.000    159.382      0.225      1.000      0.403      0.177
  3697.500      0.091      0.000      0.000    129.835      0.218      1.000      0.417      0.181
  3697.600      0.093      0.000      0.000     97.384      0.218      1.000      0.428      0.195
  3697.700      0.095      0.000      0.000    105.600      0.220      1.000      0.434      0.193
  3697.800      0.097      0.000      0.000     91.510      0.224      1.000      0.435      0.204
  3697.900      0.101      0.000      0.000     79.998      0.229      1.000      0.442      0.214
  3698.000      0.105      0.000      0.000     66.206      0.232      1.000      0.454      0.226
  3698.100      0.109      0.000      0.000     47.698      0.234      1.000      0.468      0.243
  3698.200      0.113      0.000      0.000     40.851      0.234      1.000      0.482      0.252
  3698.300      0.116      0.000      0.000     38.201      0.234      1.000      0.496      0.254
  3698.400      0.120      0.000      0.000     39.035      0.235      1.000      0.512      0.255
  3698.500      0.123      0.000      0.000     43.202      0.238      1.000      0.517      0.252
  3698.600      0.127      0.000      0.000     37.542      0.239      1.000      0.530      0.260
  3698.700      0.126      0.000      0.000     49.819      0.241      1.000      0.523      0.248
  3698.800      0.125      0.000      0.000     65.066      0.244      1.000      0.512      0.238
  3698.900      0.124      0.000      0.000     68.212      0.247      1.000      0.502      0.238
  3699.000      0.124      0.000      0.000     57.072      0.248      1.000      0.499      0.248
  3699.100      0.124      0.000      0.000     47.781      0.248      1.000      0.501      0.256
  3699.200      0.123      0.000      0.000     46.066      0.248      1.000      0.497      0.258
  3699.300      0.123      0.000      0.000     45.317      0.249      1.000      0.494      0.259
  3699.400      0.121      0.000      0.000     46.540      0.250      1.000      0.486      0.259
  3699.500      0.120      0.000      0.000     40.088      0.250      1.000      0.478      0.266
  3699.600      0.119      0.000      0.000     40.345      0.250      1.000      0.476      0.266
  3699.700      0.119      0.000      0.000     42.797      0.250      1.000      0.474      0.263
  3699.800      0.119      0.000      0.000     46.472      0.250      1.000      0.473      0.260
  3699.900      0.119      0.000      0.000     36.827      0.251      1.000      0.476      0.271
  3700.000      0.120      0.000      0.000     30.332      0.252      1.000      0.477      0.281
  3700.100      0.120      0.000      0.000     31.720      0.253      1.000      0.475      0.280
  3700.200      0.121      0.000      0.000     26.576      0.255      1.000      0.474      0.290
  3700.300      0.123      0.000      0.000     26.396      0.257      1.000      0.481      0.292
  3700.400      0.125      0.000      0.000     42.910      0.258      1.000      0.486      0.270
  3700.500      0.127      0.000      0.000     48.003      0.258      1.000      0.493      0.265
  3700.600      0.129      0.000      0.000     38.724      0.258      1.000      0.498      0.275
  3700.700      0.130      0.000      0.000     41.363      0.255      1.000      0.510      0.269
  3700.800      0.131      0.000      0.000     37.350      0.254      1.000      0.516      0.273
  3700.900      0.134      0.000      0.000     25.341      0.254      1.000      0.528      0.292
  3701.000      0.138      0.000      0.000     19.494      0.253      1.000      0.546      0.304
  3701.100      0.142      0.000      0.000     19.786      0.254      1.000      0.557      0.304
  3701.200      0.146      0.000      0.000     18.662      0.255      1.000      0.572      0.307
  3701.300      0.147      0.000      0.000     17.416      0.255      1.000      0.578      0.311
  3701.400      0.145      0.000      0.000     17.732      0.253      1.000      0.573      0.308
  3701.500      0.139      0.000      0.000     18.915      0.252      1.000      0.553      0.304
  3701.600      0.135      0.000      0.000     15.889      0.249      1.000      0.543      0.310
  3701.700      0.132      0.000      0.000     20.582      0.246      1.000      0.535      0.295
  3701.800      0.130      0.000      0.000     21.610      0.244      1.000      0.532      0.291
  3701.900      0.130      0.000      0.000     21.050      0.242      1.000      0.538      0.295
  3702.000      0.119      0.000      0.000     18.142      0.216      1.000      0.549      0.424
  3702.100      0.113      0.000      0.000     15.234      0.201      1.000      0.562      0.406
  3702.200      0.106      0.000      0.000     12.327      0.181      1.000      0.586      0.414
  3702.300      0.095      0.000      0.000      9.419      0.157      1.000      0.609      0.449
  3702.400      0.078      0.000      0.000      2.118      0.133      1.000      0.585      0.464
  3702.500      0.067      1.000      0.000      0.435      0.110      0.000      0.606      0.445
  3702.600      0.063      1.000      0.000      0.099      0.089      0.000      0.705      0.428
  3702.700      0.062      1.000      0.000      0.024      0.071      0.000      0.876      0.439
  3702.800      0.058      1.000      0.000      0.010      0.058      0.000      1.000      0.433
  3702.900      0.052      1.000      0.000      0.007      0.052      0.000      1.000      0.425
  3703.000      0.051      1.000      0.000      0.006      0.051      0.000      1.000      0.423
  3703.100      0.053      1.000      0.000      0.007      0.053      0.000      1.000      0.414
  3703.200      0.055      1.000      0.000      0.010      0.055      0.000      1.000      0.388
  3703.300      0.059      1.000      0.000      0.015      0.059      0.000      1.000      0.357
  3703.400      0.063      1.000      0.000      0.024      0.064      0.000      0.971      0.342
  3703.500      0.063      1.000      0.000      0.042      0.072      0.000      0.881      0.336
  3703.600      0.063      1.000      0.000      0.084      0.080      0.000      0.791      0.319
  3703.700      0.064      0.000      0.000      0.172      0.089      1.000      0.718      0.300
  3703.800      0.065      0.000      0.000      0.325      0.096      1.000      0.679      0.278
  3703.900      0.068      0.000      0.000      0.573      0.102      1.000      0.668      0.258
  3704.000      0.071      0.000      0.000      1.102      0.109      1.000      0.649      0.226
  3704.100      0.079      0.000      0.000      2.170      0.116      1.000      0.675      0.196
  3704.200      0.080      0.000      0.000      3.815      0.122      1.000      0.652      0.163
  3704.300      0.071      0.000      0.000      4.588      0.124      1.000      0.572      0.152
  3704.400      0.078      0.000      0.000      4.025      0.123      1.000      0.639      0.157
  3704.500      0.089      0.000      0.000      3.331      0.120      1.000      0.746      0.158
