~Version Information
VERS.                     2.0: CWLS log ASCII Standard Version 2.00
WRAP.                      NO: One line per depth step

~Well Information Block
#MNEM.UNIT                 Value                       Information
#------------              -----                       -----------
STRT.M                   3204.0000                    :START
STOP.M                   3464.9000                    :STOP
STEP.M                      0.1000                    :STEP
NULL.                     -999.25                     :NULL VALUE
COMP.         Statoil Petroleum                       :Company
WELL.         15/9-F-1 B                              :Well
FLD .         VOLVE                                   :Field
LOC .         Maersk Inspirer                         :Location
PROV.                                                 :Province
CNTY.                                                 :County
STATE.                                                 :State
CTRY.                                                 :Country
DATE.                                                 :Log Date
SRVC.                                                 :Service Company
UWI .                                                 :Unique Well Identifier
API .                                                 :API Number
LATI.         058 26' 29.907" N    DMS                :Latitude
LONG.         001 53' 14.708" E    DMS                :Longtitude
PD  .         MSL                                     :Permanent Datum
ELZ .M                 0.0000                         :Elev. Log Zero

~Curve Information
#MNEM   .UNIT             API CODE Curve Description
#------------             -------- -----------------
DEPTH   .M            00 001 00 00:   0  Depth
BVW     .V/V          00 000 00 00:   1  Bulk Volume Water
CARB_FLAG.V/V         00 000 00 00:   2  Carbonate Flag
COAL_FLAG.UNITLESS    00 000 00 00:   3  Coal flag
KLOGH   .mD           00 000 00 00:   4  Calculated Horizontal PERMEABILITY from logs
PHIF    .V/V          00 000 00 00:   5  Final Porosity
SAND_FLAG.UNITLESS    00 000 00 00:   6  Sand Flag
SW      .V/V          00 000 00 00:   7  Water Saturation
VCARB   .V/V          00 000 00 00:   8  VCARB
VSH     .V/V          00 000 00 00:   9  Volume of Shale

~Parameter Information
#MNEM.UNIT       Value           Description
#------------    -----           -----------
HLD .         Terms and Conditions.:Header Legal Disclaimer
RUN .         1                 :Run number

~Other Information
PETROPHYSICAL INTERPRETATION: OUTPUT

# --- LOG MNEMONICS AND UNITS ---
#Depth          BVW             CARB_FLAG       COAL_FLAG       KLOGH           PHIF            SAND_FLAG       SW              VCARB           VSH            
#M              V/V             V/V             UNITLESS        mD              V/V             UNITLESS        V/V             V/V             V/V            

~A
# ...
      3309.0000          0.0200          1.0000          0.0000          0.0014          0.0200          0.0000          1.0000          0.3932          0.2439
      3309.1000          0.0200          1.0000          0.0000          0.0014          0.0200          0.0000          1.0000          0.3763          0.2543
      3309.2000          0.0200          1.0000          0.0000          0.0013          0.0200          0.0000          1.0000          0.3692          0.2588
      3309.3000          0.0200          1.0000          0.0000          0.0013          0.0200          0.0000          1.0000          0.3519          0.2697
      3309.4000          0.0200          1.0000          0.0000          0.0012          0.0200          0.0000          1.0000          0.3378          0.2788
      3309.5000          0.0200          1.0000          0.0000          0.0012          0.0200          0.0000          1.0000          0.3267          0.2861
      3309.6000          0.0200          1.0000          0.0000          0.0010          0.0200          0.0000          1.0000          0.2913          0.3101
      3309.7000          0.0200          1.0000          0.0000          0.0010          0.0200          0.0000          1.0000          0.2705          0.3247
      3309.8000          0.0249          1.0000          0.0000          0.0013          0.0249          0.0000          1.0000          0.2362          0.3369
      3309.9000          0.0349          1.0000          0.0000          0.0027          0.0349          0.0000          1.0000          0.1957          0.3411
      3310.0000          0.0436          0.0000          0.0000          0.0063          0.0477          0.0000          0.9134          0.1273          0.3635
      3310.1000          0.0455          0.0000          0.0000          0.0128          0.0578          0.0000          0.7863          0.0882          0.3709
      3310.2000          0.0522          0.0000          0.0000          0.0150          0.0579          0.0000          0.9016          0.1209          0.3397
      3310.3000          0.0463          0.0000          0.0000          0.0070          0.0463          0.0000          1.0000          0.1836          0.3193
      3310.4000          0.0278          0.0000          0.0000          0.0019          0.0278          0.0000          1.0000          0.2707          0.3040
      3310.5000          0.0200          0.0000          0.0000          0.0010          0.0200          0.0000          1.0000          0.2918          0.3097
      3310.6000          0.0200          0.0000          0.0000          0.0010          0.0200          0.0000          1.0000          0.2453          0.3432
      3310.7000          0.0200          0.0000          0.0000          0.0010          0.0200          0.0000          1.0000          0.1910          0.3858
      3310.8000          0.0233          0.0000          0.0000          0.0010          0.0233          0.0000          1.0000          0.1498          0.4121
      3310.9000          0.0389          0.0000          0.0000          0.0024          0.0389          0.0000          1.0000          0.0826          0.4327
      3311.0000          0.0514          0.0000          0.0000          0.0057          0.0514          0.0000          1.0000          0.0368          0.4464
      3311.1000          0.0556          0.0000          0.0000          0.0081          0.0556          0.0000          1.0000          0.0342          0.4364
      3311.2000          0.0476          0.0000          0.0000          0.0060          0.0476          0.0000          1.0000          0.1131          0.3769
      3311.3000          0.0396          0.0000          0.0000          0.0045          0.0396          0.0000          1.0000          0.2220          0.3078
      3311.4000          0.0328          0.0000          0.0000          0.0033          0.0328          0.0000          1.0000          0.3043          0.2674
      3311.5000          0.0333          0.0000          0.0000          0.0035          0.0333          0.0000          1.0000          0.3155          0.2587
      3311.6000          0.0390          0.0000          0.0000          0.0051          0.0390          0.0000          1.0000          0.2771          0.2696
      3311.7000          0.0446          0.0000          0.0000          0.0069          0.0446          0.0000          1.0000          0.2200          0.2956
      3311.8000          0.0474          0.0000          0.0000          0.0077          0.0474          0.0000          1.0000          0.1842          0.3159
      3311.9000          0.0478          0.0000          0.0000          0.0079          0.0478          0.0000          1.0000          0.1818          0.3167
      3312.0000          0.0481          0.0000          0.0000          0.0079          0.0481          0.0000          1.0000          0.1760          0.3206
      3312.1000          0.0497          0.0000          0.0000          0.0091          0.0497          0.0000          1.0000          0.1754          0.3164
      3312.2000          0.0517          0.0000          0.0000          0.0110          0.0517          0.0000          1.0000          0.1803          0.3068
      3312.3000          0.0513          0.0000          0.0000          0.0120          0.0513          0.0000          1.0000          0.2134          0.2822
      3312.4000          0.0461          0.0000          0.0000          0.0091          0.0461          0.0000          1.0000          0.2658          0.2584
      3312.5000          0.0366          0.0000          0.0000          0.0046          0.0366          0.0000          1.0000          0.3097          0.2537
      3312.6000          0.0269          0.0000          0.0000          0.0024          0.0269          0.0000          1.0000          0.3755          0.2369
      3312.7000          0.0215          0.0000          0.0000          0.0017          0.0215          0.0000          1.0000          0.4130          0.2280
      3312.8000          0.0223          0.0000          0.0000          0.0018          0.0223          0.0000          1.0000          0.4100          0.2277
      3312.9000          0.0282          0.0000          0.0000          0.0027          0.0282          0.0000          1.0000          0.3720          0.2358
      3313.0000          0.0367          0.0000          0.0000          0.0050          0.0367          0.0000          1.0000          0.3323          0.2387
      3313.1000          0.0466          0.0000          0.0000          0.0102          0.0466          0.0000          1.0000          0.2871          0.2421
      3313.2000          0.0573          0.0000          0.0000          0.0206          0.0573          0.0000          1.0000          0.2200          0.2606
      3313.3000          0.0669          0.0000          0.0000          0.0345          0.0669          0.0000          1.0000          0.1356          0.3008
      3313.4000          0.0728          0.0000          0.0000          0.0468          0.0728          0.0000          1.0000          0.0847          0.3295
      3313.5000          0.0734          0.0000          0.0000          0.0455          0.0734          0.0000          1.0000          0.0665          0.3456
      3313.6000          0.0696          0.0000          0.0000          0.0347          0.0696          0.0000          1.0000          0.0802          0.3436
      3313.7000          0.0640          0.0000          0.0000          0.0225          0.0640          0.0000          1.0000          0.0928          0.3481
      3313.8000          0.0582          0.0000          0.0000          0.0152          0.0582          0.0000          1.0000          0.1207          0.3392
      3313.9000          0.0530          0.0000          0.0000          0.0114          0.0530          0.0000          1.0000          0.1587          0.3209
