~Version Information
VERS.                     2.0: CWLS log ASCII Standard Version 2.00
WRAP.                      NO: One line per depth step

~Well Information Block
#MNEM.UNIT                 Value                       Information
#------------              -----                       -----------
STRT.M                    3575.000                    :START
STOP.M                    3761.800                    :STOP
STEP.M                       0.100                    :STEP
NULL.                     -999.25                     :NULL VALUE
COMP.         Statoil Petroleum AS                    :Company
WELL.         15/9-F-11 A                             :Well
FLD .         VOLVE                                   :Field
LOC .         Maersk Inspirer                         :Location
PROV.                                                 :Province
CNTY.                                                 :County
STATE.                                                 :State
CTRY.         Norway                                  :Country
DATE.                                                 :Log Date
SRVC.                                                 :Service Company
UWI .                                                 :Unique Well Identifier
API .                                                 :API Number
LATI.         058 26' 29.956" N    DMS                :Latitude
LONG.         001 53' 14.866" E    DMS                :Longtitude
PD  .         MSL                                     :Permanent Datum
EDF .M            54.900                              :Elevations D.F.
EGL .M           -91.000                              :Elevations G.L.
ELZ .M            54.900                              :Elev. Log Zero
LMF .         DF                                      :Log Measured From

~Curve Information
#MNEM   .UNIT             API CODE Curve Description
#------------             -------- -----------------
DEPTH   .M            00 001 00 00:   0  Depth
BVW     .v/v          00 000 00 00:   1  BVW:CPI:rC:NONE:v1
CARB_FLAG.UNKNOWN     00 000 00 00:   2  CARB_FLAG:CPI:rC:NONE:v1
COAL_FLAG.UNKNOWN     00 000 00 00:   3  COAL_FLAG:CPI:rC:NONE:v1
KLOGH   .mD           00 000 00 00:   4  KLOGH:CPI:rC:NONE:v1
PHIF    .v/v          00 000 00 00:   5  PHIF:CPI:rC:NONE:v1
SAND_FLAG.UNKNOWN     00 000 00 00:   6  SAND_FLAG:CPI:rC:NONE:v1
SW      .v/v          00 000 00 00:   7  SW:CPI:rC:NONE:v1
VSH     .v/v          00 000 00 00:   8  VSH:CPI:rC:NONE:v1

~Parameter Information
#MNEM.UNIT       Value           Description
#------------    -----           -----------
RUN .         1                 :Run number

~Other Information
PETROPHYSICAL_INTERPRETATION: OUTPUT

# --- LOG MNEMONICS AND UNITS ---
#Depth     BVW        CARB_FLAG  COAL_FLAG  KLOGH      PHIF       SAND_FLAG  SW         VSH       
#M         v/v        UNKNOWN    UNKNOWN    mD         v/v        UNKNOWN    v/v        v/v       

~A
  3575.000      0.087      0.000      0.000      0.001      0.087      0.000      1.000      0.773
  3575.100      0.088      0.000      0.000      0.001      0.088      0.000      1.000      0.742
  3575.200      0.090      0.000      0.000      0.001      0.090      0.000      1.000      0.740
  3575.300      0.092      0.000      0.000      0.001      0.092      0.000      1.000      0.758
  3575.400      0.092      0.000      0.000      0.001      0.092      0.000      1.000      0.778
  3575.500      0.090      0.000      0.000      0.001      0.090      0.000      1.000      0.769
  3575.600      0.087      0.000      0.000      0.001      0.087      0.000      1.000      0.773
  3575.700      0.084      0.000      0.000      0.001      0.084      0.000      1.000      0.772
  3575.800      0.085      0.000      0.000      0.001      0.085      0.000      1.000      0.757
  3575.900      0.087      0.000      0.000      0.001      0.087      0.000      1.000      0.766
  3576.000      0.087      0.000      0.000      0.001      0.087      0.000      1.000      0.760
  3576.100      0.082      0.000      0.000      0.001      0.082      0.000      1.000      0.767
  3576.200      0.075      0.000      0.000      0.001      0.075      0.000      1.000      0.766
  3576.300      0.070      0.000      0.000      0.001      0.070      0.000      1.000      0.766
  3576.400      0.073      0.000      0.000      0.001      0.073      0.000      1.000      0.775
  3576.500      0.079      0.000      0.000      0.001      0.079      0.000      1.000      0.770
  3576.600      0.085      0.000      0.000      0.001      0.085      0.000      1.000      0.786
  3576.700      0.087      0.000      0.000      0.001      0.087      0.000      1.000      0.812
  3576.800      0.086      0.000      0.000      0.001      0.086      0.000      1.000      0.823
  3576.900      0.086      0.000      0.000      0.001      0.086      0.000      1.000      0.860
  3577.000      0.086      0.000      0.000      0.001      0.086      0.000      1.000      0.863
  3577.100      0.088      0.000      0.000      0.001      0.088      0.000      1.000      0.846
  3577.200      0.090      0.000      0.000      0.001      0.090      0.000      1.000      0.839
  3577.300      0.092      0.000      0.000      0.001      0.092      0.000      1.000      0.803
  3577.400      0.096      0.000      0.000      0.001      0.096      0.000      1.000      0.818
  3577.500      0.099      0.000      0.000      0.001      0.099      0.000      1.000      0.829
  3577.600      0.101      0.000      0.000      0.001      0.101      0.000      1.000      0.820
  3577.700      0.100      0.000      0.000      0.001      0.100      0.000      1.000      0.815
  3577.800      0.098      0.000      0.000      0.001      0.098      0.000      1.000      0.821
  3577.900      0.096      0.000      0.000      0.001      0.096      0.000      1.000      0.809
  3578.000      0.095      0.000      0.000      0.001      0.095      0.000      1.000      0.786
  3578.100      0.096      0.000      0.000      0.001      0.096      0.000      1.000      0.791
  3578.200      0.099      0.000      0.000      0.001      0.099      0.000      1.000      0.772
  3578.300      0.101      0.000      0.000      0.001      0.101      0.000      1.000      0.776
  3578.400      0.101      0.000      0.000      0.001      0.101      0.000      1.000      0.782
  3578.500      0.100      0.000      0.000      0.001      0.100      0.000      1.000      0.775
  3578.600      0.097      0.000      0.000      0.001      0.097      0.000      1.000      0.777
  3578.700      0.095      0.000      0.000      0.001      0.095      0.000      1.000      0.771
  3578.800      0.095      0.000      0.000      0.001      0.095      0.000      1.000      0.776
  3578.900      0.094      0.000      0.000      0.001      0.094      0.000      1.000      0.754
  3579.000      0.091      0.000      0.000      0.001      0.091      0.000      1.000      0.754
  3579.100      0.086      0.000      0.000      0.001      0.086      0.000      1.000      0.751
  3579.200      0.078      0.000      0.000      0.001      0.078      0.000      1.000      0.734
  3579.300      0.071      0.000      0.000      0.001      0.071      0.000      1.000      0.714
  3579.400      0.066      0.000      0.000      0.001      0.066      0.000      1.000      0.721
  3579.500      0.065      0.000      0.000      0.001      0.065      0.000      1.000      0.734
  3579.600      0.066      0.000      0.000      0.001      0.066      0.000      1.000      0.793
  3579.700      0.069      0.000      0.000      0.001      0.069      0.000      1.000      0.828
  3579.800      0.072      0.000      0.000      0.001      0.072      0.000      1.000      0.818
  3579.900      0.073      0.000      0.000      0.001      0.073      0.000      1.000      0.806
  3580.000      0.075      0.000      0.000      0.001      0.075      0.000      1.000      0.811
  3580.100      0.075      0.000      0.000      0.001      0.075      0.000      1.000      0.821
  3580.200      0.075      0.000      0.000      0.001      0.075      0.000      1.000      0.825
  3580.300      0.074      0.000      0.000      0.001      0.074      0.000      1.000      0.815
  3580.400      0.071      0.000      0.000      0.001      0.071      0.000      1.000      0.820
  3580.500      0.069      0.000      0.000      0.001      0.069      0.000      1.000      0.830
  3580.600      0.070      0.000      0.000      0.001      0.070      0.000      1.000      0.812
  3580.700      0.074      0.000      0.000      0.001      0.074      0.000      1.000      0.812
  3580.800      0.078      0.000      0.000      0.001      0.078      0.000      1.000      0.807
  3580.900      0.081      0.000      0.000      0.001      0.081      0.000      1.000      0.802
  3581.000      0.081      0.000      0.000      0.001      0.081      0.000      1.000      0.795
  3581.100      0.078      0.000      0.000      0.001      0.078      0.000      1.000      0.792
  3581.200      0.075      0.000      0.000      0.001      0.075      0.000      1.000      0.792
  3581.300      0.073      0.000      0.000      0.001      0.073      0.000      1.000      0.783
  3581.400      0.071      0.000      0.000      0.001      0.071      0.000      1.000      0.788
  3581.500      0.070      0.000      0.000      0.001      0.070      0.000      1.000      0.783
  3581.600      0.071      0.000      0.000      0.001      0.071      0.000      1.000      0.778
  3581.700      0.074      0.000      0.000      0.001      0.074      0.000      1.000      0.779
  3581.800      0.080      0.000      0.000      0.001      0.080      0.000      1.000      0.765
  3581.900      0.087      0.000      0.000      0.001      0.087      0.000      1.000      0.758
  3582.000      0.091      0.000      0.000      0.001      0.091      0.000      1.000      0.746
  3582.100      0.092      0.000      0.000      0.001      0.092      0.000      1.000      0.734
  3582.200      0.089      0.000      0.000      0.001      0.089      0.000      1.000      0.695
  3582.300      0.083      0.000      0.000      0.001      0.083      0.000      1.000      0.626
  3582.400      0.076      0.000      0.000      0.004      0.076      0.000      1.000      0.561
  3582.500      0.068      0.000      0.000      0.007      0.068      0.000      1.000      0.525
  3582.600      0.059      0.000      0.000      0.005      0.059      0.000      1.000      0.530
  3582.700      0.045      0.000      0.000      0.001      0.045      0.000      1.000      0.603
  3582.800      0.025      1.000      0.000      0.001      0.025      0.000      1.000      0.723
  3582.900      0.003      1.000      0.000      0.001      0.003      0.000      1.000      0.807
  3583.000    -999.25      1.000      0.000    -999.25    -999.25      0.000    -999.25      0.854
