~Version Information
VERS.                     2.0: CWLS log ASCII Standard Version 2.00
WRAP.                      NO: One line per depth step

~Well Information Block
#MNEM       .UNIT          Value                       Information
#-------------------------------------------------------------------------
STRT        .M             3102.102                    :START
STOP        .M             3505.8096                   :STOP
STEP        .M             0.1524                      :STEP
NULL        .              -999.25                     :NULL VALUE
COMP        .              STATOILHYDRO                :COMPANY
WELL        .              15/9-F-12                   :WELL
FLD         .              VOLVE                       :FIELD
LOC         .              UNKNOWN                     :LOCATION
CNTY        .              UNKNOWN                     :COUNTY
STAT        .              UNKNOWN                     :STATE
CTRY        .              Norway                      :COUNTRY
SRVC        .              UNKNOWN                     :SERVICE COMPANY
DATE        .              UNKNOWN                     :LOG DATE
UWI         .              NO 15/9-F-12                :UNIQUE WELL ID
XCOORD      .              435050.170000               :SURFACE X
YCOORD      .              6478574.700000              :SURFACE Y
LAT         .              58.441713                   :LATITUDE
LON         .              1.887480                    :LONGITUDE
ELEV        .M             54.9000                     :SURFACE ELEV
ELEV_TYPE   .              KB                          :ELEV TYPE

~Curve Information
#MNEM       .UNIT             API CODE : Curve Description
#-------------------------------------------------------------------------
DEPTH       .M                UNKNOWN  : Measured Dept
BVW         .v/v_decimal      UNKNOWN  : BVW:UNKNOWN:rC:NONE:v1
KLOGH       .mD               UNKNOWN  : KLOGH:UNKNOWN:rC:NONE:v1
PHIF        .v/v_decimal      UNKNOWN  : PHIF:UNKNOWN:rC:NONE:v1
SW          .v/v_decimal      UNKNOWN  : SW:UNKNOWN:rC:NONE:v1
VSH         .v/v_decimal      UNKNOWN  : VSH:UNKNOWN:rC:NONE:v1
# --- LOG MNEMONICS AND UNITS ---
#Depth     BVW        KLOGH      PHIF       SW         VSH       
#M         v/v_decima mD         v/v_decima v/v_decima v/v_decima
~A
# ...
 3213.6588 0.02639999 9.13619995 0.21940000 0.12049999 0.31049999
 3213.8112 0.02669999 11.5058002 0.22190000 0.12030000 0.30160000
 3213.9636 0.02690000 14.4899997 0.22439999 0.11999999 0.29269999
  3214.116 0.02740000 12.0845003 0.22679999 0.12099999 0.30360001
 3214.2684 0.02810000 8.85560035 0.22910000 0.12250000 0.32060000
 3214.4208 0.02869999 6.48939990 0.23139999 0.12399999 0.33770000
 3214.5732 0.02910000 5.51510000 0.23010000 0.12669999 0.34430000
 3214.7256 0.02930000 5.50199985 0.22480000 0.13060000 0.33970001
  3214.878 0.02960000 5.48899984 0.21950000 0.13470000 0.33509999
 3215.0304 0.02979999 5.16650009 0.21369999 0.13950000 0.33289998
 3215.1828 0.03030000 3.85039997 0.20610000 0.14699999 0.34040001
 3215.3352 0.03079999 2.86949992 0.19859999 0.15510000 0.34790000
 3215.4876 0.03139999 2.13849997 0.19099999 0.16419999 0.35539999
   3215.64 0.03150000 2.80789995 0.19689999 0.15999999 0.34740000
 3215.7924 0.03159999 3.87639999 0.20399999 0.15489999 0.33809998
 3215.9448 0.03170000 5.35150003 0.21099999 0.15009999 0.32879999
 3216.0972 0.03330000 2.12829995 0.21610000 0.15389999 0.37779998
 3216.2496 0.03610000 0.41749998 0.21989999 0.16400000 0.45989999
  3216.402 0.03959999 0.08190000 0.22380000 0.17679999 0.54189997
 3216.5544 0.04309999 0.02290000 0.22550000 0.19130000 0.60500001
 3216.7068 0.04569999 0.01200000 0.22300000 0.20479999 0.63370001
 3216.8592 0.04879999 0.00630000 0.22050000 0.22120000 0.66240000
 3217.0116 0.05209999 0.00370000 0.21879999 0.23829999 0.68680000
  3217.164 0.04960000 0.00749999 0.22579999 0.21960000 0.65899997
 3217.3164 0.04740000 0.01520000 0.23270000 0.20370000 0.63109999
 3217.4688 0.04549999 0.03079999 0.23970000 0.18999999 0.60329997
 3217.6212 0.04390000 0.03620000 0.24259999 0.18099999 0.59799998
 3217.7736 0.04250000 0.03700000 0.24429999 0.17380000 0.59850001
  3217.926 0.04120000 0.03779999 0.24609999 0.16740000 0.59909999
 3218.0784 0.03959999 0.04219999 0.24220000 0.16329999 0.59030002
 3218.2308 0.03770000 0.05119999 0.23299999 0.16169999 0.57270002
 3218.3832 0.03599999 0.06219999 0.22380000 0.16069999 0.55510002
 3218.5356 0.03420000 0.10350000 0.21670000 0.15780000 0.52429997
  3218.688 0.03200000 0.48359999 0.21699999 0.14730000 0.45019999
 3218.8404 0.03009999 2.25859999 0.21719999 0.13840000 0.37599998
 3218.9928 0.02840000 10.5488004 0.21750000 0.13070000 0.30189999
 3219.1452 0.02759999 14.4601001 0.21279999 0.12950000 0.28249999
 3219.2976 0.02679999 18.6525993 0.20790000 0.12870000 0.26579999
   3219.45 0.02600000 24.0606994 0.20290000 0.12809999 0.24909999
 3219.6024 0.02649999 29.7714004 0.20909999 0.12669999 0.24429999
 3219.7548 0.02759999 36.0962982 0.22069999 0.12520000 0.24539999
 3219.9072 0.02889999 43.7649993 0.23229999 0.12430000 0.24639999
 3220.0596 0.02950000 50.4411010 0.24070000 0.12240000 0.24699999
  3220.212 0.02889999 53.7248001 0.24400000 0.11829999 0.24690000
 3220.3644 0.02830000 57.2224006 0.24740000 0.11439999 0.24680000
 3220.5168 0.02789999 59.5793991 0.25020000 0.11150000 0.24740000
 3220.6692 0.02820000 51.6458015 0.24909999 0.11320000 0.25330001
 3220.8216 0.02850000 44.7686996 0.24789999 0.11500000 0.25920000
  3220.974 0.02879999 38.8073997 0.24680000 0.11680000 0.26510000
 3221.1264 0.02899999 38.1590003 0.24549999 0.11819999 0.26469999
 3221.2788 0.02920000 38.5070991 0.24410000 0.11959999 0.26300001
 3221.4312 0.02930000 38.8583984 0.24269999 0.12089999 0.26129999
 3221.5836 0.02950000 36.3875999 0.24120000 0.12219999 0.26320001
  3221.736 0.02960000 32.0404014 0.23970000 0.12340000 0.26800000
 3221.8884 0.02969999 28.2124996 0.23819999 0.12460000 0.27279999
 3222.0408 0.02979999 25.6790008 0.23710000 0.12569999 0.27630001
 3222.1932 0.02999999 25.5907001 0.23720000 0.12630000 0.27660000
 3222.3456 0.03009999 25.5027008 0.23729999 0.12700000 0.27680000
  3222.498 0.03030000 25.4150009 0.23739999 0.12759999 0.27709999
 3222.6504 0.03030000 22.9662990 0.23549999 0.12870000 0.28029999
 3222.8028 0.03030000 20.7266006 0.23360000 0.12980000 0.28360000
 3222.9552 0.03030000 18.7052993 0.23170000 0.13089999 0.28679999
 3223.1076 0.03040000 17.8575000 0.23119999 0.13130000 0.28870001
   3223.26 0.03040000 17.4519004 0.23139999 0.13130000 0.28990000
 3223.4124 0.03040000 17.0555992 0.23160000 0.13130000 0.29120001
 3223.5648 0.03040000 16.9556999 0.23229999 0.13099999 0.29210001
 3223.7172 0.03050000 17.2504005 0.23379999 0.13050000 0.29260000
 3223.8696 0.03060000 17.5503005 0.23530000 0.12999999 0.29309999
  3224.022 0.03060000 18.0457000 0.23669999 0.12950000 0.29300001
 3224.1744 0.03050000 19.7581005 0.23720000 0.12870000 0.28909999
 3224.3268 0.03040000 21.6331005 0.23770000 0.12780000 0.28519999
 3224.4792 0.03030000 23.6860008 0.23829999 0.12700000 0.28130000
 3224.6316 0.03030000 23.7052001 0.23720000 0.12759999 0.28029999
  3224.784 0.03030000 23.3899002 0.23579999 0.12839999 0.27970001
 3224.9364 0.03030000 23.0786991 0.23440000 0.12929999 0.27910000
 3225.0888 0.03030000 23.1634006 0.23589999 0.12849999 0.28029999
 3225.2412 0.03030000 23.5340003 0.23950000 0.12649999 0.28270000
 3225.3936 0.03030000 23.9106006 0.24310000 0.12460000 0.28510001
  3225.546 0.03030000 23.9319000 0.24410000 0.12399999 0.28600001
 3225.6984 0.03030000 23.1371994 0.23919999 0.12659999 0.28330001
 3225.8508 0.03030000 22.3689994 0.23430000 0.12919999 0.28060001
 3226.0032 0.03030000 21.6266994 0.22949999 0.13189999 0.27790001
 3226.1556 0.03020000 20.9288005 0.22900000 0.13189999 0.27900001
  3226.308 0.03009999 20.2534008 0.22840000 0.13189999 0.28009998
 3226.4604 0.03009999 19.5998001 0.22779999 0.13189999 0.28119999
 3226.6128 0.03020000 19.6984996 0.22849999 0.13210000 0.28159999
 3226.7652 0.03040000 20.0622997 0.22969999 0.13249999 0.28169998
 3226.9176 0.03070000 20.4328002 0.23090000 0.13279999 0.28180000
   3227.07 0.03089999 19.4591007 0.23160000 0.13359999 0.28490000
 3227.2224 0.03130000 17.1238002 0.23190000 0.13480000 0.29129999
 3227.3748 0.03159999 15.0687999 0.23229999 0.13600000 0.29780000
 3227.5272 0.03189999 13.4605998 0.23229999 0.13740000 0.30320000
 3227.6796 0.03209999 12.8822002 0.23090000 0.13889999 0.30410000
  3227.832 0.03220000 12.3287000 0.22959999 0.14049999 0.30509999
 3227.9844 0.03240000 11.7989997 0.22820000 0.14210000 0.30599999
 3228.1368 0.03249999 12.1940002 0.23119999 0.14069999 0.30709999
 3228.2892 0.03260000 12.7132997 0.23469999 0.13899999 0.30820000
 3228.4416 0.03269999 13.2545995 0.23819999 0.13740000 0.30930000
  3228.594 0.03290000 13.0374002 0.23870000 0.13799999 0.31049999
 3228.7464 0.03319999 12.3683996 0.23720000 0.14000000 0.31169998
 3228.8988 0.03350000 11.7335996 0.23569999 0.14210000 0.31290000
 3229.0512 0.03359999 10.4145002 0.23440000 0.14329999 0.31749999
 3229.2036 0.03330000 8.10410022 0.23350000 0.14259999 0.32879999
  3229.356 0.03299999 6.30620002 0.23260000 0.14200000 0.34009999
 3229.5084 0.03280000 5.08549976 0.23170000 0.14139999 0.34970000
 3229.6608 0.03269999 7.56169986 0.23190000 0.14090000 0.33070001
 3229.8132 0.03260000 11.2437000 0.23209999 0.14030000 0.31169998
 3229.9656 0.03249999 16.7185001 0.23219999 0.13969999 0.29269999
  3230.118 0.03240000 17.6989994 0.23219999 0.13959999 0.28999999
 3230.2704 0.03240000 16.9703998 0.23219999 0.13959999 0.29190000
 3230.4228 0.03240000 16.2716999 0.23209999 0.13959999 0.29390001
 3230.5752 0.03209999 15.1815004 0.22699999 0.14149999 0.29269999
 3230.7276 0.03159999 13.7727003 0.21680000 0.14560000 0.28830000
   3230.88 0.03099999 12.4947004 0.20649999 0.15009999 0.28389999
 3231.0324 0.03050000 12.6308002 0.20020000 0.15250000 0.27779999
 3231.1848 0.03030000 19.0643997 0.20810000 0.14560000 0.26499998
 3231.3372 0.03009999 28.7749004 0.21600000 0.13920000 0.25209999
 3231.4896 0.02989999 43.4315986 0.22400000 0.13330000 0.23929999
  3231.642 0.03040000 28.1597003 0.21930000 0.13860000 0.25609999
 3231.7944 0.03099999 17.1623001 0.21369999 0.14519999 0.27500000
 3231.9468 0.03170000 10.4597997 0.20810000 0.15240000 0.29390001
 3232.0992 0.03249999 5.03569984 0.20309999 0.15999999 0.32480001
