~Version Information
VERS.                     2.0: CWLS log ASCII Standard Version 2.00
WRAP.                      NO: One line per depth step

~Well Information Block
#MNEM.UNIT                 Value                       Information
#------------              -----                       -----------
STRT.M                   3465.0000                    :START
STOP.M                   4684.7000                    :STOP
STEP.M                      0.1000                    :STEP
NULL.                     -999.25                     :NULL VALUE
COMP.         STATOIL PETROLEUM AS                    :Company
WELL.         15/9-F-15 D                             :Well
FLD .         VOLVE                                   :Field
LOC .                                                 :Location
PROV.                                                 :Province
CNTY.         MAERSK INSPIRER                         :County
STATE.                                                 :State
CTRY.         NORWAY                                  :Country
DATE.                                                 :Log Date
SRVC.                                                 :Service Company
UWI .                                                 :Unique Well Identifier
API .                                                 :API Number
LATI.         058 26' 29.706" N    DMS                :Latitude
LONG.         001 53' 15.149" E    DMS                :Longtitude
PD  .         MSL                                     :Permanent Datum
EDF .M                54.9000                         :Elevations D.F.
EGL .M               -91.0000                         :Elevations G.L.
ELZ .M                54.9000                         :Elev. Log Zero
LMF .         DF                                      :Log Measured From
MP  .         DF                                      :Drill Measured From

~Curve Information
#MNEM   .UNIT             API CODE Curve Description
#------------             -------- -----------------
DEPTH   .M            00 001 00 00:   0  Depth
BVW     .v/v          00 000 00 00:   1  BVW:CPI:rC:0001:v1
COAL_FLAG.unitless    00 000 00 00:   2  COAL_FLAG:CPI:rC:0001:v1
KLOGH   .mD           00 000 00 00:   3  KLOGH:CPI:rC:0001:v1
PHIF    .v/v          00 000 00 00:   4  PHIF:CPI:rC:0001:v1
SAND_FLAG.unitless    00 000 00 00:   5  SAND_FLAG:CPI:rC:0001:v1
SW      .v/v          00 000 00 00:   6  SW:CPI:rC:0001:v1
VCARB   .v/v          00 000 00 00:   7  VCARB:CPI:rC:0001:v1
VSH     .v/v          00 000 00 00:   8  VSH:CPI:rC:0001:v1

~Parameter Information
#MNEM.UNIT       Value           Description
#------------    -----           -----------
RUN .         .                 :Run Number

~Other Information
PETROPHYSICAL INTERPRETATION: OUTPUT

# --- LOG MNEMONICS AND UNITS ---
#Depth          BVW             COAL_FLAG       KLOGH           PHIF            SAND_FLAG       SW              VCARB           VSH            
#M              v/v             unitless        mD              v/v             unitless        v/v             v/v             v/v            

~A
# ...
      4097.8000          0.0303          0.0000          0.0191          0.0725          0.0000          0.4182          0.0000          0.4775
      4097.9000          0.0317          0.0000          0.0184          0.0680          0.0000          0.4655          0.0000          0.4755
      4098.0000          0.0284          0.0000          0.0175          0.0674          0.0000          0.4218          0.0000          0.4773
      4098.1000          0.0282          0.0000          0.0135          0.0700          0.0000          0.4030          0.0000          0.4921
      4098.2000          0.0298          0.0000          0.0135          0.0739          0.0000          0.4038          0.0000          0.4957
      4098.3000          0.0365          0.0000          0.0095          0.0769          0.0000          0.4752          0.0000          0.5151
      4098.4000          0.0391          0.0000          0.0108          0.0796          0.0000          0.4908          0.0000          0.5116
      4098.5000          0.0407          0.0000          0.0103          0.0825          0.0000          0.4929          0.0000          0.5164
      4098.6000          0.0460          0.0000          0.0076          0.0852          0.0000          0.5395          0.0000          0.5331
      4098.7000          0.0488          0.0000          0.0057          0.0865          0.0000          0.5640          0.0000          0.5482
      4098.8000          0.0522          0.0000          0.0068          0.0853          0.0000          0.6122          0.0000          0.5391
      4098.9000          0.0543          0.0000          0.0083          0.0834          0.0000          0.6515          0.0000          0.5273
      4099.0000          0.0539          0.0000          0.0103          0.0818          0.0000          0.6589          0.0000          0.5156
      4099.1000          0.0510          0.0000          0.0151          0.0800          0.0000          0.6375          0.0000          0.4957
      4099.2000          0.0489          0.0000          0.0112          0.0772          0.0000          0.6338          0.0000          0.5077
      4099.3000          0.0490          0.0000          0.0098          0.0743          0.0000          0.6595          0.0000          0.5114
      4099.4000          0.0500          0.0000          0.0089          0.0733          0.0000          0.6817          0.0000          0.5154
      4099.5000          0.0521          0.0000          0.0070          0.0740          0.0000          0.7034          0.0000          0.5273
      4099.6000          0.0561          0.0000          0.0066          0.0745          0.0000          0.7523          0.0000          0.5306
      4099.7000          0.0580          0.0000          0.0052          0.0735          0.0000          0.7890          0.0000          0.5409
      4099.8000          0.0596          0.0000          0.0043          0.0712          0.0000          0.8368          0.0000          0.5482
      4099.9000          0.0615          0.0000          0.0049          0.0693          0.0000          0.8877          0.0000          0.5408
      4100.0000          0.0492          0.0000          0.0065          0.0694          0.0000          0.7091          0.0000          0.5269
      4100.1000          0.0500          0.0000          0.0048          0.0717          0.0000          0.6967          0.0000          0.5438
      4100.2000          0.0573          0.0000          0.0042          0.0745          0.0000          0.7683          0.0000          0.5527
      4100.3000          0.0628          0.0000          0.0042          0.0751          0.0000          0.8355          0.0000          0.5528
      4100.4000          0.0646          0.0000          0.0046          0.0715          0.0000          0.9031          0.0000          0.5457
      4100.5000          0.0616          0.0000          0.0035          0.0639          0.0000          0.9643          0.0000          0.5519
      4100.6000          0.0545          0.0000          0.0035          0.0545          0.0000          1.0000          0.0000          0.5440
      4100.7000          0.0458          0.0000          0.0026          0.0458          0.0000          1.0000          0.0000          0.5508
      4100.8000          0.0388          0.0000          0.0036          0.0388          0.0000          1.0000          0.0062          0.5279
      4100.9000          0.0339          0.0000          0.0027          0.0339          0.0000          1.0000          0.0108          0.5369
      4101.0000          0.0313          0.0000          0.0034          0.0313          0.0000          1.0000          0.0259          0.5237
      4101.1000          0.0323          0.0000          0.0039          0.0323          0.0000          1.0000          0.0268          0.5191
      4101.2000          0.0363          0.0000          0.0035          0.0363          0.0000          1.0000          0.0114          0.5280
      4101.3000          0.0409          0.0000          0.0027          0.0409          0.0000          1.0000          0.0000          0.5442
      4101.4000          0.0432          0.0000          0.0034          0.0432          0.0000          1.0000          0.0000          0.5347
      4101.5000          0.0425          0.0000          0.0040          0.0425          0.0000          1.0000          0.0000          0.5268
      4101.6000          0.0393          0.0000          0.0038          0.0393          0.0000          1.0000          0.0060          0.5263
      4101.7000          0.0350          0.0000          0.0022          0.0350          0.0000          1.0000          0.0016          0.5476
      4101.8000          0.0309          0.0000          0.0033          0.0309          0.0000          1.0000          0.0256          0.5252
      4101.9000          0.0279          0.0000          0.0046          0.0279          0.0000          1.0000          0.0462          0.5072
      4102.0000          0.0259          0.0000          0.0040          0.0259          0.0000          1.0000          0.0475          0.5118
      4102.1000          0.0246          0.0000          0.0034          0.0246          0.0000          1.0000          0.0458          0.5179
      4102.2000          0.0245          0.0000          0.0040          0.0245          0.0000          1.0000          0.0522          0.5104
      4102.3000          0.0263          0.0000          0.0036          0.0263          0.0000          1.0000          0.0418          0.5177
      4102.4000          0.0307          0.0000          0.0058          0.0307          0.0000          1.0000          0.0466          0.4984
      4102.5000          0.0365          0.0000          0.0046          0.0365          0.0000          1.0000          0.0209          0.5140
      4102.6000          0.0426          0.0000          0.0038          0.0426          0.0000          1.0000          0.0000          0.5292
      4102.7000          0.0483          0.0000          0.0042          0.0483          0.0000          1.0000          0.0000          0.5295
      4102.8000          0.0544          0.0000          0.0063          0.0544          0.0000          1.0000          0.0000          0.5149
      4102.9000          0.0618          0.0000          0.0070          0.0618          0.0000          1.0000          0.0000          0.5167
      4103.0000          0.0707          0.0000          0.0075          0.0707          0.0000          1.0000          0.0000          0.5215
      4103.1000          0.0715          0.0000          0.0058          0.0797          0.0000          0.8979          0.0000          0.5415
      4103.2000          0.0707          0.0000          0.0074          0.0871          0.0000          0.8117          0.0000          0.5366
      4103.3000          0.0699          0.0000          0.0102          0.0915          0.0000          0.7637          0.0000          0.5247
