~Version Information
VERS.                     2.0: CWLS log ASCII Standard Version 2.00
WRAP.                      NO: One line per depth step

~Well Information Block
#MNEM.UNIT                 Value                       Information
#------------              -----                       -----------
STRT.M                     188.500                    :START
STOP.M                     346.700                    :STOP
STEP.M                       0.100                    :STEP
NULL.                     -999.25                     :NULL VALUE
COMP.         STATOIL PETRPOLEUM AS                   :Company
WELL.         15/9-F-11                               :Well
FLD .         VOLVE                                   :Field
LOC .         Maersk Inspirer                         :Location
PROV.                                                 :Province
CNTY.                                                 :County
STATE.                                                 :State
CTRY.         Norway                                  :Country
DATE.                                                 :Log Date
SRVC.                                                 :Service Company
UWI .                                                 :Unique Well Identifier
API .                                                 :API Number
LATI.         058 26' 29.960" N    DMS                :Latitude
LONG.         001 53' 14.870" E    DMS                :Longtitude
PD  .         MSL                                     :Permanent Datum
EDF .M            54.900                              :Elevations D.F.
EGL .M           -91.000                              :Elevations G.L.
WD  .M           -91.000                              :Water Depth
ELZ .M            54.900                              :Elev. Log Zero

~Curve Information
#MNEM   .UNIT             API CODE Curve Description
#------------             -------- -----------------
DEPTH   .M            00 001 00 00:   0  Depth
BS      .inches       00 000 00 00:   1  BS:COMPOSITE:rC:NONE:v1
GR      .API          30 150 01 01:   2  GR:COMPOSITE:rC:NONE:v1
RACEHM  .ohm.m        95 220 00 01:   3  RACEHM:COMPOSITE:rC:NONE:v1
RACELM  .ohm.m        00 524 01 00:   4  RACELM:COMPOSITE:rC:NONE:v1
RD      .ohm.m        00 000 00 00:   5  RD:COMPOSITE:rC:NONE:v1
RM      .ohm.m        00 000 00 00:   6  RM:COMPOSITE:rC:NONE:v1
ROP     .m/hr         00 000 00 00:   7  ROP:COMPOSITE:rC:NONE:v1
RPCEHM  .ohm.m        00 000 00 00:   8  RPCEHM:COMPOSITE:rC:NONE:v1
RPCELM  .ohm.m        00 000 00 00:   9  RPCELM:COMPOSITE:rC:NONE:v1
RT      .ohm.m        00 000 00 00:  10  RT:COMPOSITE:rC:NONE:v1

~Parameter Information
#MNEM.UNIT       Value           Description
#------------    -----           -----------
RUN .         1                 :Run number

~Other Information
PETROPHYSICAL INTERPRETATION: INPUT

# --- LOG MNEMONICS AND UNITS ---
#Depth     BS         GR         RACEHM     RACELM     RD         RM         ROP        RPCEHM     RPCELM     RT        
#M         inches     API        ohm.m      ohm.m      ohm.m      ohm.m      m/hr       ohm.m      ohm.m      ohm.m     

~A
# ...
   295.700     26.000     22.900      0.831      0.825      0.813      0.864     70.558      0.864      0.813      0.864
   295.800     26.000     22.200      0.883      0.831      0.836      0.922     70.386      0.923      0.836      0.922
   295.900     26.000     22.100      0.900      0.853      0.866      0.893     70.254      0.893      0.866      0.893
   296.000     26.000     23.400      0.916      0.875      0.895      0.863     70.122      0.863      0.895      0.863
   296.100     26.000     23.800      0.915      0.882      0.910      0.927     69.990      0.927      0.910      0.927
   296.200     26.000     23.700      0.914      0.888      0.925      0.990     70.007      0.990      0.925      0.990
   296.300     26.000     24.100      0.956      0.888      0.935      0.981     70.024      0.981      0.935      0.981
   296.400     26.000     25.500      0.998      0.888      0.945      0.971     70.041      0.971      0.945      0.971
   296.500     26.000     26.800      0.985      0.914      0.965      1.029     67.436      1.029      0.965      1.029
   296.600     26.000     29.400      0.972      0.941      0.984      1.087     64.832      1.087      0.984      1.087
   296.700     26.000     29.400      0.960      0.950      0.988      1.077     62.227      1.077      0.988      1.077
   296.800     26.000     29.300      0.948      0.958      0.991      1.068     57.766      1.068      0.991      1.068
   296.900     26.000     30.200      0.947      0.952      0.980      1.047     53.304      1.047      0.980      1.047
   297.000     26.000     31.800      0.945      0.947      0.970      1.027     48.844      1.027      0.970      1.027
   297.100     26.000     32.200      0.962      0.947      0.977      1.025     47.066      1.025      0.977      1.025
   297.200     26.000     32.600      0.979      0.946      0.984      1.022     45.288      1.022      0.984      1.022
   297.300     26.000     32.900      0.997      0.946      0.992      1.020     43.510      1.020      0.992      1.020
   297.400     26.000     33.400      0.988      0.943      0.991      1.023     41.781      1.023      0.991      1.023
   297.500     26.000     34.400      0.979      0.941      0.990      1.026     40.052      1.026      0.990      1.026
   297.600     26.000     36.500      0.981      0.947      0.986      1.021     38.323      1.021      0.986      1.021
   297.700     26.000     35.100      0.983      0.952      0.983      1.017     36.687      1.017      0.983      1.017
   297.800     26.000     33.800      1.002      0.960      1.014      1.048     35.050      1.048      1.014      1.048
   297.900     26.000     31.200      1.021      0.968      1.045      1.078     33.414      1.078      1.044      1.078
   298.000     26.000     28.300      1.039      0.967      1.054      1.096     32.907      1.096      1.054      1.096
   298.100     26.000     29.200      1.056      0.965      1.064      1.114     32.400      1.114      1.064      1.114
   298.200     26.000     29.900      1.062      0.974      1.063      1.114     31.893      1.114      1.063      1.114
   298.300     26.000     28.500      1.068      0.982      1.063      1.114     31.872      1.114      1.063      1.114
   298.400     26.000     26.700      1.063      0.969      1.056      1.100     31.851      1.100      1.056      1.100
   298.500     26.000     28.000      1.057      0.955      1.048      1.085     31.830      1.085      1.048      1.085
   298.600     26.000     30.200      1.025      0.947      1.029      1.067     31.977      1.067      1.029      1.067
   298.700     26.000     29.800      0.993      0.939      1.010      1.048     32.124      1.048      1.010      1.048
   298.800     26.000     28.900      0.945      0.928      0.984      1.008     32.271      1.008      0.984      1.008
   298.900     26.000     30.300      0.931      0.923      0.974      0.994     32.448      0.994      0.974      0.994
   299.000     26.000     32.400      0.918      0.918      0.964      0.980     32.625      0.980      0.965      0.980
   299.100     26.000     32.100      0.905      0.913      0.955      0.967     32.802      0.967      0.955      0.967
   299.200     26.000     31.800      0.901      0.909      0.957      0.973     33.284      0.973      0.957      0.973
   299.300     26.000     32.300      0.898      0.906      0.959      0.979     33.766      0.979      0.959      0.979
   299.400     26.000     33.500      0.892      0.909      1.006      1.039     34.248      1.039      1.006      1.039
   299.500     26.000     32.000      0.887      0.913      1.053      1.100     34.761      1.100      1.053      1.100
   299.600     26.000     30.000      0.872      0.924      1.063      1.154     35.274      1.154      1.063      1.154
   299.700     26.000     27.400      0.856      0.934      1.072      1.208     35.787      1.208      1.072      1.208
   299.800     26.000     23.100      0.896      0.936      0.963      1.102     36.896      1.102      0.963      1.102
   299.900     26.000     19.900      0.935      0.937      0.854      0.996     38.005      0.996      0.854      0.996
   300.000     26.000     13.900      0.905      0.934      0.801      0.762     39.114      0.762      0.802      0.762
   300.100     26.000     15.300      0.880      0.913      0.794      0.737     40.255      0.737      0.794      0.737
   300.200     26.000     17.300      0.855      0.891      0.786      0.711     41.395      0.711      0.786      0.711
   300.300     26.000     15.800      0.831      0.878      0.782      0.718     42.535      0.718      0.782      0.718
   300.400     26.000     14.000      0.807      0.864      0.778      0.725     43.453      0.725      0.778      0.725
   300.500     26.000     12.500      0.792      0.869      0.748      0.698     44.371      0.698      0.748      0.698
   300.600     26.000     11.300      0.777      0.874      0.717      0.670     45.289      0.670      0.717      0.670
   300.700     26.000     13.000      0.757      0.853      0.679      0.617     46.248      0.617      0.679      0.617
   300.800     26.000     13.100      0.738      0.831      0.641      0.565     47.207      0.565      0.641      0.565
   300.900     26.000     13.100      0.719      0.809      0.603      0.512     48.165      0.512      0.603      0.512
   301.000     26.000     13.500      0.664      0.804      0.597      0.476     48.683      0.476      0.597      0.476
   301.100     26.000     12.700      0.610      0.799      0.592      0.440     49.201      0.440      0.592      0.440
   301.200     26.000     14.100      0.657      0.805      0.642      0.512     49.718      0.512      0.642      0.512
   301.300     26.000     14.800      0.672      0.809      0.675      0.553     43.912      0.553      0.675      0.553
   301.400     26.000     16.700      0.688      0.814      0.708      0.593     38.106      0.593      0.708      0.593
   301.500     26.000     18.400      0.703      0.818      0.741      0.633     32.300      0.633      0.741      0.633
   301.600     26.000     18.300      0.678      0.822      0.756      0.679     28.859      0.679      0.756      0.679
   301.700     26.000     16.700      0.652      0.827      0.770      0.725     25.419      0.725      0.771      0.725
   301.800     26.000     16.900      0.676      0.798      0.738      0.699     21.979      0.699      0.738      0.699
   301.900     26.000     15.300      0.699      0.769      0.706      0.673     19.392      0.673      0.706      0.673
   302.000     26.000     13.600      0.720      0.769      0.710      0.636     16.806      0.636      0.710      0.636
   302.100     26.000     12.100      0.741      0.769      0.714      0.599     14.220      0.599      0.714      0.599
   302.200     26.000     11.700      0.748      0.804      0.717      0.600     17.620      0.600      0.717      0.600
   302.300     26.000     11.700      0.755      0.838      0.721      0.602     21.021      0.602      0.721      0.602
