~Version Information
VERS.                     2.0: CWLS log ASCII Standard Version 2.00
WRAP.                      NO: One line per depth step

~Well Information Block
#MNEM.UNIT                 Value                       Information
#------------              -----                       -----------
STRT.M                   3204.0000                    :START
STOP.M                   3464.9000                    :STOP
STEP.M                      0.1000                    :STEP
NULL.                     -999.25                     :NULL VALUE
COMP.         Statoil Petroleum                       :Company
WELL.         15/9-F-1 B                              :Well
FLD .         VOLVE                                   :Field
LOC .         Maersk Inspirer                         :Location
PROV.                                                 :Province
CNTY.                                                 :County
STATE.                                                 :State
CTRY.                                                 :Country
DATE.                                                 :Log Date
SRVC.                                                 :Service Company
UWI .                                                 :Unique Well Identifier
API .                                                 :API Number
LATI.         058 26' 29.907" N    DMS                :Latitude
LONG.         001 53' 14.708" E    DMS                :Longtitude
PD  .         MSL                                     :Permanent Datum
ELZ .M                 0.0000                         :Elev. Log Zero

~Curve Information
#MNEM   .UNIT             API CODE Curve Description
#------------             -------- -----------------
DEPTH   .M            00 001 00 00:   0  Depth
BVW     .V/V          00 000 00 00:   1  Bulk Volume Water
CARB_FLAG.V/V         00 000 00 00:   2  Carbonate Flag
COAL_FLAG.UNITLESS    00 000 00 00:   3  Coal flag
KLOGH   .mD           00 000 00 00:   4  Calculated Horizontal PERMEABILITY from logs
PHIF    .V/V          00 000 00 00:   5  Final Porosity
SAND_FLAG.UNITLESS    00 000 00 00:   6  Sand Flag
SW      .V/V          00 000 00 00:   7  Water Saturation
VCARB   .V/V          00 000 00 00:   8  VCARB
VSH     .V/V          00 000 00 00:   9  Volume of Shale

~Parameter Information
#MNEM.UNIT       Value           Description
#------------    -----           -----------
HLD .         Terms and Conditions.:Header Legal Disclaimer
RUN .         1                 :Run number

~Other Information
PETROPHYSICAL INTERPRETATION: OUTPUT

# --- LOG MNEMONICS AND UNITS ---
#Depth          BVW             CARB_FLAG       COAL_FLAG       KLOGH           PHIF            SAND_FLAG       SW              VCARB           VSH            
#M              V/V             V/V             UNITLESS        mD              V/V             UNITLESS        V/V             V/V             V/V            

~A
# ...
      3409.0000          0.0717          0.0000          0.0000          0.0478          0.0717          0.0000          1.0000          0.1129          0.3067
      3409.1000          0.0722          0.0000          0.0000          0.0535          0.0722          0.0000          1.0000          0.1281          0.2917
      3409.2000          0.0730          0.0000          0.0000          0.0598          0.0730          0.0000          1.0000          0.1391          0.2800
      3409.3000          0.0746          0.0000          0.0000          0.0600          0.0746          0.0000          1.0000          0.1065          0.3039
      3409.4000          0.0778          0.0000          0.0000          0.0619          0.0778          0.0000          1.0000          0.0496          0.3495
      3409.5000          0.0823          0.0000          0.0000          0.0774          0.0823          0.0000          1.0000          0.0156          0.3731
      3409.6000          0.0869          0.0000          0.0000          0.0999          0.0869          0.0000          1.0000          0.0000          0.3908
      3409.7000          0.0904          0.0000          0.0000          0.1222          0.0904          0.0000          1.0000          0.0000          0.4029
      3409.8000          0.0922          0.0000          0.0000          0.1344          0.0922          0.0000          1.0000          0.0000          0.4105
      3409.9000          0.0933          0.0000          0.0000          0.1381          0.0933          0.0000          1.0000          0.0000          0.4221
      3410.0000          0.0945          0.0000          0.0000          0.1440          0.0945          0.0000          1.0000          0.0000          0.4330
      3410.1000          0.0957          0.0000          0.0000          0.1526          0.0957          0.0000          1.0000          0.0000          0.4397
      3410.2000          0.0952          0.0000          0.0000          0.1305          0.0952          0.0000          1.0000          0.0000          0.4654
      3410.3000          0.0907          0.0000          0.0000          0.0904          0.0907          0.0000          0.9997          0.0000          0.4738
      3410.4000          0.0826          0.0000          0.0000          0.0506          0.0826          0.0000          1.0000          0.0000          0.4700
      3410.5000          0.0725          0.0000          0.0000          0.0254          0.0725          0.0000          1.0000          0.0000          0.4577
      3410.6000          0.0633          0.0000          0.0000          0.0146          0.0633          0.0000          1.0000          0.0193          0.4302
      3410.7000          0.0575          0.0000          0.0000          0.0092          0.0575          0.0000          1.0000          0.0267          0.4394
      3410.8000          0.0562          0.0000          0.0000          0.0091          0.0562          0.0000          1.0000          0.0478          0.4187
      3410.9000          0.0589          0.0000          0.0000          0.0136          0.0589          0.0000          1.0000          0.0817          0.3744
      3411.0000          0.0652          0.0000          0.0000          0.0275          0.0652          0.0000          1.0000          0.1157          0.3232
      3411.1000          0.0749          0.0000          0.0000          0.0654          0.0749          0.0000          1.0000          0.1199          0.2909
      3411.2000          0.0883          0.0000          0.0000          0.1896          0.0883          0.0000          1.0000          0.0946          0.2736
      3411.3000          0.1041          0.0000          0.0000          0.6336          0.1041          1.0000          1.0000          0.0518          0.2649
      3411.4000          0.1152          0.0000          0.0000          1.7265          0.1186          1.0000          0.9710          0.0000          0.2795
      3411.5000          0.1125          0.0000          0.0000          3.0816          0.1279          1.0000          0.8797          0.0000          0.3027
      3411.6000          0.1082          0.0000          0.0000          2.9947          0.1302          1.0000          0.8312          0.0000          0.3455
      3411.7000          0.1045          0.0000          0.0000          2.3020          0.1265          1.0000          0.8261          0.0000          0.3432
      3411.8000          0.1002          0.0000          0.0000          1.3880          0.1198          1.0000          0.8367          0.0000          0.3452
      3411.9000          0.0973          0.0000          0.0000          0.7331          0.1113          1.0000          0.8745          0.0000          0.3475
      3412.0000          0.0957          0.0000          0.0000          0.3383          0.1011          1.0000          0.9470          0.0000          0.3527
      3412.1000          0.0905          0.0000          0.0000          0.1608          0.0905          0.0000          1.0000          0.0168          0.3451
      3412.2000          0.0824          0.0000          0.0000          0.0875          0.0824          0.0000          1.0000          0.0382          0.3473
      3412.3000          0.0797          0.0000          0.0000          0.0721          0.0797          0.0000          1.0000          0.0469          0.3464
      3412.4000          0.0825          0.0000          0.0000          0.0874          0.0825          0.0000          1.0000          0.0370          0.3485
      3412.5000          0.0881          0.0000          0.0000          0.1334          0.0881          0.0000          1.0000          0.0217          0.3473
      3412.6000          0.0945          0.0000          0.0000          0.2007          0.0945          0.0000          1.0000          0.0000          0.3600
      3412.7000          0.1007          0.0000          0.0000          0.3235          0.1007          1.0000          1.0000          0.0000          0.3560
      3412.8000          0.1066          0.0000          0.0000          0.5161          0.1066          1.0000          1.0000          0.0000          0.3488
      3412.9000          0.1115          0.0000          0.0000          0.7766          0.1115          1.0000          1.0000          0.0000          0.3396
      3413.0000          0.1156          0.0000          0.0000          1.0255          0.1156          1.0000          1.0000          0.0000          0.3441
      3413.1000          0.1135          0.0000          0.0000          1.4587          0.1196          1.0000          0.9489          0.0000          0.3316
      3413.2000          0.1098          0.0000          0.0000          2.0357          0.1231          1.0000          0.8917          0.0000          0.3159
      3413.3000          0.1064          0.0000          0.0000          2.1075          0.1242          1.0000          0.8562          0.0000          0.3258
      3413.4000          0.1058          0.0000          0.0000          1.6830          0.1210          1.0000          0.8743          0.0000          0.3225
      3413.5000          0.1047          0.0000          0.0000          1.0682          0.1135          1.0000          0.9222          0.0000          0.3024
      3413.6000          0.1049          0.0000          0.0000          0.5755          0.1051          1.0000          0.9981          0.0134          0.3013
      3413.7000          0.0989          0.0000          0.0000          0.3053          0.0989          0.0000          1.0000          0.0000          0.3402
      3413.8000          0.0966          0.0000          0.0000          0.2418          0.0966          0.0000          1.0000          0.0000          0.3534
      3413.9000          0.0971          0.0000          0.0000          0.2329          0.0971          0.0000          1.0000          0.0000          0.3707
