~Version Information
VERS.                     2.0: CWLS log ASCII Standard Version 2.00
WRAP.                      NO: One line per depth step

~Well Information Block
#MNEM.UNIT                 Value                       Information
#------------              -----                       -----------
STRT.M                   3358.0000                    :START
STOP.M                   3681.9000                    :STOP
STEP.M                      0.1000                    :STEP
NULL.                     -999.25                     :NULL VALUE
COMP.         Statoil Petroleum AS                    :Company
WELL.         15/9-F-1 A                              :Well
FLD .         VOLVE                                   :Field
LOC .         Maersk Inspirer                         :Location
PROV.                                                 :Province
CNTY.         Unused                                  :County
STATE.                                                 :State
CTRY.                                                 :Country
DATE.                                                 :Log Date
SRVC.                                                 :Service Company
UWI .                                                 :Unique Well Identifier
API .                                                 :API Number
LATI.         058 26' 29.907" N    DMS                :Latitude
LONG.         001 53' 14.708" E    DMS                :Longtitude
PD  .         MSL                                     :Permanent Datum
ELZ .M                 0.0000                         :Elev. Log Zero

~Curve Information
#MNEM   .UNIT             API CODE Curve Description
#------------             -------- -----------------
DEPTH   .M            00 001 00 00:   0  Depth
BVW     .V/V          00 000 00 00:   1  Bound Volume Water
COAL_FLAG.unitless    00 000 00 00:   2  Coal Flag
KLOGH   .mD           00 000 00 00:   3  Calculated Horizontal PERMEABILITY from logs
PHIF    .V/V          00 000 00 00:   4  Final porosity
SAND_FLAG.unitless    00 000 00 00:   5  Sand Flag
SW      .V/V          00 000 00 00:   6  Water Saturation (Archie)
VCARB   .V/V          00 000 00 00:   7  IFC(CARB_FLAG>0.5,1-VSH, VCARB)
VSH     .V/V          00 000 00 00:   8  Volume of Shale

~Parameter Information
#MNEM.UNIT       Value           Description
#------------    -----           -----------
HLD .         Terms and Conditions.:Header Legal Disclaimer
RUN .         1                 :Run number

~Other Information
PETROPHYSICAL INTERPRETATION: OUTPUT

# --- LOG MNEMONICS AND UNITS ---
#Depth          BVW             COAL_FLAG       KLOGH           PHIF            SAND_FLAG       SW              VCARB           VSH            
#M              V/V             unitless        mD              V/V             unitless        V/V             V/V             V/V            

~A
# ...
      3548.4000          0.1780          0.0000          5.6135          0.1780          1.0000          1.0000          0.0000          0.1659
      3548.5000          0.1732          0.0000          4.9359          0.1732          1.0000          1.0000          0.0000          0.1566
      3548.6000          0.1649          0.0000          3.2534          0.1649          1.0000          1.0000          0.0000          0.1688
      3548.7000          0.1555          0.0000          1.9927          0.1555          1.0000          1.0000          0.0000          0.1852
      3548.8000          0.1482          0.0000          1.2903          0.1482          1.0000          1.0000          0.0000          0.2060
      3548.9000          0.1445          0.0000          0.8532          0.1445          1.0000          1.0000          0.0000          0.2443
      3549.0000          0.1427          0.0000          0.6234          0.1427          1.0000          1.0000          0.0000          0.2796
      3549.1000          0.1405          0.0000          0.5241          0.1405          1.0000          1.0000          0.0000          0.2917
      3549.2000          0.1370          0.0000          0.3868          0.1370          1.0000          1.0000          0.0000          0.3154
      3549.3000          0.1320          0.0000          0.3218          0.1320          1.0000          1.0000          0.0000          0.3132
      3549.4000          0.1255          0.0000          0.2836          0.1255          1.0000          1.0000          0.0000          0.2938
      3549.5000          0.1175          0.0000          0.2553          0.1175          1.0000          1.0000          0.0113          0.2627
      3549.6000          0.1090          0.0000          0.2219          0.1090          1.0000          1.0000          0.0687          0.2336
      3549.7000          0.1036          0.0000          0.2174          0.1036          1.0000          1.0000          0.1210          0.2049
      3549.8000          0.1043          0.0000          0.2225          0.1043          1.0000          1.0000          0.1169          0.2059
      3549.9000          0.1117          0.0000          0.2844          0.1117          1.0000          1.0000          0.0817          0.2135
      3550.0000          0.1234          0.0000          0.4475          0.1234          1.0000          1.0000          0.0396          0.2154
      3550.1000          0.1334          0.0000          0.6089          0.1334          1.0000          1.0000          0.0000          0.2291
      3550.2000          0.1381          0.0000          0.6862          0.1381          1.0000          1.0000          0.0000          0.2391
      3550.3000          0.1376          0.0000          0.6879          0.1376          1.0000          1.0000          0.0000          0.2356
      3550.4000          0.1334          0.0000          0.6036          0.1334          1.0000          1.0000          0.0000          0.2304
      3550.5000          0.1286          0.0000          0.4629          0.1286          1.0000          1.0000          0.0000          0.2406
      3550.6000          0.1268          0.0000          0.4355          0.1268          1.0000          1.0000          0.0044          0.2393
      3550.7000          0.1317          0.0000          0.4366          0.1317          1.0000          1.0000          0.0000          0.2671
      3550.8000          0.1431          0.0000          0.4829          0.1431          1.0000          1.0000          0.0000          0.3188
      3550.9000          0.1587          0.0000          0.6046          0.1587          1.0000          1.0000          0.0000          0.3766
      3551.0000          0.1727          0.0000          0.8262          0.1727          1.0000          1.0000          0.0000          0.4128
      3551.1000          0.1808          0.0000          1.2274          0.1808          1.0000          1.0000          0.0000          0.4021
      3551.2000          0.1799          0.0000          1.4529          0.1799          1.0000          1.0000          0.0000          0.3729
      3551.3000          0.1690          0.0000          1.2683          0.1690          1.0000          1.0000          0.0000          0.3292
      3551.4000          0.1428          0.0000          0.7589          0.1503          1.0000          0.9500          0.0000          0.2952
      3551.5000          0.1212          0.0000          0.3824          0.1297          1.0000          0.9345          0.0000          0.2749
      3551.6000          0.1152          0.0000          0.2501          0.1152          1.0000          1.0000          0.0290          0.2521
      3551.7000          0.1116          0.0000          0.2983          0.1116          1.0000          1.0000          0.0912          0.2056
      3551.8000          0.1167          0.0000          0.4052          0.1167          1.0000          1.0000          0.0904          0.1908
      3551.9000          0.1264          0.0000          0.6452          0.1264          1.0000          1.0000          0.0676          0.1802
      3552.0000          0.1382          0.0000          1.1124          0.1382          1.0000          1.0000          0.0380          0.1695
      3552.1000          0.1495          0.0000          1.9389          0.1495          1.0000          1.0000          0.0143          0.1546
      3552.2000          0.1573          0.0000          2.7251          0.1573          1.0000          1.0000          0.0000          0.1504
      3552.3000          0.1588          0.0000          2.7455          0.1588          1.0000          1.0000          0.0000          0.1582
      3552.4000          0.1547          0.0000          2.3347          0.1547          1.0000          1.0000          0.0000          0.1578
      3552.5000          0.1486          0.0000          1.7289          0.1486          1.0000          1.0000          0.0052          0.1662
      3552.6000          0.1440          0.0000          1.3934          0.1440          1.0000          1.0000          0.0162          0.1708
      3552.7000          0.1415          0.0000          1.3174          0.1415          1.0000          1.0000          0.0324          0.1640
      3552.8000          0.1391          0.0000          1.1158          0.1391          1.0000          1.0000          0.0294          0.1744
      3552.9000          0.1355          0.0000          0.8507          0.1355          1.0000          1.0000          0.0224          0.1928
      3553.0000          0.1293          0.0000          0.5505          0.1293          1.0000          1.0000          0.0157          0.2196
      3553.1000          0.1211          0.0000          0.2785          0.1211          1.0000          1.0000          0.0000          0.2711
      3553.2000          0.1124          0.0000          0.1284          0.1124          1.0000          1.0000          0.0000          0.3324
      3553.3000          0.1058          0.0000          0.0734          0.1058          1.0000          1.0000          0.0000          0.3754
      3553.4000          0.1051          0.0000          0.0617          0.1051          1.0000          1.0000          0.0000          0.3960
      3553.5000          0.1103          0.0000          0.0861          0.1103          1.0000          1.0000          0.0000          0.3783
      3553.6000          0.1180          0.0000          0.1241          0.1180          1.0000          1.0000          0.0000          0.3697
      3553.7000          0.1235          0.0000          0.1547          0.1235          1.0000          1.0000          0.0000          0.3698
      3553.8000          0.1253          0.0000          0.1662          0.1253          1.0000          1.0000          0.0000          0.3699
      3553.9000          0.1249          0.0000          0.1684          0.1249          1.0000          1.0000          0.0000          0.3654
