~Version Information
VERS.                     2.0: CWLS log ASCII Standard Version 2.00
WRAP.                      NO: One line per depth step

~Well Information Block
#MNEM.UNIT                 Value                       Information
#------------              -----                       -----------
STRT.M                    3575.000                    :START
STOP.M                    3761.800                    :STOP
STEP.M                       0.100                    :STEP
NULL.                     -999.25                     :NULL VALUE
COMP.         Statoil Petroleum AS                    :Company
WELL.         15/9-F-11 A                             :Well
FLD .         VOLVE                                   :Field
LOC .         Maersk Inspirer                         :Location
PROV.                                                 :Province
CNTY.                                                 :County
STATE.                                                 :State
CTRY.         Norway                                  :Country
DATE.                                                 :Log Date
SRVC.                                                 :Service Company
UWI .                                                 :Unique Well Identifier
API .                                                 :API Number
LATI.         058 26' 29.956" N    DMS                :Latitude
LONG.         001 53' 14.866" E    DMS                :Longtitude
PD  .         MSL                                     :Permanent Datum
EDF .M            54.900                              :Elevations D.F.
EGL .M           -91.000                              :Elevations G.L.
ELZ .M            54.900                              :Elev. Log Zero
LMF .         DF                                      :Log Measured From

~Curve Information
#MNEM   .UNIT             API CODE Curve Description
#------------             -------- -----------------
DEPTH   .M            00 001 00 00:   0  Depth
BVW     .v/v          00 000 00 00:   1  BVW:CPI:rC:NONE:v1
CARB_FLAG.UNKNOWN     00 000 00 00:   2  CARB_FLAG:CPI:rC:NONE:v1
COAL_FLAG.UNKNOWN     00 000 00 00:   3  COAL_FLAG:CPI:rC:NONE:v1
KLOGH   .mD           00 000 00 00:   4  KLOGH:CPI:rC:NONE:v1
PHIF    .v/v          00 000 00 00:   5  PHIF:CPI:rC:NONE:v1
SAND_FLAG.UNKNOWN     00 000 00 00:   6  SAND_FLAG:CPI:rC:NONE:v1
SW      .v/v          00 000 00 00:   7  SW:CPI:rC:NONE:v1
VSH     .v/v          00 000 00 00:   8  VSH:CPI:rC:NONE:v1

~Parameter Information
#MNEM.UNIT       Value           Description
#------------    -----           -----------
RUN .         1                 :Run number

~Other Information
PETROPHYSICAL_INTERPRETATION: OUTPUT

# --- LOG MNEMONICS AND UNITS ---
#Depth     BVW        CARB_FLAG  COAL_FLAG  KLOGH      PHIF       SAND_FLAG  SW         VSH       
#M         v/v        UNKNOWN    UNKNOWN    mD         v/v        UNKNOWN    v/v        v/v       

~A
# ...
  3639.800      0.094      0.000      0.000     23.774      0.234      1.000      0.401      0.277
  3639.900      0.108      0.000      0.000     25.303      0.236      1.000      0.458      0.276
  3640.000      0.097      0.000      0.000     21.247      0.237      1.000      0.409      0.286
  3640.100      0.093      0.000      0.000     16.068      0.234      1.000      0.396      0.296
  3640.200      0.091      0.000      0.000     19.652      0.231      1.000      0.391      0.284
  3640.300      0.086      0.000      0.000     24.057      0.227      1.000      0.380      0.270
  3640.400      0.084      0.000      0.000     39.625      0.223      1.000      0.375      0.243
  3640.500      0.082      0.000      0.000     54.902      0.221      1.000      0.370      0.225
  3640.600      0.080      0.000      0.000     79.225      0.222      1.000      0.360      0.209
  3640.700      0.077      0.000      0.000     84.980      0.224      1.000      0.343      0.207
  3640.800      0.076      0.000      0.000     61.862      0.225      1.000      0.337      0.223
  3640.900      0.078      0.000      0.000     31.417      0.221      1.000      0.351      0.253
  3641.000      0.079      0.000      0.000     16.571      0.216      1.000      0.364      0.279
  3641.100      0.080      0.000      0.000      5.102      0.209      1.000      0.382      0.329
  3641.200      0.080      0.000      0.000      2.796      0.201      1.000      0.399      0.352
  3641.300      0.083      0.000      0.000      1.787      0.195      1.000      0.424      0.368
  3641.400      0.086      0.000      0.000      1.671      0.192      1.000      0.447      0.368
  3641.500      0.092      0.000      0.000      0.888      0.156      1.000      0.591      0.367
  3641.600      0.105      0.000      0.000      0.869      0.157      1.000      0.667      0.369
  3641.700      0.107      0.000      0.000      1.443      0.161      1.000      0.665      0.347
  3641.800      0.104      0.000      0.000      2.691      0.161      1.000      0.646      0.318
  3641.900      0.104      0.000      0.000      2.858      0.157      1.000      0.661      0.311
  3642.000      0.107      0.000      0.000      3.311      0.154      1.000      0.695      0.301
  3642.100      0.117      0.000      0.000      4.342      0.153      1.000      0.766      0.287
  3642.200      0.125      0.000      0.000      8.380      0.187      1.000      0.669      0.286
  3642.300      0.121      0.000      0.000      9.491      0.185      1.000      0.655      0.278
  3642.400      0.115      0.000      0.000      9.376      0.185      1.000      0.622      0.278
  3642.500      0.108      0.000      0.000      9.744      0.182      1.000      0.595      0.274
  3642.600      0.102      0.000      0.000     11.677      0.179      1.000      0.571      0.262
  3642.700      0.095      0.000      0.000     13.558      0.173      1.000      0.549      0.250
  3642.800      0.084      0.000      0.000     19.026      0.169      1.000      0.497      0.231
  3642.900      0.078      0.000      0.000     32.307      0.167      1.000      0.466      0.203
  3643.000      0.075      0.000      0.000     29.699      0.169      1.000      0.442      0.208
  3643.100      0.074      0.000      0.000     34.497      0.175      1.000      0.421      0.207
  3643.200      0.073      0.000      0.000     40.069      0.181      1.000      0.402      0.205
  3643.300      0.076      0.000      0.000     53.789      0.190      1.000      0.403      0.199
  3643.400      0.079      0.000      0.000     65.072      0.198      1.000      0.400      0.197
  3643.500      0.081      0.000      0.000     64.007      0.202      1.000      0.402      0.201
  3643.600      0.083      0.000      0.000     57.925      0.209      1.000      0.400      0.212
  3643.700      0.086      0.000      0.000     49.414      0.215      1.000      0.398      0.225
  3643.800      0.089      0.000      0.000     39.682      0.223      1.000      0.400      0.243
  3643.900      0.094      0.000      0.000     47.100      0.229      1.000      0.408      0.240
  3644.000      0.097      0.000      0.000     45.428      0.232      1.000      0.420      0.244
  3644.100      0.102      0.000      0.000     40.249      0.234      1.000      0.435      0.252
  3644.200      0.104      0.000      0.000     40.821      0.233      1.000      0.447      0.250
  3644.300      0.105      0.000      0.000     46.825      0.234      1.000      0.451      0.244
  3644.400      0.105      0.000      0.000     51.974      0.235      1.000      0.444      0.241
  3644.500      0.105      0.000      0.000     50.924      0.237      1.000      0.444      0.243
  3644.600      0.106      0.000      0.000     39.295      0.237      1.000      0.446      0.256
  3644.700      0.105      0.000      0.000     32.055      0.234      1.000      0.449      0.263
  3644.800      0.105      0.000      0.000     27.158      0.230      1.000      0.457      0.267
  3644.900      0.104      0.000      0.000     24.858      0.224      1.000      0.465      0.266
  3645.000      0.104      0.000      0.000     24.903      0.218      1.000      0.476      0.261
  3645.100      0.103      0.000      0.000     24.579      0.212      1.000      0.485      0.256
  3645.200      0.102      0.000      0.000     23.549      0.207      1.000      0.495      0.254
  3645.300      0.102      0.000      0.000     26.767      0.203      1.000      0.505      0.244
  3645.400      0.102      0.000      0.000     26.339      0.198      1.000      0.518      0.240
  3645.500      0.103      0.000      0.000     24.190      0.194      1.000      0.532      0.241
  3645.600      0.104      0.000      0.000     21.494      0.192      1.000      0.543      0.245
  3645.700      0.105      0.000      0.000     17.955      0.194      1.000      0.544      0.255
  3645.800      0.106      0.000      0.000     12.135      0.198      1.000      0.539      0.277
  3645.900      0.107      0.000      0.000     14.561      0.202      1.000      0.531      0.273
  3646.000      0.108      0.000      0.000     18.802      0.207      1.000      0.522      0.265
  3646.100      0.109      0.000      0.000     20.366      0.213      1.000      0.514      0.266
  3646.200      0.112      0.000      0.000     20.197      0.218      1.000      0.512      0.271
  3646.300      0.114      0.000      0.000     16.147      0.219      1.000      0.520      0.283
  3646.400      0.115      0.000      0.000     15.057      0.218      1.000      0.529      0.285
  3646.500      0.109      0.000      0.000     12.838      0.211      1.000      0.518      0.287
  3646.600      0.097      0.000      0.000      9.323      0.200      1.000      0.482      0.293
  3646.700      0.095      0.000      0.000      8.994      0.189      1.000      0.502      0.284
  3646.800      0.079      0.000      0.000     14.540      0.175      1.000      0.449      0.249
  3646.900      0.015      0.000      0.000     24.831      0.159      1.000      0.094      0.208
  3647.000      0.014      0.000      0.000     29.340      0.139      1.000      0.103      0.182
  3647.100      0.014      0.000      0.000     27.861      0.113      1.000      0.119      0.162
  3647.200      0.013      1.000      0.000     26.983      0.086      0.000      0.145      0.140
  3647.300      0.011      1.000      0.000     35.073      0.063      0.000      0.183      0.106
  3647.400      0.007      1.000      0.000     20.233      0.007      0.000      1.000      0.084
  3647.500      0.002      1.000      0.000     27.545      0.002      0.000      1.000      0.064
  3647.600      0.009      1.000      0.000     51.294      0.024      0.000      0.366      0.053
  3647.700      0.012      1.000      0.000    208.193      0.089      0.000      0.134      0.044
  3647.800      0.013      1.000      0.000    362.660      0.111      0.000      0.112      0.037
