~Version Information
VERS.                     2.0: CWLS log ASCII Standard Version 2.00
WRAP.                      NO: One line per depth step

~Well Information Block
#MNEM.UNIT                 Value                       Information
#------------              -----                       -----------
STRT.M                    4334.700                    :START
STOP.M                    4561.700                    :STOP
STEP.M                       0.100                    :STEP
NULL.                     -999.25                     :NULL VALUE
COMP.         Statoil Petroleum AS                    :Company
WELL.         15/9-F-11 T2                            :Well
FLD .         VOLVE                                   :Field
LOC .                                                 :Location
PROV.                                                 :Province
CNTY.                                                 :County
STATE.                                                 :State
CTRY.         Norway                                  :Country
DATE.                                                 :Log Date
SRVC.                                                 :Service Company
UWI .                                                 :Unique Well Identifier
API .                                                 :API Number
PD  .         MSL                                     :Permanent Datum
EDF .M            54.900                              :Elevations D.F.
EGL .M           -91.000                              :Elevations G.L.
ELZ .M            54.900                              :Elev. Log Zero
LMF .         DF                                      :Log Measured From

~Curve Information
#MNEM   .UNIT             API CODE Curve Description
#------------             -------- -----------------
DEPTH   .M            00 001 00 00:   0  Depth
BVW     .v/v          00 000 00 00:   1  BVW:CPI:rC:NONE:v1
CARB_FLAG.unitless    00 000 00 00:   2  CARB_FLAG:CPI:rC:NONE:v1
COAL_FLAG.unitless    00 000 00 00:   3  COAL_FLAG:CPI:rC:NONE:v1
KLOGH   .mD           00 000 00 00:   4  KLOGH:CPI:rC:NONE:v1
PHIF    .v/v          00 000 00 00:   5  PHIF:CPI:rC:NONE:v1
SAND_FLAG.unitless    00 000 00 00:   6  SAND_FLAG:CPI:rC:NONE:v1
SW      .v/v          00 000 00 00:   7  SW:CPI:rC:NONE:v1
VSH     .v/v          00 000 00 00:   8  VSH:CPI:rC:NONE:v1

~Parameter Information
#MNEM.UNIT       Value           Description
#------------    -----           -----------
RUN .         1                 :Run number

~Other Information
PETROPHYSICAL INTERPRETATION: OUTPUT

# --- LOG MNEMONICS AND UNITS ---
#Depth     BVW        CARB_FLAG  COAL_FLAG  KLOGH      PHIF       SAND_FLAG  SW         VSH       
#M         v/v        unitless   unitless   mD         v/v        unitless   v/v        v/v       

~A
# ...
  4423.800      0.167      0.000      0.000    151.370      0.167      1.000      1.000      0.128
  4423.900      0.169      0.000      0.000    242.185      0.169      1.000      1.000      0.108
  4424.000      0.167      0.000      0.000    278.059      0.167      1.000      1.000      0.099
  4424.100      0.163      0.000      0.000    244.572      0.163      1.000      1.000      0.102
  4424.200      0.156      0.000      0.000    245.648      0.156      1.000      1.000      0.096
  4424.300      0.149      0.000      0.000    215.389      0.149      1.000      1.000      0.095
  4424.400      0.143      0.000      0.000    177.046      0.143      1.000      1.000      0.100
  4424.500      0.142      0.000      0.000    162.345      0.142      1.000      1.000      0.103
  4424.600      0.145      0.000      0.000    181.807      0.145      1.000      1.000      0.100
  4424.700      0.149      0.000      0.000    163.966      0.149      1.000      1.000      0.109
  4424.800      0.155      0.000      0.000    151.124      0.155      1.000      1.000      0.118
  4424.900      0.162      0.000      0.000    174.609      0.162      1.000      1.000      0.118
  4425.000      0.168      0.000      0.000    189.277      0.168      1.000      1.000      0.119
  4425.100      0.171      0.000      0.000    203.201      0.171      1.000      1.000      0.118
  4425.200      0.169      0.000      0.000    206.198      0.169      1.000      1.000      0.116
  4425.300      0.166      0.000      0.000    191.833      0.166      1.000      1.000      0.116
  4425.400      0.162      0.000      0.000    212.804      0.162      1.000      1.000      0.108
  4425.500      0.162      0.000      0.000    264.553      0.162      1.000      1.000      0.097
  4425.600      0.165      0.000      0.000    291.619      0.165      1.000      1.000      0.095
  4425.700      0.168      0.000      0.000    286.198      0.168      1.000      1.000      0.099
  4425.800      0.170      0.000      0.000    252.954      0.170      1.000      1.000      0.107
  4425.900      0.171      0.000      0.000    218.610      0.171      1.000      1.000      0.114
  4426.000      0.168      0.000      0.000    177.056      0.168      1.000      1.000      0.122
  4426.100      0.161      0.000      0.000    137.584      0.161      1.000      1.000      0.128
  4426.200      0.152      0.000      0.000    104.803      0.152      1.000      1.000      0.133
  4426.300      0.146      0.000      0.000     89.856      0.146      1.000      1.000      0.135
  4426.400      0.144      0.000      0.000     94.737      0.144      1.000      1.000      0.131
  4426.500      0.147      0.000      0.000     93.496      0.147      1.000      1.000      0.134
  4426.600      0.151      0.000      0.000     82.252      0.151      1.000      1.000      0.143
  4426.700      0.154      0.000      0.000     81.596      0.154      1.000      1.000      0.147
  4426.800      0.157      0.000      0.000     96.027      0.157      1.000      1.000      0.141
  4426.900      0.160      0.000      0.000    122.279      0.160      1.000      1.000      0.132
  4427.000      0.161      0.000      0.000    140.227      0.161      1.000      1.000      0.127
  4427.100      0.158      0.000      0.000    158.037      0.158      1.000      1.000      0.119
  4427.200      0.154      0.000      0.000    140.305      0.154      1.000      1.000      0.121
  4427.300      0.151      0.000      0.000    127.920      0.151      1.000      1.000      0.122
  4427.400      0.150      0.000      0.000    117.608      0.150      1.000      1.000      0.125
  4427.500      0.147      0.000      0.000    109.466      0.147      1.000      1.000      0.127
  4427.600      0.142      0.000      0.000     92.196      0.142      1.000      1.000      0.130
  4427.700      0.136      0.000      0.000     72.537      0.136      1.000      1.000      0.137
  4427.800      0.131      0.000      0.000     59.526      0.131      1.000      1.000      0.142
  4427.900      0.126      0.000      0.000     51.763      0.126      1.000      1.000      0.144
  4428.000      0.120      0.000      0.000     57.480      0.120      1.000      1.000      0.134
  4428.100      0.115      0.000      0.000     73.787      0.115      1.000      1.000      0.117
  4428.200      0.114      0.000      0.000     86.451      0.114      1.000      1.000      0.108
  4428.300      0.118      0.000      0.000    111.123      0.118      1.000      1.000      0.100
  4428.400      0.124      0.000      0.000    134.933      0.124      1.000      1.000      0.096
  4428.500      0.129      0.000      0.000    138.645      0.129      1.000      1.000      0.099
  4428.600      0.131      0.000      0.000    121.210      0.131      1.000      1.000      0.107
  4428.700      0.133      0.000      0.000    110.817      0.133      1.000      1.000      0.113
  4428.800      0.134      0.000      0.000    109.127      0.134      1.000      1.000      0.115
  4428.900      0.137      0.000      0.000    103.594      0.137      1.000      1.000      0.120
  4429.000      0.139      0.000      0.000    104.914      0.139      1.000      1.000      0.121
  4429.100      0.142      0.000      0.000    115.610      0.142      1.000      1.000      0.119
  4429.200      0.143      0.000      0.000    132.865      0.143      1.000      1.000      0.114
  4429.300      0.143      0.000      0.000    132.450      0.143      1.000      1.000      0.114
  4429.400      0.142      0.000      0.000    134.968      0.142      1.000      1.000      0.111
  4429.500      0.138      0.000      0.000    118.912      0.138      1.000      1.000      0.114
  4429.600      0.134      0.000      0.000    102.944      0.134      1.000      1.000      0.117
  4429.700      0.130      0.000      0.000     92.659      0.130      1.000      1.000      0.119
  4429.800      0.129      0.000      0.000     91.036      0.129      1.000      1.000      0.119
  4429.900      0.133      0.000      0.000    100.196      0.133      1.000      1.000      0.118
  4430.000      0.138      0.000      0.000    140.371      0.138      1.000      1.000      0.106
  4430.100      0.139      0.000      0.000    168.965      0.139      1.000      1.000      0.098
  4430.200      0.132      0.000      0.000    155.465      0.132      1.000      1.000      0.096
  4430.300      0.118      0.000      0.000    123.788      0.118      1.000      1.000      0.095
  4430.400      0.103      0.000      0.000     90.395      0.103      1.000      1.000      0.096
  4430.500      0.091      1.000      0.000     65.438      0.091      0.000      1.000      0.101
  4430.600      0.087      1.000      0.000     41.585      0.087      0.000      1.000      0.119
  4430.700      0.090      1.000      0.000     36.124      0.090      0.000      1.000      0.129
  4430.800      0.098      1.000      0.000     37.320      0.098      0.000      1.000      0.135
  4430.900      0.108      0.000      0.000     35.627      0.108      1.000      1.000      0.146
  4431.000      0.117      0.000      0.000     35.975      0.117      1.000      1.000      0.153
  4431.100      0.123      0.000      0.000     40.947      0.123      1.000      1.000      0.152
  4431.200      0.126      0.000      0.000     38.066      0.126      1.000      1.000      0.158
  4431.300      0.126      0.000      0.000     24.152      0.126      1.000      1.000      0.180
  4431.400      0.123      0.000      0.000     18.563      0.123      1.000      1.000      0.190
  4431.500      0.118      0.000      0.000     17.497      0.118      1.000      1.000      0.189
  4431.600      0.113      0.000      0.000     16.261      0.113      1.000      1.000      0.188
  4431.700      0.110      0.000      0.000     14.744      0.110      1.000      1.000      0.190
  4431.800      0.106      0.000      0.000     12.293      0.106      1.000      1.000      0.196
