~Version Information
VERS.                     2.0: CWLS log ASCII Standard Version 2.00
WRAP.                      NO: One line per depth step

~Well Information Block
#MNEM.UNIT                 Value                       Information
#------------              -----                       -----------
STRT.M                   3204.0000                    :START
STOP.M                   3464.9000                    :STOP
STEP.M                      0.1000                    :STEP
NULL.                     -999.25                     :NULL VALUE
COMP.         Statoil Petroleum                       :Company
WELL.         15/9-F-1 B                              :Well
FLD .         VOLVE                                   :Field
LOC .         Maersk Inspirer                         :Location
PROV.                                                 :Province
CNTY.                                                 :County
STATE.                                                 :State
CTRY.                                                 :Country
DATE.                                                 :Log Date
SRVC.                                                 :Service Company
UWI .                                                 :Unique Well Identifier
API .                                                 :API Number
LATI.         058 26' 29.907" N    DMS                :Latitude
LONG.         001 53' 14.708" E    DMS                :Longtitude
PD  .         MSL                                     :Permanent Datum
ELZ .M                 0.0000                         :Elev. Log Zero

~Curve Information
#MNEM   .UNIT             API CODE Curve Description
#------------             -------- -----------------
DEPTH   .M            00 001 00 00:   0  Depth
BVW     .V/V          00 000 00 00:   1  Bulk Volume Water
CARB_FLAG.V/V         00 000 00 00:   2  Carbonate Flag
COAL_FLAG.UNITLESS    00 000 00 00:   3  Coal flag
KLOGH   .mD           00 000 00 00:   4  Calculated Horizontal PERMEABILITY from logs
PHIF    .V/V          00 000 00 00:   5  Final Porosity
SAND_FLAG.UNITLESS    00 000 00 00:   6  Sand Flag
SW      .V/V          00 000 00 00:   7  Water Saturation
VCARB   .V/V          00 000 00 00:   8  VCARB
VSH     .V/V          00 000 00 00:   9  Volume of Shale

~Parameter Information
#MNEM.UNIT       Value           Description
#------------    -----           -----------
HLD .         Terms and Conditions.:Header Legal Disclaimer
RUN .         1                 :Run number

~Other Information
PETROPHYSICAL INTERPRETATION: OUTPUT

# --- LOG MNEMONICS AND UNITS ---
#Depth          BVW             CARB_FLAG       COAL_FLAG       KLOGH           PHIF            SAND_FLAG       SW              VCARB           VSH            
#M              V/V             V/V             UNITLESS        mD              V/V             UNITLESS        V/V             V/V             V/V            

~A
# ...
      3394.0000          0.1083          0.0000          0.0000          0.6064          0.1083          1.0000          1.0000          0.0000          0.3421
      3394.1000          0.1091          0.0000          0.0000          0.6662          0.1097          1.0000          0.9948          0.0000          0.3427
      3394.2000          0.1072          0.0000          0.0000          0.6202          0.1090          1.0000          0.9838          0.0000          0.3473
      3394.3000          0.1053          0.0000          0.0000          0.5394          0.1068          1.0000          0.9856          0.0000          0.3429
      3394.4000          0.1020          0.0000          0.0000          0.4437          0.1033          1.0000          0.9870          0.0000          0.3295
      3394.5000          0.0983          0.0000          0.0000          0.3318          0.0989          0.0000          0.9948          0.0138          0.3212
      3394.6000          0.0941          0.0000          0.0000          0.2510          0.0941          0.0000          1.0000          0.0423          0.3060
      3394.7000          0.0915          0.0000          0.0000          0.1924          0.0915          0.0000          1.0000          0.0342          0.3226
      3394.8000          0.0925          0.0000          0.0000          0.1987          0.0925          0.0000          1.0000          0.0245          0.3302
      3394.9000          0.0957          0.0000          0.0000          0.2199          0.0957          0.0000          1.0000          0.0000          0.3594
      3395.0000          0.0979          0.0000          0.0000          0.2441          0.0979          0.0000          1.0000          0.0000          0.3733
      3395.1000          0.0977          0.0000          0.0000          0.2653          0.0977          0.0000          1.0000          0.0000          0.3515
      3395.2000          0.0963          0.0000          0.0000          0.2150          0.0963          0.0000          1.0000          0.0000          0.3743
      3395.3000          0.0955          0.0000          0.0000          0.1917          0.0955          0.0000          1.0000          0.0000          0.3874
      3395.4000          0.0953          0.0000          0.0000          0.1781          0.0953          0.0000          1.0000          0.0000          0.3988
      3395.5000          0.0937          0.0000          0.0000          0.1718          0.0937          0.0000          1.0000          0.0000          0.3810
      3395.6000          0.0903          0.0000          0.0000          0.1394          0.0903          0.0000          1.0000          0.0000          0.3724
      3395.7000          0.0873          0.0000          0.0000          0.1205          0.0873          0.0000          1.0000          0.0159          0.3566
      3395.8000          0.0868          0.0000          0.0000          0.1225          0.0868          0.0000          1.0000          0.0278          0.3448
      3395.9000          0.0887          0.0000          0.0000          0.1321          0.0887          0.0000          1.0000          0.0095          0.3594
      3396.0000          0.0917          0.0000          0.0000          0.1494          0.0917          0.0000          1.0000          0.0000          0.3793
      3396.1000          0.0946          0.0000          0.0000          0.1832          0.0946          0.0000          1.0000          0.0000          0.3816
      3396.2000          0.0982          0.0000          0.0000          0.2335          0.0982          0.0000          1.0000          0.0000          0.3866
      3396.3000          0.1030          0.0000          0.0000          0.3387          0.1030          1.0000          1.0000          0.0000          0.3835
      3396.4000          0.1090          0.0000          0.0000          0.5623          0.1090          1.0000          1.0000          0.0000          0.3685
      3396.5000          0.1161          0.0000          0.0000          1.0300          0.1161          1.0000          1.0000          0.0000          0.3514
      3396.6000          0.1247          0.0000          0.0000          2.0841          0.1247          1.0000          1.0000          0.0000          0.3355
      3396.7000          0.1302          0.0000          0.0000          4.7978          0.1343          1.0000          0.9699          0.0000          0.3080
      3396.8000          0.1338          0.0000          0.0000          9.8650          0.1424          1.0000          0.9399          0.0000          0.2814
      3396.9000          0.1318          0.0000          0.0000         11.9921          0.1455          1.0000          0.9057          0.0000          0.2883
      3397.0000          0.1279          0.0000          0.0000          8.4897          0.1409          1.0000          0.9076          0.0000          0.2902
      3397.1000          0.1210          0.0000          0.0000          4.2662          0.1304          1.0000          0.9276          0.0000          0.2714
      3397.2000          0.1141          0.0000          0.0000          1.8212          0.1181          1.0000          0.9667          0.0135          0.2587
      3397.3000          0.1089          0.0000          0.0000          0.9761          0.1089          1.0000          1.0000          0.0538          0.2479
      3397.4000          0.1059          0.0000          0.0000          0.7833          0.1059          1.0000          1.0000          0.0634          0.2481
      3397.5000          0.1083          0.0000          0.0000          0.9287          0.1083          1.0000          1.0000          0.0539          0.2496
      3397.6000          0.1120          0.0000          0.0000          1.3822          0.1135          1.0000          0.9865          0.0401          0.2464
      3397.7000          0.1136          0.0000          0.0000          1.9290          0.1185          1.0000          0.9591          0.0181          0.2526
      3397.8000          0.1147          0.0000          0.0000          2.2255          0.1213          1.0000          0.9459          0.0000          0.2664
      3397.9000          0.1147          0.0000          0.0000          2.3823          0.1223          1.0000          0.9382          0.0000          0.2681
      3398.0000          0.1146          0.0000          0.0000          2.1009          0.1219          1.0000          0.9398          0.0000          0.2899
      3398.1000          0.1137          0.0000          0.0000          1.7730          0.1206          1.0000          0.9428          0.0000          0.3048
      3398.2000          0.1112          0.0000          0.0000          1.4433          0.1178          1.0000          0.9441          0.0000          0.3056
      3398.3000          0.1084          0.0000          0.0000          1.0425          0.1137          1.0000          0.9536          0.0000          0.3104
      3398.4000          0.1067          0.0000          0.0000          0.7141          0.1090          1.0000          0.9787          0.0000          0.3176
      3398.5000          0.1053          0.0000          0.0000          0.5004          0.1053          1.0000          1.0000          0.0000          0.3354
      3398.6000          0.1045          0.0000          0.0000          0.4506          0.1045          1.0000          1.0000          0.0000          0.3454
      3398.7000          0.1071          0.0000          0.0000          0.4904          0.1071          1.0000          1.0000          0.0000          0.3681
      3398.8000          0.1082          0.0000          0.0000          0.6020          0.1111          1.0000          0.9731          0.0000          0.3885
      3398.9000          0.1072          0.0000          0.0000          0.7443          0.1139          1.0000          0.9411          0.0000          0.3863
