~Version Information
VERS.                     2.0: CWLS log ASCII Standard Version 2.00
WRAP.                      NO: One line per depth step

~Well Information Block
#MNEM.UNIT                 Value                       Information
#------------              -----                       -----------
STRT.M                    4334.700                    :START
STOP.M                    4561.700                    :STOP
STEP.M                       0.100                    :STEP
NULL.                     -999.25                     :NULL VALUE
COMP.         Statoil Petroleum AS                    :Company
WELL.         15/9-F-11 T2                            :Well
FLD .         VOLVE                                   :Field
LOC .                                                 :Location
PROV.                                                 :Province
CNTY.                                                 :County
STATE.                                                 :State
CTRY.         Norway                                  :Country
DATE.                                                 :Log Date
SRVC.                                                 :Service Company
UWI .                                                 :Unique Well Identifier
API .                                                 :API Number
PD  .         MSL                                     :Permanent Datum
EDF .M            54.900                              :Elevations D.F.
EGL .M           -91.000                              :Elevations G.L.
ELZ .M            54.900                              :Elev. Log Zero
LMF .         DF                                      :Log Measured From

~Curve Information
#MNEM   .UNIT             API CODE Curve Description
#------------             -------- -----------------
DEPTH   .M            00 001 00 00:   0  Depth
BVW     .v/v          00 000 00 00:   1  BVW:CPI:rC:NONE:v1
CARB_FLAG.unitless    00 000 00 00:   2  CARB_FLAG:CPI:rC:NONE:v1
COAL_FLAG.unitless    00 000 00 00:   3  COAL_FLAG:CPI:rC:NONE:v1
KLOGH   .mD           00 000 00 00:   4  KLOGH:CPI:rC:NONE:v1
PHIF    .v/v          00 000 00 00:   5  PHIF:CPI:rC:NONE:v1
SAND_FLAG.unitless    00 000 00 00:   6  SAND_FLAG:CPI:rC:NONE:v1
SW      .v/v          00 000 00 00:   7  SW:CPI:rC:NONE:v1
VSH     .v/v          00 000 00 00:   8  VSH:CPI:rC:NONE:v1

~Parameter Information
#MNEM.UNIT       Value           Description
#------------    -----           -----------
RUN .         1                 :Run number

~Other Information
PETROPHYSICAL INTERPRETATION: OUTPUT

# --- LOG MNEMONICS AND UNITS ---
#Depth     BVW        CARB_FLAG  COAL_FLAG  KLOGH      PHIF       SAND_FLAG  SW         VSH       
#M         v/v        unitless   unitless   mD         v/v        unitless   v/v        v/v       

~A
# ...
  4529.100      0.057      0.000      0.000      0.004      0.057      0.000      1.000      0.587
  4529.200      0.052      0.000      0.000      0.003      0.052      0.000      1.000      0.587
  4529.300      0.051      0.000      0.000      0.003      0.051      0.000      1.000      0.590
  4529.400      0.052      0.000      0.000      0.003      0.052      0.000      1.000      0.620
  4529.500      0.055      0.000      0.000      0.003      0.055      0.000      1.000      0.657
  4529.600      0.059      0.000      0.000      0.003      0.059      0.000      1.000      0.686
  4529.700      0.061      0.000      0.000      0.003      0.061      0.000      1.000      0.704
  4529.800      0.061      0.000      0.000      0.004      0.061      0.000      1.000      0.707
  4529.900      0.061    -999.25      0.000      0.003      0.061      0.000      1.000      0.718
  4530.000      0.061    -999.25      0.000      0.003      0.061      0.000      1.000      0.708
  4530.100      0.062    -999.25      0.000      0.004      0.062      0.000      1.000      0.710
  4530.200      0.065    -999.25      0.000      0.005      0.065      0.000      1.000      0.710
  4530.300      0.069    -999.25      0.000      0.006      0.069      0.000      1.000      0.717
  4530.400      0.072    -999.25      0.000      0.007      0.072      0.000      1.000      0.729
  4530.500      0.074    -999.25      0.000      0.008      0.074      0.000      1.000      0.737
  4530.600      0.074    -999.25      0.000      0.008      0.074      0.000      1.000      0.735
  4530.700      0.073    -999.25      0.000      0.007      0.073      0.000      1.000      0.735
  4530.800      0.071    -999.25      0.000      0.007      0.071      0.000      1.000      0.720
  4530.900      0.068    -999.25      0.000      0.005      0.068      0.000      1.000      0.733
  4531.000      0.067    -999.25      0.000      0.005      0.067      0.000      1.000      0.732
  4531.100      0.066    -999.25      0.000      0.005      0.066      0.000      1.000      0.727
  4531.200      0.068    -999.25      0.000      0.005      0.068      0.000      1.000      0.735
  4531.300      0.069    -999.25      0.000      0.006      0.069      0.000      1.000      0.737
  4531.400      0.071    -999.25      0.000      0.006      0.071      0.000      1.000      0.749
  4531.500      0.071    -999.25      0.000      0.006      0.071      0.000      1.000      0.757
  4531.600      0.071    -999.25      0.000      0.007      0.071      0.000      1.000      0.735
  4531.700      0.071    -999.25      0.000      0.007      0.071      0.000      1.000      0.709
  4531.800      0.071    -999.25      0.000      0.007      0.071      0.000      1.000      0.722
  4531.900      0.073    -999.25      0.000      0.008      0.073      0.000      1.000      0.713
  4532.000      0.074    -999.25      0.000      0.009      0.074      0.000      1.000      0.704
  4532.100      0.076    -999.25      0.000      0.011      0.076      0.000      1.000      0.691
  4532.200      0.077    -999.25      0.000      0.012      0.077      0.000      1.000      0.694
  4532.300      0.077    -999.25      0.000      0.013      0.077      0.000      1.000      0.688
  4532.400      0.076    -999.25      0.000      0.012      0.076      0.000      1.000      0.684
  4532.500      0.074    -999.25      0.000      0.011      0.074      0.000      1.000      0.660
  4532.600      0.073    -999.25      0.000      0.010      0.073      0.000      1.000      0.657
  4532.700      0.073    -999.25      0.000      0.011      0.073      0.000      1.000      0.639
  4532.800      0.072    -999.25      0.000      0.011      0.072      0.000      1.000      0.639
  4532.900      0.072    -999.25      0.000      0.009      0.072      0.000      1.000      0.666
  4533.000      0.071    -999.25      0.000      0.011      0.071      0.000      1.000      0.627
  4533.100      0.071    -999.25      0.000      0.011      0.071      0.000      1.000      0.614
  4533.200      0.072    -999.25      0.000      0.012      0.072      0.000      1.000      0.612
  4533.300      0.074    -999.25      0.000      0.014      0.074      0.000      1.000      0.608
  4533.400      0.076    -999.25      0.000      0.017      0.076      0.000      1.000      0.596
  4533.500      0.078    -999.25      0.000      0.018      0.078      0.000      1.000      0.617
  4533.600      0.080    -999.25      0.000      0.020      0.080      0.000      1.000      0.623
  4533.700      0.081    -999.25      0.000      0.023      0.081      0.000      1.000      0.612
  4533.800      0.080    -999.25      0.000      0.025      0.080      0.000      1.000      0.588
  4533.900      0.077    -999.25      0.000      0.022      0.077      0.000      1.000      0.560
  4534.000      0.070    -999.25      0.000      0.014      0.070      0.000      1.000      0.544
  4534.100      0.060    -999.25      0.000      0.007      0.060      0.000      1.000      0.532
  4534.200      0.051    -999.25      0.000      0.004      0.051      0.000      1.000      0.522
  4534.300      0.045    -999.25      0.000      0.002      0.045      0.000      1.000      0.514
  4534.400      0.044    -999.25      0.000      0.002      0.044      0.000      1.000      0.540
  4534.500      0.047    -999.25      0.000      0.002      0.047      0.000      1.000      0.560
  4534.600      0.052    -999.25      0.000      0.003      0.052      0.000      1.000      0.582
  4534.700      0.056    -999.25      0.000      0.004      0.056      0.000      1.000      0.597
  4534.800      0.058    -999.25      0.000      0.004      0.058      0.000      1.000      0.601
  4534.900      0.060    -999.25      0.000      0.005      0.060    -999.25      1.000      0.599
  4535.000      0.061    -999.25      0.000      0.005      0.061    -999.25      1.000      0.608
  4535.100      0.062    -999.25      0.000      0.006      0.062    -999.25      1.000      0.610
  4535.200      0.061    -999.25      0.000      0.005      0.061    -999.25      1.000      0.628
  4535.300      0.059    -999.25      0.000      0.004      0.059    -999.25      1.000      0.649
  4535.400      0.060    -999.25      0.000      0.005      0.060    -999.25      1.000      0.633
  4535.500      0.068    -999.25      0.000      0.005      0.068    -999.25      1.000      0.591
  4535.600      0.082    -999.25      0.000      0.005      0.082    -999.25      1.000      0.543
  4535.700      0.099    -999.25      0.000      0.005      0.099    -999.25      1.000      0.516
  4535.800      0.113    -999.25      0.000      0.005      0.113    -999.25      1.000      0.478
  4535.900      0.124    -999.25      0.000      0.005      0.124    -999.25      1.000      0.463
  4536.000      0.132    -999.25      0.000      0.005      0.132    -999.25      1.000      0.460
  4536.100      0.138    -999.25      0.000      0.005      0.138    -999.25      1.000      0.458
  4536.200      0.142    -999.25      0.000      0.005      0.142    -999.25      1.000      0.438
  4536.300      0.142    -999.25      0.000      0.005      0.142    -999.25      1.000      0.408
  4536.400    -999.25    -999.25      0.000    -999.25    -999.25    -999.25    -999.25      0.385
  4536.500    -999.25    -999.25      0.000    -999.25    -999.25    -999.25    -999.25      0.374
  4536.600    -999.25    -999.25      0.000    -999.25    -999.25    -999.25    -999.25      0.368
  4536.700    -999.25    -999.25      0.000    -999.25    -999.25    -999.25    -999.25      0.363
  4536.800    -999.25    -999.25      0.000    -999.25    -999.25    -999.25    -999.25      0.367
  4536.900    -999.25    -999.25      0.000    -999.25    -999.25    -999.25    -999.25      0.360
  4537.000    -999.25    -999.25      0.000    -999.25    -999.25    -999.25    -999.25      0.342
  4537.100    -999.25    -999.25      0.000    -999.25    -999.25    -999.25    -999.25      0.336
