~Version Information
VERS.                     2.0: CWLS log ASCII Standard Version 2.00
WRAP.                      NO: One line per depth step

~Well Information Block
#MNEM.UNIT                 Value                       Information
#------------              -----                       -----------
STRT.M                   3358.0000                    :START
STOP.M                   3681.9000                    :STOP
STEP.M                      0.1000                    :STEP
NULL.                     -999.25                     :NULL VALUE
COMP.         Statoil Petroleum AS                    :Company
WELL.         15/9-F-1 A                              :Well
FLD .         VOLVE                                   :Field
LOC .         Maersk Inspirer                         :Location
PROV.                                                 :Province
CNTY.         Unused                                  :County
STATE.                                                 :State
CTRY.                                                 :Country
DATE.                                                 :Log Date
SRVC.                                                 :Service Company
UWI .                                                 :Unique Well Identifier
API .                                                 :API Number
LATI.         058 26' 29.907" N    DMS                :Latitude
LONG.         001 53' 14.708" E    DMS                :Longtitude
PD  .         MSL                                     :Permanent Datum
ELZ .M                 0.0000                         :Elev. Log Zero

~Curve Information
#MNEM   .UNIT             API CODE Curve Description
#------------             -------- -----------------
DEPTH   .M            00 001 00 00:   0  Depth
BVW     .V/V          00 000 00 00:   1  Bound Volume Water
COAL_FLAG.unitless    00 000 00 00:   2  Coal Flag
KLOGH   .mD           00 000 00 00:   3  Calculated Horizontal PERMEABILITY from logs
PHIF    .V/V          00 000 00 00:   4  Final porosity
SAND_FLAG.unitless    00 000 00 00:   5  Sand Flag
SW      .V/V          00 000 00 00:   6  Water Saturation (Archie)
VCARB   .V/V          00 000 00 00:   7  IFC(CARB_FLAG>0.5,1-VSH, VCARB)
VSH     .V/V          00 000 00 00:   8  Volume of Shale

~Parameter Information
#MNEM.UNIT       Value           Description
#------------    -----           -----------
HLD .         Terms and Conditions.:Header Legal Disclaimer
RUN .         1                 :Run number

~Other Information
PETROPHYSICAL INTERPRETATION: OUTPUT

# --- LOG MNEMONICS AND UNITS ---
#Depth          BVW             COAL_FLAG       KLOGH           PHIF            SAND_FLAG       SW              VCARB           VSH            
#M              V/V             unitless        mD              V/V             unitless        V/V             V/V             V/V            

~A
# ...
      3453.2000          0.0954          0.0000          0.6871          0.1315          1.0000          0.7249          0.0000          0.3573
      3453.3000          0.0840          0.0000          0.6324          0.1363          1.0000          0.6162          0.0000          0.3655
      3453.4000          0.0848          0.0000          0.4147          0.1385          1.0000          0.6127          0.0000          0.3878
      3453.5000          0.0900          0.0000          0.2228          0.1355          1.0000          0.6644          0.0000          0.4151
      3453.6000          0.0915          0.0000          0.1077          0.1278          1.0000          0.7155          0.0000          0.4434
      3453.7000          0.0906          0.0000          0.0474          0.1171          1.0000          0.7736          0.0000          0.4735
      3453.8000          0.0891          0.0000          0.0129          0.1047          0.0000          0.8502          0.0000          0.5251
      3453.9000          0.0871          0.0000          0.0025          0.0917          0.0000          0.9502          0.0000          0.5930
      3454.0000          0.0801          0.0000          0.0010          0.0801          0.0000          1.0000          0.0000          0.6518
      3454.1000          0.0712          0.0000          0.0010          0.0712          0.0000          1.0000          0.0000          0.6635
      3454.2000          0.0611          0.0000          0.0010          0.0675          0.0000          0.9054          0.0000          0.6350
      3454.3000          0.0597          0.0000          0.0021          0.0718          0.0000          0.8315          0.0000          0.5832
      3454.4000          0.0867          0.0000          0.0214          0.0867          0.0000          1.0000          0.0000          0.4848
      3454.5000          0.1091          0.0000          0.2878          0.1091          1.0000          1.0000          0.0000          0.3793
      3454.6000          0.1337          0.0000          4.1231          0.1337          1.0000          1.0000          0.0000          0.2727
      3454.7000          0.1554          0.0000         47.1559          0.1554          1.0000          1.0000          0.0000          0.1744
      3454.8000          0.1739          0.0000        266.6113          0.1739          1.0000          1.0000          0.0000          0.1072
      3454.9000          0.1906          0.0000        795.9888          0.1906          1.0000          1.0000          0.0000          0.0693
      3455.0000          0.2049          0.0000       1871.4832          0.2049          1.0000          1.0000          0.0000          0.0408
      3455.1000          0.2157          0.0000       3042.6882          0.2157          1.0000          1.0000          0.0000          0.0269
      3455.2000          0.2231          0.0000       3798.5842          0.2231          1.0000          1.0000          0.0000          0.0228
      3455.3000          0.2287          0.0000       4771.4424          0.2287          1.0000          1.0000          0.0000          0.0168
      3455.4000          0.2321          0.0000       4960.2134          0.2321          1.0000          1.0000          0.0000          0.0179
      3455.5000          0.2329          0.0000       5415.6465          0.2329          1.0000          1.0000          0.0000          0.0144
      3455.6000          0.2317          0.0000       5724.1982          0.2317          1.0000          1.0000          0.0000          0.0107
      3455.7000          0.2295          0.0000       4579.5317          0.2295          1.0000          1.0000          0.0000          0.0195
      3455.8000          0.2273          0.0000       4030.0183          0.2273          1.0000          1.0000          0.0000          0.0236
      3455.9000          0.2251          0.0000       3871.7510          0.2251          1.0000          1.0000          0.0000          0.0236
      3456.0000          0.2229          0.0000       4109.8706          0.2229          1.0000          1.0000          0.0000          0.0188
      3456.1000          0.2210          0.0000       3438.8003          0.2210          1.0000          1.0000          0.0000          0.0258
      3456.2000          0.2194          0.0000       3686.7458          0.2194          1.0000          1.0000          0.0000          0.0209
      3456.3000          0.2183          0.0000       2994.5295          0.2183          1.0000          1.0000          0.0000          0.0300
      3456.4000          0.2186          0.0000       2948.9795          0.2186          1.0000          1.0000          0.0000          0.0310
      3456.5000          0.2202          0.0000       3088.0618          0.2202          1.0000          1.0000          0.0000          0.0302
      3456.6000          0.2226          0.0000       2885.7854          0.2226          1.0000          1.0000          0.0000          0.0356
      3456.7000          0.2251          0.0000       2730.8206          0.2251          1.0000          1.0000          0.0000          0.0405
      3456.8000          0.2277          0.0000       2932.1021          0.2277          1.0000          1.0000          0.0000          0.0394
      3456.9000          0.2302          0.0000       3228.1184          0.2302          1.0000          1.0000          0.0000          0.0370
      3457.0000          0.2314          0.0000       2789.9307          0.2314          1.0000          1.0000          0.0000          0.0451
      3457.1000          0.2303          0.0000       2453.8618          0.2303          1.0000          1.0000          0.0000          0.0503
      3457.2000          0.2270          0.0000       2347.2747          0.2270          1.0000          1.0000          0.0000          0.0495
      3457.3000          0.2229          0.0000       2296.6775          0.2229          1.0000          1.0000          0.0000          0.0469
      3457.4000          0.2180          0.0000       1852.8594          0.2180          1.0000          1.0000          0.0000          0.0529
      3457.5000          0.2125          0.0000       1689.2733          0.2125          1.0000          1.0000          0.0000          0.0525
      3457.6000          0.2066          0.0000       1174.1837          0.2066          1.0000          1.0000          0.0000          0.0648
      3457.7000          0.2006          0.0000        627.5737          0.2006          1.0000          1.0000          0.0000          0.0897
      3457.8000          0.1942          0.0000        180.2275          0.1942          1.0000          1.0000          0.0000          0.1442
      3457.9000          0.1863          0.0000         48.8894          0.1863          1.0000          1.0000          0.0000          0.2002
      3458.0000          0.1782          0.0000         40.0794          0.1782          1.0000          1.0000          0.0000          0.2025
      3458.1000          0.1723          0.0000         51.9021          0.1723          1.0000          1.0000          0.0000          0.1848
      3458.2000          0.1703          0.0000        100.3079          0.1703          1.0000          1.0000          0.0000          0.1513
      3458.3000          0.1416          0.0000        116.0303          0.1707          1.0000          0.8299          0.0000          0.1445
      3458.4000          0.1178          0.0000         77.0892          0.1702          1.0000          0.6918          0.0000          0.1639
      3458.5000          0.0940          0.0000         39.3343          0.1685          1.0000          0.5580          0.0000          0.1948
      3458.6000          0.0806          0.0000         17.0356          0.1676          1.0000          0.4807          0.0000          0.2344
      3458.7000          0.0751          0.0000         22.5031          0.1681          1.0000          0.4471          0.0000          0.2214
