~Version Information
VERS.                     2.0: CWLS log ASCII Standard Version 2.00
WRAP.                      NO: One line per depth step

~Well Information Block
#MNEM.UNIT                 Value                       Information
#------------              -----                       -----------
STRT.M                   3271.0000                    :START
STOP.M                   3631.9000                    :STOP
STEP.M                      0.1000                    :STEP
NULL.                     -999.25                     :NULL VALUE
COMP.         Statoil Petroleum                       :Company
WELL.         15/9-F-1                                :Well
FLD .         VOLVE                                   :Field
LOC .         Maersk Inspirer                         :Location
PROV.                                                 :Province
CNTY.                                                 :County
STATE.                                                 :State
CTRY.                                                 :Country
DATE.                                                 :Log Date
SRVC.                                                 :Service Company
UWI .                                                 :Unique Well Identifier
API .                                                 :API Number
LATI.         058 26' 29.907" N    DMS                :Latitude
LONG.         001 53' 14.708" E    DMS                :Longtitude
PD  .         MSL                                     :Permanent Datum
ELZ .M                 0.0000                         :Elev. Log Zero

~Curve Information
#MNEM   .UNIT             API CODE Curve Description
#------------             -------- -----------------
DEPTH   .M            00 001 00 00:   0  Depth
BVW     .V/V          00 000 00 00:   1  Bound Volume Water
COAL_FLAG.unitless    00 000 00 00:   2  Coal Flag
KLOGH   .MD           00 000 00 00:   3  Calculated Horizontal PERMEABILITY from logs
PHIF    .V/V          00 000 00 00:   4  Final porosity
SAND_FLAG.unitless    00 000 00 00:   5  Sand Flag
SW      .V/V          00 000 00 00:   6  Water Saturation (Archie)
VCARB   .V/V          00 000 00 00:   7  Volume of calcite; dolomite and siderite from log analysis; repo
VSH     .V/V          00 000 00 00:   8  (GR-15)/(250-15)

~Parameter Information
#MNEM.UNIT       Value           Description
#------------    -----           -----------
HLD .         Terms and Conditions.:Header Legal Disclaimer
RUN .         1                 :Run number

~Other Information
PETROPHYSICAL INTERPRETATION: OUTPUT

# --- LOG MNEMONICS AND UNITS ---
#Depth          BVW             COAL_FLAG       KLOGH           PHIF            SAND_FLAG       SW              VCARB           VSH            
#M              V/V             unitless        MD              V/V             unitless        V/V             V/V             V/V            

~A
# ...
      3584.6000          0.0334          0.0000          0.0010          0.0334          0.0000          1.0000          0.0000          0.7032
      3584.7000          0.0338          0.0000          0.0010          0.0338          0.0000          1.0000          0.0000          0.6862
      3584.8000          0.0330          0.0000          0.0010          0.0330          0.0000          1.0000          0.0000          0.6826
      3584.9000          0.0316          0.0000          0.0010          0.0316          0.0000          1.0000          0.0000          0.6953
      3585.0000          0.0303          0.0000          0.0010          0.0303          0.0000          1.0000          0.0000          0.6729
      3585.1000          0.0285          0.0000          0.0010          0.0285          0.0000          1.0000          0.0000          0.6465
      3585.2000          0.0263          0.0000          0.0010          0.0263          0.0000          1.0000          0.0000          0.6350
      3585.3000          0.0248          0.0000          0.0010          0.0248          0.0000          1.0000          0.0000          0.6528
      3585.4000          0.0257          0.0000          0.0010          0.0257          0.0000          1.0000          0.0000          0.6739
      3585.5000          0.0294          0.0000          0.0010          0.0294          0.0000          1.0000          0.0000          0.6868
      3585.6000          0.0343          0.0000          0.0010          0.0343          0.0000          1.0000          0.0000          0.7205
      3585.7000          0.0375          0.0000          0.0010          0.0375          0.0000          1.0000          0.0000          0.7340
      3585.8000          0.0374          0.0000          0.0010          0.0374          0.0000          1.0000          0.0000          0.7332
      3585.9000          0.0350          0.0000          0.0010          0.0350          0.0000          1.0000          0.0000          0.7201
      3586.0000          0.0323          0.0000          0.0010          0.0323          0.0000          1.0000          0.0000          0.7070
      3586.1000          0.0308          0.0000          0.0010          0.0308          0.0000          1.0000          0.0000          0.7220
      3586.2000          0.0302          0.0000          0.0010          0.0302          0.0000          1.0000          0.0000          0.7415
      3586.3000          0.0298          0.0000          0.0010          0.0298          0.0000          1.0000          0.0000          0.7427
      3586.4000          0.0289          0.0000          0.0010          0.0289          0.0000          1.0000          0.0000          0.7451
      3586.5000          0.0280          0.0000          0.0010          0.0280          0.0000          1.0000          0.0000          0.7101
      3586.6000          0.0273          0.0000          0.0010          0.0273          0.0000          1.0000          0.0000          0.6950
      3586.7000          0.0274          0.0000          0.0010          0.0274          0.0000          1.0000          0.0000          0.6912
      3586.8000          0.0289          0.0000          0.0010          0.0289          0.0000          1.0000          0.0000          0.7111
      3586.9000          0.0311          0.0000          0.0010          0.0311          0.0000          1.0000          0.0000          0.7258
      3587.0000          0.0326          0.0000          0.0010          0.0326          0.0000          1.0000          0.0000          0.7567
      3587.1000          0.0324          0.0000          0.0010          0.0324          0.0000          1.0000          0.0000          0.7702
      3587.2000          0.0311          0.0000          0.0010          0.0311          0.0000          1.0000          0.0000          0.7517
      3587.3000          0.0302          0.0000          0.0010          0.0302          0.0000          1.0000          0.0000          0.7118
      3587.4000          0.0310          0.0000          0.0010          0.0310          0.0000          1.0000          0.0000          0.6624
      3587.5000          0.0331          0.0000          0.0010          0.0331          0.0000          1.0000          0.0000          0.6389
      3587.6000          0.0355          0.0000          0.0010          0.0355          0.0000          1.0000          0.0000          0.6193
      3587.7000          0.0372          0.0000          0.0010          0.0372          0.0000          1.0000          0.0000          0.6134
      3587.8000          0.0373          0.0000          0.0010          0.0373          0.0000          1.0000          0.0000          0.6053
      3587.9000          0.0349          0.0000          0.0011          0.0349          0.0000          1.0000          0.0000          0.5745
      3588.0000          0.0302          0.0000          0.0010          0.0302          0.0000          1.0000          0.0000          0.6042
      3588.1000          0.0257          0.0000          0.0010          0.0257          0.0000          1.0000          0.0000          0.7014
      3588.2000          0.0235          0.0000          0.0010          0.0235          0.0000          1.0000          0.0000          0.7292
      3588.3000          0.0240          0.0000          0.0010          0.0240          0.0000          1.0000          0.0000          0.7428
      3588.4000          0.0258          0.0000          0.0010          0.0258          0.0000          1.0000          0.0000          0.7458
      3588.5000          0.0273          0.0000          0.0010          0.0273          0.0000          1.0000          0.0000          0.7323
      3588.6000          0.0276          0.0000          0.0010          0.0276          0.0000          1.0000          0.0000          0.7319
      3588.7000          0.0270          0.0000          0.0010          0.0270          0.0000          1.0000          0.0000          0.7346
      3588.8000          0.0258          0.0000          0.0010          0.0258          0.0000          1.0000          0.0000          0.7608
      3588.9000          0.0253          0.0000          0.0010          0.0253          0.0000          1.0000          0.0000          0.7877
      3589.0000          0.0258          0.0000          0.0010          0.0258          0.0000          1.0000          0.0000          0.7818
      3589.1000          0.0275          0.0000          0.0010          0.0275          0.0000          1.0000          0.0000          0.7887
      3589.2000          0.0289          0.0000          0.0010          0.0289          0.0000          1.0000          0.0000          0.7935
      3589.3000          0.0287          0.0000          0.0010          0.0287          0.0000          1.0000          0.0000          0.7979
      3589.4000          0.0277          0.0000          0.0010          0.0277          0.0000          1.0000          0.0000          0.8472
      3589.5000          0.0267          0.0000          0.0010          0.0267          0.0000          1.0000          0.0000          0.8655
      3589.6000          0.0266          0.0000          0.0010          0.0266          0.0000          1.0000          0.0000          0.8459
      3589.7000          0.0266          0.0000          0.0010          0.0266          0.0000          1.0000          0.0000          0.8171
      3589.8000          0.0259          0.0000          0.0010          0.0259          0.0000          1.0000          0.0000          0.7740
      3589.9000          0.0255          0.0000          0.0010          0.0255          0.0000          1.0000          0.0000          0.7683
      3590.0000          0.0265          0.0000          0.0010          0.0265          0.0000          1.0000          0.0000          0.7883
      3590.1000          0.0290          0.0000          0.0010          0.0290          0.0000          1.0000          0.0000          0.8022
