~Version Information
VERS.                     2.0: CWLS log ASCII Standard Version 2.00
WRAP.                      NO: One line per depth step

~Well Information Block
#MNEM.UNIT                 Value                       Information
#------------              -----                       -----------
STRT.M                   3465.0000                    :START
STOP.M                   4684.7000                    :STOP
STEP.M                      0.1000                    :STEP
NULL.                     -999.25                     :NULL VALUE
COMP.         STATOIL PETROLEUM AS                    :Company
WELL.         15/9-F-15 D                             :Well
FLD .         VOLVE                                   :Field
LOC .                                                 :Location
PROV.                                                 :Province
CNTY.         MAERSK INSPIRER                         :County
STATE.                                                 :State
CTRY.         NORWAY                                  :Country
DATE.                                                 :Log Date
SRVC.                                                 :Service Company
UWI .                                                 :Unique Well Identifier
API .                                                 :API Number
LATI.         058 26' 29.706" N    DMS                :Latitude
LONG.         001 53' 15.149" E    DMS                :Longtitude
PD  .         MSL                                     :Permanent Datum
EDF .M                54.9000                         :Elevations D.F.
EGL .M               -91.0000                         :Elevations G.L.
ELZ .M                54.9000                         :Elev. Log Zero
LMF .         DF                                      :Log Measured From
MP  .         DF                                      :Drill Measured From

~Curve Information
#MNEM   .UNIT             API CODE Curve Description
#------------             -------- -----------------
DEPTH   .M            00 001 00 00:   0  Depth
BVW     .v/v          00 000 00 00:   1  BVW:CPI:rC:0001:v1
COAL_FLAG.unitless    00 000 00 00:   2  COAL_FLAG:CPI:rC:0001:v1
KLOGH   .mD           00 000 00 00:   3  KLOGH:CPI:rC:0001:v1
PHIF    .v/v          00 000 00 00:   4  PHIF:CPI:rC:0001:v1
SAND_FLAG.unitless    00 000 00 00:   5  SAND_FLAG:CPI:rC:0001:v1
SW      .v/v          00 000 00 00:   6  SW:CPI:rC:0001:v1
VCARB   .v/v          00 000 00 00:   7  VCARB:CPI:rC:0001:v1
VSH     .v/v          00 000 00 00:   8  VSH:CPI:rC:0001:v1

~Parameter Information
#MNEM.UNIT       Value           Description
#------------    -----           -----------
RUN .         .                 :Run Number

~Other Information
PETROPHYSICAL INTERPRETATION: OUTPUT

# --- LOG MNEMONICS AND UNITS ---
#Depth          BVW             COAL_FLAG       KLOGH           PHIF            SAND_FLAG       SW              VCARB           VSH            
#M              v/v             unitless        mD              v/v             unitless        v/v             v/v             v/v            

~A
# ...
      3862.6000          0.0558          0.0000          0.0811          0.0558          0.0000          1.0000          0.0724          0.3930
      3862.7000          0.0549          0.0000          0.1065          0.0549          0.0000          1.0000          0.0887          0.3791
      3862.8000          0.0557          0.0000          0.1199          0.0557          0.0000          1.0000          0.0914          0.3741
      3862.9000          0.0563          0.0000          0.2114          0.0587          0.0000          0.9589          0.1080          0.3494
      3863.0000          0.0557          0.0000          0.1817          0.0617          0.0000          0.9020          0.0882          0.3594
      3863.1000          0.0557          0.0000          0.1092          0.0620          0.0000          0.8977          0.0630          0.3842
      3863.2000          0.0549          0.0000          0.0526          0.0587          0.0000          0.9352          0.0430          0.4165
      3863.3000          0.0530          0.0000          0.0747          0.0535          0.0000          0.9899          0.0771          0.3950
      3863.4000          0.0487          0.0000          0.0912          0.0487          0.0000          1.0000          0.1055          0.3811
      3863.5000          0.0455          0.0000          0.0868          0.0455          0.0000          1.0000          0.1155          0.3806
      3863.6000          0.0445          0.0000          0.0869          0.0445          0.0000          1.0000          0.1199          0.3796
      3863.7000          0.0455          0.0000          0.0881          0.0455          0.0000          1.0000          0.1165          0.3799
      3863.8000          0.0483          0.0000          0.0942          0.0483          0.0000          1.0000          0.1085          0.3792
      3863.9000          0.0517          0.0000          0.0996          0.0517          0.0000          1.0000          0.0979          0.3795
      3864.0000          0.0539          0.0000          0.1008          0.0539          0.0000          0.9990          0.0898          0.3809
      3864.1000          0.0531          0.0000          0.1465          0.0539          0.0000          0.9850          0.1087          0.3628
      3864.2000          0.0516          0.0000          0.1636          0.0522          0.0000          0.9885          0.1212          0.3560
      3864.3000          0.0507          0.0000          0.1867          0.0507          0.0000          1.0000          0.1345          0.3483
      3864.4000          0.0509          0.0000          0.1490          0.0509          0.0000          1.0000          0.1217          0.3594
      3864.5000          0.0521          0.0000          0.0763          0.0521          0.0000          1.0000          0.0837          0.3927
      3864.6000          0.0523          0.0000          0.0666          0.0523          0.0000          1.0000          0.0765          0.3994
      3864.7000          0.0507          0.0000          0.0569          0.0507          0.0000          1.0000          0.0751          0.4056
      3864.8000          0.0484          0.0000          0.0556          0.0484          0.0000          1.0000          0.0826          0.4047
      3864.9000          0.0467          0.0000          0.0459          0.0467          0.0000          1.0000          0.0800          0.4125
      3865.0000          0.0460          0.0000          0.0393          0.0460          0.0000          1.0000          0.0754          0.4193
      3865.1000          0.0458          0.0000          0.0356          0.0458          0.0000          1.0000          0.0718          0.4239
      3865.2000          0.0454          0.0000          0.0457          0.0454          0.0000          1.0000          0.0847          0.4115
      3865.3000          0.0443          0.0000          0.0523          0.0443          0.0000          1.0000          0.0952          0.4040
      3865.4000          0.0422          0.0000          0.0499          0.0422          0.0000          1.0000          0.1011          0.4044
      3865.5000          0.0387          0.0000          0.0193          0.0387          0.0000          1.0000          0.0697          0.4471
      3865.6000          0.0354          0.0000          0.0168          0.0354          0.0000          1.0000          0.0754          0.4509
      3865.7000          0.0338          0.0000          0.0185          0.0338          0.0000          1.0000          0.0854          0.4448
      3865.8000          0.0352          0.0000          0.0177          0.0352          0.0000          1.0000          0.0784          0.4482
      3865.9000          0.0389          0.0000          0.0238          0.0389          0.0000          1.0000          0.0784          0.4372
      3866.0000          0.0436          0.0000          0.0379          0.0436          0.0000          1.0000          0.0826          0.4189
      3866.1000          0.0481          0.0000          0.0266          0.0481          0.0000          1.0000          0.0511          0.4400
      3866.2000          0.0521          0.0000          0.0297          0.0521          0.0000          1.0000          0.0421          0.4381
      3866.3000          0.0555          0.0000          0.0383          0.0555          0.0000          1.0000          0.0406          0.4291
      3866.4000          0.0592          0.0000          0.0342          0.0592          0.0000          1.0000          0.0238          0.4378
      3866.5000          0.0629          0.0000          0.0558          0.0634          0.0000          0.9923          0.0293          0.4178
      3866.6000          0.0639          0.0000          0.0706          0.0683          0.0000          0.9356          0.0220          0.4109
      3866.7000          0.0662          0.0000          0.0576          0.0726          0.0000          0.9113          0.0001          0.4245
      3866.8000          0.0727          0.0000          0.0798          0.0750          0.0000          0.9692          0.0044          0.4109
      3866.9000          0.0735          0.0000          0.0808          0.0761          0.0000          0.9658          0.0015          0.4112
      3867.0000          0.0722          0.0000          0.0484          0.0777          0.0000          0.9292          0.0000          0.4374
      3867.1000          0.0655          0.0000          0.0395          0.0801          0.0000          0.8179          0.0000          0.4494
      3867.2000          0.0617          0.0000          0.0316          0.0805          0.0000          0.7673          0.0000          0.4604
      3867.3000          0.0578          0.0000          0.0344          0.0769          0.0000          0.7517          0.0000          0.4532
      3867.4000          0.0559          0.0000          0.0418          0.0706          0.0000          0.7926          0.0000          0.4382
      3867.5000          0.0550          0.0000          0.0322          0.0647          0.0000          0.8489          0.0038          0.4456
      3867.6000          0.0490          0.0000          0.0339          0.0605          0.0000          0.8105          0.0192          0.4394
      3867.7000          0.0364          0.0000          0.0390          0.0574          0.0000          0.6347          0.0352          0.4297
      3867.8000          0.0444          0.0000          0.0334          0.0550          0.0000          0.8079          0.0369          0.4352
      3867.9000          0.0447          0.0000          0.0393          0.0541          0.0000          0.8253          0.0466          0.4265
      3868.0000          0.0397          0.0000          0.0371          0.0551          0.0000          0.7205          0.0407          0.4302
      3868.1000          0.0365          0.0000          0.0352          0.0570          0.0000          0.6396          0.0321          0.4344
