~Version Information
VERS.                     2.0: CWLS log ASCII Standard Version 2.00
WRAP.                      NO: One line per depth step

~Well Information Block
#MNEM.UNIT                 Value                       Information
#------------              -----                       -----------
STRT.M                    3575.000                    :START
STOP.M                    3761.800                    :STOP
STEP.M                       0.100                    :STEP
NULL.                     -999.25                     :NULL VALUE
COMP.         Statoil Petroleum AS                    :Company
WELL.         15/9-F-11 A                             :Well
FLD .         VOLVE                                   :Field
LOC .         Maersk Inspirer                         :Location
PROV.                                                 :Province
CNTY.                                                 :County
STATE.                                                 :State
CTRY.         Norway                                  :Country
DATE.                                                 :Log Date
SRVC.                                                 :Service Company
UWI .                                                 :Unique Well Identifier
API .                                                 :API Number
LATI.         058 26' 29.956" N    DMS                :Latitude
LONG.         001 53' 14.866" E    DMS                :Longtitude
PD  .         MSL                                     :Permanent Datum
EDF .M            54.900                              :Elevations D.F.
EGL .M           -91.000                              :Elevations G.L.
ELZ .M            54.900                              :Elev. Log Zero
LMF .         DF                                      :Log Measured From

~Curve Information
#MNEM   .UNIT             API CODE Curve Description
#------------             -------- -----------------
DEPTH   .M            00 001 00 00:   0  Depth
BVW     .v/v          00 000 00 00:   1  BVW:CPI:rC:NONE:v1
CARB_FLAG.UNKNOWN     00 000 00 00:   2  CARB_FLAG:CPI:rC:NONE:v1
COAL_FLAG.UNKNOWN     00 000 00 00:   3  COAL_FLAG:CPI:rC:NONE:v1
KLOGH   .mD           00 000 00 00:   4  KLOGH:CPI:rC:NONE:v1
PHIF    .v/v          00 000 00 00:   5  PHIF:CPI:rC:NONE:v1
SAND_FLAG.UNKNOWN     00 000 00 00:   6  SAND_FLAG:CPI:rC:NONE:v1
SW      .v/v          00 000 00 00:   7  SW:CPI:rC:NONE:v1
VSH     .v/v          00 000 00 00:   8  VSH:CPI:rC:NONE:v1

~Parameter Information
#MNEM.UNIT       Value           Description
#------------    -----           -----------
RUN .         1                 :Run number

~Other Information
PETROPHYSICAL_INTERPRETATION: OUTPUT

# --- LOG MNEMONICS AND UNITS ---
#Depth     BVW        CARB_FLAG  COAL_FLAG  KLOGH      PHIF       SAND_FLAG  SW         VSH       
#M         v/v        UNKNOWN    UNKNOWN    mD         v/v        UNKNOWN    v/v        v/v       

~A
# ...
  3647.900      0.013      0.000      0.000    512.738      0.128      1.000      0.101      0.035
  3648.000      0.013      0.000      0.000    732.640      0.142      1.000      0.092      0.031
  3648.100      0.014      0.000      0.000    972.308      0.155      1.000      0.087      0.028
  3648.200      0.014      0.000      0.000   1167.076      0.165      1.000      0.083      0.028
  3648.300      0.014      0.000      0.000   1431.799      0.171      1.000      0.081      0.024
  3648.400      0.014      0.000      0.000   1644.097      0.175      1.000      0.080      0.021
  3648.500      0.014      0.000      0.000   1582.573      0.175      1.000      0.080      0.022
  3648.600      0.014      0.000      0.000   1322.463      0.167      1.000      0.083      0.024
  3648.700      0.014      0.000      0.000    971.611      0.154      1.000      0.089      0.027
  3648.800      0.014      0.000      0.000    787.293      0.143      1.000      0.098      0.028
  3648.900      0.014      0.000      0.000    828.206      0.140      1.000      0.102      0.023
  3649.000      0.015      0.000      0.000    889.356      0.143      1.000      0.102      0.021
  3649.100      0.015      0.000      0.000    898.000      0.144      1.000      0.103      0.022
  3649.200      0.015      0.000      0.000    766.793      0.141      1.000      0.104      0.027
  3649.300      0.015      0.000      0.000    887.149      0.140      1.000      0.105      0.019
  3649.400      0.015      0.000      0.000   1135.186      0.146      1.000      0.101      0.012
  3649.500      0.015      0.000      0.000   1314.138      0.159      1.000      0.094      0.017
  3649.600      0.015      0.000      0.000   1599.365      0.174      1.000      0.088      0.021
  3649.700      0.015      0.000      0.000   1874.461      0.186      1.000      0.083      0.024
  3649.800      0.015      0.000      0.000   2110.206      0.192      1.000      0.080      0.024
  3649.900      0.015      0.000      0.000   1924.654      0.188      1.000      0.082      0.024
  3650.000      0.015      0.000      0.000   1613.818      0.172      1.000      0.087      0.019
  3650.100      0.014      0.000      0.000   1102.263      0.155      1.000      0.094      0.022
  3650.200      0.014      0.000      0.000   1093.922      0.148      1.000      0.097      0.016
  3650.300      0.015      0.000      0.000   1207.413      0.158      1.000      0.093      0.020
  3650.400      0.015      0.000      0.000   1566.147      0.177      1.000      0.086      0.025
  3650.500      0.016      0.000      0.000   2150.255      0.195      1.000      0.081      0.025
  3650.600      0.016      0.000      0.000   2270.127      0.205      1.000      0.079      0.031
  3650.700      0.016      0.000      0.000   2466.382      0.207      1.000      0.079      0.030
  3650.800      0.016      0.000      0.000   2590.530      0.207      1.000      0.080      0.027
  3650.900      0.017      0.000      0.000   2818.911      0.206      1.000      0.082      0.022
  3651.000      0.017      0.000      0.000   2695.146      0.205      1.000      0.083      0.023
  3651.100      0.017      0.000      0.000   2484.645      0.204      1.000      0.084      0.026
  3651.200      0.017      0.000      0.000   2354.110      0.203      1.000      0.085      0.028
  3651.300      0.017      0.000      0.000   2195.174      0.202      1.000      0.086      0.031
  3651.400      0.017      0.000      0.000   2180.485      0.203      1.000      0.086      0.032
  3651.500      0.018      0.000      0.000   2408.259      0.202      1.000      0.087      0.026
  3651.600      0.018      0.000      0.000   2193.889      0.202      1.000      0.089      0.031
  3651.700      0.018      0.000      0.000   1885.530      0.200      1.000      0.091      0.036
  3651.800      0.019      0.000      0.000   1723.161      0.193      1.000      0.097      0.034
  3651.900      0.019      0.000      0.000   1223.199      0.177      1.000      0.106      0.036
  3652.000      0.019      0.000      0.000    745.208      0.153      1.000      0.121      0.039
  3652.100      0.018      0.000      0.000    441.330      0.122      1.000      0.147      0.037
  3652.200      0.017      1.000      0.000    250.341      0.094      0.000      0.185      0.039
  3652.300      0.016      1.000      0.000    129.445      0.069      0.000      0.238      0.049
  3652.400      0.015      1.000      0.000     73.042      0.052      0.000      0.298      0.062
  3652.500      0.015      1.000      0.000     45.460      0.043      0.000      0.353      0.077
  3652.600      0.017      1.000      0.000     34.743      0.043      0.000      0.389      0.089
  3652.700      0.019      1.000      0.000     21.709      0.051      0.000      0.361      0.119
  3652.800      0.021      1.000      0.000     16.443      0.065      0.000      0.321      0.145
  3652.900      0.024      1.000      0.000     18.608      0.084      0.000      0.283      0.156
  3653.000      0.027      1.000      0.000     17.600      0.105      0.000      0.256      0.177
  3653.100      0.030      0.000      0.000     22.078      0.126      1.000      0.235      0.185
  3653.200      0.032      0.000      0.000     21.573      0.145      1.000      0.220      0.203
  3653.300      0.035      0.000      0.000     20.947      0.158      1.000      0.219      0.216
  3653.400      0.038      0.000      0.000     22.082      0.165      1.000      0.228      0.220
  3653.500      0.042      0.000      0.000     19.318      0.164      1.000      0.259      0.225
  3653.600      0.046      0.000      0.000     19.587      0.155      1.000      0.299      0.216
  3653.700      0.048      0.000      0.000     14.885      0.138      1.000      0.350      0.214
  3653.800      0.049      0.000      0.000      7.170      0.113      1.000      0.434      0.227
  3653.900      0.048      1.000      0.000      5.008      0.085      0.000      0.561      0.220
  3654.000      0.044      1.000      0.000      3.446      0.059      0.000      0.754      0.215
  3654.100      0.038      1.000      0.000      2.416      0.038      0.000      1.000      0.213
  3654.200    -999.25      1.000      0.000    -999.25    -999.25      0.000    -999.25      0.199
  3654.300    -999.25      1.000      0.000    -999.25    -999.25      0.000    -999.25      0.199
  3654.400    -999.25      1.000      0.000    -999.25    -999.25      0.000    -999.25      0.195
  3654.500    -999.25      1.000      0.000    -999.25    -999.25      0.000    -999.25      0.197
  3654.600      0.011      1.000      0.000      2.462      0.011      0.000      1.000      0.188
  3654.700      0.032      1.000      0.000      4.700      0.032      0.000      1.000      0.176
  3654.800      0.055      1.000      0.000     14.469      0.089      0.000      0.614      0.172
  3654.900      0.062      1.000      0.000     18.856      0.112      0.000      0.554      0.180
  3655.000      0.067      0.000      0.000     24.030      0.137      1.000      0.487      0.190
  3655.100      0.069      0.000      0.000     31.762      0.159      1.000      0.437      0.196
  3655.200      0.071      0.000      0.000     36.300      0.176      1.000      0.405      0.205
  3655.300      0.072      0.000      0.000     45.675      0.186      1.000      0.386      0.203
  3655.400      0.072      0.000      0.000     40.775      0.191      1.000      0.379      0.213
  3655.500      0.073      0.000      0.000     38.431      0.194      1.000      0.377      0.218
  3655.600      0.073      0.000      0.000     39.937      0.196      1.000      0.374      0.218
  3655.700      0.073      0.000      0.000     47.219      0.198      1.000      0.370      0.213
  3655.800      0.073      0.000      0.000     46.551      0.201      1.000      0.366      0.215
  3655.900      0.074      0.000      0.000     40.573      0.202      1.000      0.365      0.223
