~Version Information
VERS.                     2.0: CWLS log ASCII Standard Version 2.00
WRAP.                      NO: One line per depth step

~Well Information Block
#MNEM.UNIT                 Value                       Information
#------------              -----                       -----------
STRT.M                   3204.0000                    :START
STOP.M                   3464.9000                    :STOP
STEP.M                      0.1000                    :STEP
NULL.                     -999.25                     :NULL VALUE
COMP.         Statoil Petroleum                       :Company
WELL.         15/9-F-1 B                              :Well
FLD .         VOLVE                                   :Field
LOC .         Maersk Inspirer                         :Location
PROV.                                                 :Province
CNTY.                                                 :County
STATE.                                                 :State
CTRY.                                                 :Country
DATE.                                                 :Log Date
SRVC.                                                 :Service Company
UWI .                                                 :Unique Well Identifier
API .                                                 :API Number
LATI.         058 26' 29.907" N    DMS                :Latitude
LONG.         001 53' 14.708" E    DMS                :Longtitude
PD  .         MSL                                     :Permanent Datum
ELZ .M                 0.0000                         :Elev. Log Zero

~Curve Information
#MNEM   .UNIT             API CODE Curve Description
#------------             -------- -----------------
DEPTH   .M            00 001 00 00:   0  Depth
BVW     .V/V          00 000 00 00:   1  Bulk Volume Water
CARB_FLAG.V/V         00 000 00 00:   2  Carbonate Flag
COAL_FLAG.UNITLESS    00 000 00 00:   3  Coal flag
KLOGH   .mD           00 000 00 00:   4  Calculated Horizontal PERMEABILITY from logs
PHIF    .V/V          00 000 00 00:   5  Final Porosity
SAND_FLAG.UNITLESS    00 000 00 00:   6  Sand Flag
SW      .V/V          00 000 00 00:   7  Water Saturation
VCARB   .V/V          00 000 00 00:   8  VCARB
VSH     .V/V          00 000 00 00:   9  Volume of Shale

~Parameter Information
#MNEM.UNIT       Value           Description
#------------    -----           -----------
HLD .         Terms and Conditions.:Header Legal Disclaimer
RUN .         1                 :Run number

~Other Information
PETROPHYSICAL INTERPRETATION: OUTPUT

# --- LOG MNEMONICS AND UNITS ---
#Depth          BVW             CARB_FLAG       COAL_FLAG       KLOGH           PHIF            SAND_FLAG       SW              VCARB           VSH            
#M              V/V             V/V             UNITLESS        mD              V/V             UNITLESS        V/V             V/V             V/V            

~A
# ...
      3364.0000          0.1528          0.0000          0.0000        592.0788          0.1959          1.0000          0.7801          0.0000          0.2480
      3364.1000          0.1572          0.0000          0.0000        558.1002          0.1943          1.0000          0.8089          0.0000          0.2352
      3364.2000          0.1660          0.0000          0.0000        681.4530          0.1960          1.0000          0.8469          0.0000          0.2193
      3364.3000          0.1764          0.0000          0.0000       1034.6674          0.2008          1.0000          0.8783          0.0000          0.2054
      3364.4000          0.1818          0.0000          0.0000       1501.6387          0.2057          1.0000          0.8838          0.0000          0.2031
      3364.5000          0.1789          0.0000          0.0000       1703.5818          0.2070          1.0000          0.8646          0.0000          0.1959
      3364.6000          0.1585          0.0000          0.0000       1216.0691          0.2025          1.0000          0.7831          0.0000          0.1968
      3364.7000          0.1400          0.0000          0.0000        557.6713          0.1913          1.0000          0.7319          0.0000          0.1878
      3364.8000          0.1416          0.0000          0.0000        191.2135          0.1763          1.0000          0.8030          0.0000          0.1798
      3364.9000          0.1572          0.0000          0.0000         68.5977          0.1628          1.0000          0.9656          0.0000          0.1866
      3365.0000          0.1567          0.0000          0.0000         44.0221          0.1567          1.0000          1.0000          0.0000          0.1861
      3365.1000          0.1594          0.0000          0.0000         50.9020          0.1594          1.0000          1.0000          0.0000          0.1966
      3365.2000          0.1624          0.0000          0.0000         77.0895          0.1662          1.0000          0.9768          0.0000          0.2162
      3365.3000          0.1616          0.0000          0.0000        104.0510          0.1718          1.0000          0.9409          0.0000          0.2397
      3365.4000          0.1651          0.0000          0.0000        129.6192          0.1742          1.0000          0.9482          0.0000          0.2304
      3365.5000          0.1700          0.0000          0.0000        159.0864          0.1756          1.0000          0.9682          0.0000          0.2088
      3365.6000          0.1734          0.0000          0.0000        203.1967          0.1777          1.0000          0.9756          0.0000          0.1895
      3365.7000          0.1632          0.0000          0.0000        250.7780          0.1794          1.0000          0.9098          0.0000          0.1703
      3365.8000          0.1529          0.0000          0.0000        235.3214          0.1781          1.0000          0.8587          0.0000          0.1640
      3365.9000          0.1518          0.0000          0.0000        164.1494          0.1734          1.0000          0.8756          0.0000          0.1663
      3366.0000          0.1574          0.0000          0.0000        107.9535          0.1684          1.0000          0.9349          0.0000          0.1778
      3366.1000          0.1632          0.0000          0.0000        102.8875          0.1689          1.0000          0.9665          0.0000          0.1955
      3366.2000          0.1622          0.0000          0.0000        152.9099          0.1761          1.0000          0.9213          0.0000          0.2256
      3366.3000          0.1481          0.0000          0.0000        276.6452          0.1862          1.0000          0.7954          0.0000          0.2578
      3366.4000          0.1377          0.0000          0.0000        372.7700          0.1918          1.0000          0.7181          0.0000          0.2826
      3366.5000          0.1315          0.0000          0.0000        275.9310          0.1883          1.0000          0.6984          0.0000          0.2931
      3366.6000          0.1296          0.0000          0.0000        141.6998          0.1788          1.0000          0.7248          0.0000          0.2851
      3366.7000          0.1307          0.0000          0.0000         67.8611          0.1690          1.0000          0.7734          0.0000          0.2886
      3366.8000          0.1335          0.0000          0.0000         44.9157          0.1634          1.0000          0.8171          0.0000          0.2887
      3366.9000          0.1360          0.0000          0.0000         42.5530          0.1620          1.0000          0.8394          0.0000          0.2775
      3367.0000          0.1392          0.0000          0.0000         54.1741          0.1637          1.0000          0.8503          0.0000          0.2525
      3367.1000          0.1410          0.0000          0.0000         78.5820          0.1679          1.0000          0.8396          0.0000          0.2394
      3367.2000          0.1408          0.0000          0.0000        110.8726          0.1733          1.0000          0.8124          0.0000          0.2497
      3367.3000          0.1396          0.0000          0.0000        144.8610          0.1768          1.0000          0.7893          0.0000          0.2483
      3367.4000          0.1384          0.0000          0.0000        137.0049          0.1766          1.0000          0.7834          0.0000          0.2577
      3367.5000          0.1361          0.0000          0.0000        104.6350          0.1735          1.0000          0.7840          0.0000          0.2668
      3367.6000          0.1348          0.0000          0.0000         85.0675          0.1706          1.0000          0.7905          0.0000          0.2643
      3367.7000          0.1362          0.0000          0.0000         82.7234          0.1702          1.0000          0.8002          0.0000          0.2639
      3367.8000          0.1400          0.0000          0.0000         95.1172          0.1723          1.0000          0.8122          0.0000          0.2684
      3367.9000          0.1435          0.0000          0.0000        120.3707          0.1755          1.0000          0.8176          0.0000          0.2684
      3368.0000          0.1427          0.0000          0.0000        142.9980          0.1779          1.0000          0.8020          0.0000          0.2694
      3368.1000          0.1435          0.0000          0.0000        147.5245          0.1789          1.0000          0.8020          0.0000          0.2782
      3368.2000          0.1469          0.0000          0.0000        127.4959          0.1787          1.0000          0.8222          0.0000          0.3062
      3368.3000          0.1428          0.0000          0.0000         79.5001          0.1766          1.0000          0.8083          0.0000          0.3759
      3368.4000          0.1246          0.0000          0.0000         30.7330          0.1698          1.0000          0.7342          0.0000          0.4725
      3368.5000          0.1080          0.0000          0.0000          8.3994          0.1553          0.0000          0.6959          0.0000          0.5220
      3368.6000          0.1014          0.0000          0.0000          1.8030          0.1335          0.0000          0.7595          0.0000          0.5087
      3368.7000          0.0948          0.0000          0.0000          0.4799          0.1114          0.0000          0.8514          0.0000          0.4414
      3368.8000          0.0902          0.0000          0.0000          0.1964          0.0951          0.0000          0.9485          0.0000          0.3757
      3368.9000          0.0856          0.0000          0.0000          0.1234          0.0856          0.0000          1.0000          0.0509          0.3239
