~Version Information
VERS.                     2.0: CWLS log ASCII Standard Version 2.00
WRAP.                      NO: One line per depth step

~Well Information Block
#MNEM.UNIT                 Value                       Information
#------------              -----                       -----------
STRT.M                   3271.0000                    :START
STOP.M                   3631.9000                    :STOP
STEP.M                      0.1000                    :STEP
NULL.                     -999.25                     :NULL VALUE
COMP.         Statoil Petroleum                       :Company
WELL.         15/9-F-1                                :Well
FLD .         VOLVE                                   :Field
LOC .         Maersk Inspirer                         :Location
PROV.                                                 :Province
CNTY.                                                 :County
STATE.                                                 :State
CTRY.                                                 :Country
DATE.                                                 :Log Date
SRVC.                                                 :Service Company
UWI .                                                 :Unique Well Identifier
API .                                                 :API Number
LATI.         058 26' 29.907" N    DMS                :Latitude
LONG.         001 53' 14.708" E    DMS                :Longtitude
PD  .         MSL                                     :Permanent Datum
ELZ .M                 0.0000                         :Elev. Log Zero

~Curve Information
#MNEM   .UNIT             API CODE Curve Description
#------------             -------- -----------------
DEPTH   .M            00 001 00 00:   0  Depth
BVW     .V/V          00 000 00 00:   1  Bound Volume Water
COAL_FLAG.unitless    00 000 00 00:   2  Coal Flag
KLOGH   .MD           00 000 00 00:   3  Calculated Horizontal PERMEABILITY from logs
PHIF    .V/V          00 000 00 00:   4  Final porosity
SAND_FLAG.unitless    00 000 00 00:   5  Sand Flag
SW      .V/V          00 000 00 00:   6  Water Saturation (Archie)
VCARB   .V/V          00 000 00 00:   7  Volume of calcite; dolomite and siderite from log analysis; repo
VSH     .V/V          00 000 00 00:   8  (GR-15)/(250-15)

~Parameter Information
#MNEM.UNIT       Value           Description
#------------    -----           -----------
HLD .         Terms and Conditions.:Header Legal Disclaimer
RUN .         1                 :Run number

~Other Information
PETROPHYSICAL INTERPRETATION: OUTPUT

# --- LOG MNEMONICS AND UNITS ---
#Depth          BVW             COAL_FLAG       KLOGH           PHIF            SAND_FLAG       SW              VCARB           VSH            
#M              V/V             unitless        MD              V/V             unitless        V/V             V/V             V/V            

~A
# ...
      3506.2000          0.0292          0.0000          0.0010          0.0292          0.0000          1.0000          0.0000          0.8111
      3506.3000          0.0296          0.0000          0.0010          0.0296          0.0000          1.0000          0.0000          0.7820
      3506.4000          0.0292          0.0000          0.0010          0.0292          0.0000          1.0000          0.0000          0.7690
      3506.5000          0.0299          0.0000          0.0010          0.0299          0.0000          1.0000          0.0000          0.7867
      3506.6000          0.0316          0.0000          0.0010          0.0316          0.0000          1.0000          0.0000          0.7848
      3506.7000          0.0330          0.0000          0.0010          0.0330          0.0000          1.0000          0.0000          0.7382
      3506.8000          0.0334          0.0000          0.0010          0.0334          0.0000          1.0000          0.0000          0.6789
      3506.9000          0.0340          0.0000          0.0010          0.0340          0.0000          1.0000          0.0000          0.6254
      3507.0000          0.0365          0.0000          0.0016          0.0365          0.0000          1.0000          0.0088          0.5314
      3507.1000          0.0404          0.0000          0.0029          0.0404          0.0000          1.0000          0.0512          0.4632
      3507.2000          0.0431          0.0000          0.0036          0.0431          0.0000          1.0000          0.0572          0.4482
      3507.3000          0.0429          0.0000          0.0063          0.0429          0.0000          1.0000          0.1394          0.3663
      3507.4000          0.0412          0.0000          0.0103          0.0412          0.0000          1.0000          0.2473          0.2847
      3507.5000          0.0409          0.0000          0.0114          0.0409          0.0000          1.0000          0.2725          0.2678
      3507.6000          0.0441          0.0000          0.0096          0.0441          0.0000          1.0000          0.2024          0.3107
      3507.7000          0.0504          0.0000          0.0096          0.0504          0.0000          1.0000          0.1354          0.3485
      3507.8000          0.0592          0.0000          0.0131          0.0592          0.0000          1.0000          0.1010          0.3545
      3507.9000          0.0685          0.0000          0.0201          0.0685          0.0000          1.0000          0.0807          0.3463
      3508.0000          0.0749          0.0000          0.0284          0.0749          0.0000          1.0000          0.0743          0.3333
      3508.1000          0.0773          0.0000          0.0245          0.0773          0.0000          1.0000          0.0341          0.3681
      3508.2000          0.0769          0.0000          0.0205          0.0769          0.0000          1.0000          0.0146          0.3921
      3508.3000          0.0771          0.0000          0.0219          0.0771          0.0000          1.0000          0.0211          0.3837
      3508.4000          0.0791          0.0000          0.0253          0.0791          0.0000          1.0000          0.0229          0.3749
      3508.5000          0.0819          0.0000          0.0318          0.0819          0.0000          1.0000          0.0301          0.3577
      3508.6000          0.0837          0.0000          0.0397          0.0837          0.0000          1.0000          0.0454          0.3357
      3508.7000          0.0829          0.0000          0.0376          0.0829          0.0000          1.0000          0.0442          0.3393
      3508.8000          0.0794          0.0000          0.0323          0.0794          0.0000          1.0000          0.0536          0.3405
      3508.9000          0.0739          0.0000          0.0245          0.0739          0.0000          1.0000          0.0617          0.3491
      3509.0000          0.0687          0.0000          0.0179          0.0687          0.0000          1.0000          0.0620          0.3645
      3509.1000          0.0655          0.0000          0.0165          0.0655          0.0000          1.0000          0.0785          0.3575
      3509.2000          0.0642          0.0000          0.0207          0.0642          0.0000          1.0000          0.1260          0.3170
      3509.3000          0.0642          0.0000          0.0275          0.0642          0.0000          1.0000          0.1749          0.2758
      3509.4000          0.0650          0.0000          0.0307          0.0650          0.0000          1.0000          0.1865          0.2646
      3509.5000          0.0665          0.0000          0.0327          0.0665          0.0000          1.0000          0.1822          0.2638
      3509.6000          0.0689          0.0000          0.0281          0.0689          0.0000          1.0000          0.1295          0.3001
      3509.7000          0.0737          0.0000          0.0278          0.0737          0.0000          1.0000          0.0816          0.3297
      3509.8000          0.0811          0.0000          0.0377          0.0811          0.0000          1.0000          0.0597          0.3287
      3509.9000          0.0909          0.0000          0.0512          0.0909          0.0000          1.0000          0.0198          0.3406
      3510.0000          0.1006          0.0000          0.0824          0.1006          1.0000          1.0000          0.0025          0.3283
      3510.1000          0.1077          0.0000          0.1460          0.1077          1.0000          1.0000          0.0191          0.2866
      3510.2000          0.1106          0.0000          0.2053          0.1106          1.0000          1.0000          0.0416          0.2542
      3510.3000          0.1090          0.0000          0.2023          0.1090          1.0000          1.0000          0.0543          0.2470
      3510.4000          0.1040          0.0000          0.1872          0.1040          1.0000          1.0000          0.0909          0.2291
      3510.5000          0.0973          0.0000          0.1488          0.0973          0.0000          1.0000          0.1210          0.2235
      3510.6000          0.0902          0.0000          0.1333          0.0902          0.0000          1.0000          0.1794          0.1981
      3510.7000          0.0835          0.0000          0.1057          0.0835          0.0000          1.0000          0.2116          0.1932
      3510.8000          0.0778          0.0000          0.0729          0.0778          0.0000          1.0000          0.2060          0.2136
      3510.9000          0.0745          0.0000          0.0591          0.0745          0.0000          1.0000          0.2031          0.2250
      3511.0000          0.0770          0.0000          0.0626          0.0770          0.0000          1.0000          0.1860          0.2309
      3511.1000          0.0865          0.0000          0.0789          0.0865          0.0000          1.0000          0.1249          0.2525
      3511.2000          0.1014          0.0000          0.1092          0.1014          1.0000          1.0000          0.0335          0.2919
      3511.3000          0.1167          0.0000          0.1666          0.1167          1.0000          1.0000          0.0000          0.3196
      3511.4000          0.1261          0.0000          0.2165          0.1261          1.0000          1.0000          0.0000          0.3363
      3511.5000          0.1268          0.0000          0.1788          0.1268          1.0000          1.0000          0.0000          0.3680
      3511.6000          0.1201          0.0000          0.1254          0.1201          1.0000          1.0000          0.0000          0.3805
      3511.7000          0.1116          0.0000          0.0888          0.1116          1.0000          1.0000          0.0000          0.3812
