~Version Information
VERS.                     2.0: CWLS log ASCII Standard Version 2.00
WRAP.                      NO: One line per depth step

~Well Information Block
#MNEM.UNIT                 Value                       Information
#------------              -----                       -----------
STRT.M                   3271.0000                    :START
STOP.M                   3631.9000                    :STOP
STEP.M                      0.1000                    :STEP
NULL.                     -999.25                     :NULL VALUE
COMP.         Statoil Petroleum                       :Company
WELL.         15/9-F-1                                :Well
FLD .         VOLVE                                   :Field
LOC .         Maersk Inspirer                         :Location
PROV.                                                 :Province
CNTY.                                                 :County
STATE.                                                 :State
CTRY.                                                 :Country
DATE.                                                 :Log Date
SRVC.                                                 :Service Company
UWI .                                                 :Unique Well Identifier
API .                                                 :API Number
LATI.         058 26' 29.907" N    DMS                :Latitude
LONG.         001 53' 14.708" E    DMS                :Longtitude
PD  .         MSL                                     :Permanent Datum
ELZ .M                 0.0000                         :Elev. Log Zero

~Curve Information
#MNEM   .UNIT             API CODE Curve Description
#------------             -------- -----------------
DEPTH   .M            00 001 00 00:   0  Depth
BVW     .V/V          00 000 00 00:   1  Bound Volume Water
COAL_FLAG.unitless    00 000 00 00:   2  Coal Flag
KLOGH   .MD           00 000 00 00:   3  Calculated Horizontal PERMEABILITY from logs
PHIF    .V/V          00 000 00 00:   4  Final porosity
SAND_FLAG.unitless    00 000 00 00:   5  Sand Flag
SW      .V/V          00 000 00 00:   6  Water Saturation (Archie)
VCARB   .V/V          00 000 00 00:   7  Volume of calcite; dolomite and siderite from log analysis; repo
VSH     .V/V          00 000 00 00:   8  (GR-15)/(250-15)

~Parameter Information
#MNEM.UNIT       Value           Description
#------------    -----           -----------
HLD .         Terms and Conditions.:Header Legal Disclaimer
RUN .         1                 :Run number

~Other Information
PETROPHYSICAL INTERPRETATION: OUTPUT

# --- LOG MNEMONICS AND UNITS ---
#Depth          BVW             COAL_FLAG       KLOGH           PHIF            SAND_FLAG       SW              VCARB           VSH            
#M              V/V             unitless        MD              V/V             unitless        V/V             V/V             V/V            

~A
# ...
      3321.4000          0.0797          0.0000          8.7498          0.1344          1.0000          0.5930          0.0000          0.2371
      3321.5000          0.0886          0.0000          7.8284          0.1297          1.0000          0.6836          0.0000          0.2382
      3321.6000          0.0945          0.0000          4.2254          0.1232          1.0000          0.7675          0.0000          0.2622
      3321.7000          0.0885          0.0000          3.3680          0.1176          1.0000          0.7527          0.0059          0.2682
      3321.8000          0.0837          0.0000          4.0123          0.1151          1.0000          0.7272          0.0242          0.2575
      3321.9000          0.0883          0.0000          4.9154          0.1144          1.0000          0.7715          0.0365          0.2471
      3322.0000          0.0907          0.0000          2.8130          0.1126          1.0000          0.8053          0.0174          0.2724
      3322.1000          0.0951          0.0000          1.5739          0.1088          1.0000          0.8749          0.0064          0.2970
      3322.2000          0.1069          0.0000          0.8280          0.1069          1.0000          1.0000          0.0000          0.3264
      3322.3000          0.1112          0.0000          0.3877          0.1112          1.0000          1.0000          0.0000          0.3668
      3322.4000          0.1208          0.0000          0.1972          0.1208          1.0000          1.0000          0.0000          0.4079
      3322.5000          0.1308          0.0000          0.0665          0.1308          1.0000          1.0000          0.0000          0.4693
      3322.6000          0.1215          0.0000          0.0193          0.1360          0.0000          0.8938          0.0000          0.5335
      3322.7000          0.1202          0.0000          0.0050          0.1347          0.0000          0.8928          0.0000          0.5979
      3322.8000          0.1198          0.0000          0.0010          0.1293          0.0000          0.9268          0.0000          0.6834
      3322.9000          0.1078          0.0000          0.0010          0.1225          0.0000          0.8802          0.0000          0.7392
      3323.0000          0.0980          0.0000          0.0010          0.1156          0.0000          0.8475          0.0000          0.7474
      3323.1000          0.0939          0.0000          0.0010          0.1080          0.0000          0.8697          0.0000          0.8016
      3323.2000          0.0882          0.0000          0.0010          0.0974          0.0000          0.9061          0.0000          0.8698
      3323.3000          0.0834          0.0000          0.0010          0.0865          0.0000          0.9632          0.0114          0.9273
      3323.4000          0.0769          0.0000          0.0010          0.0769          0.0000          1.0000          0.0446          0.9757
      3323.5000          0.0691          0.0000          0.0010          0.0691          0.0000          1.0000          0.0549          0.9963
      3323.6000          0.0616          0.0000          0.0010          0.0616          0.0000          1.0000          0.0498          1.0000
      3323.7000          0.0539          0.0000          0.0010          0.0539          0.0000          1.0000          0.0414          1.0000
      3323.8000          0.0453          0.0000          0.0010          0.0453          0.0000          1.0000          0.0329          1.0000
      3323.9000          0.0364          0.0000          0.0010          0.0364          0.0000          1.0000          0.0248          1.0000
      3324.0000          0.0265          0.0000          0.0010          0.0265          0.0000          1.0000          0.0065          0.9842
      3324.1000          0.0200          0.0000          0.0010          0.0200          0.0000          1.0000          0.0000          0.9707
      3324.2000          0.0200          0.0000          0.0010          0.0200          0.0000          1.0000          0.0000          0.9625
      3324.3000          0.0200          0.0000          0.0010          0.0200          0.0000          1.0000          0.0000          0.9498
      3324.4000          0.0200          0.0000          0.0010          0.0200          0.0000          1.0000          0.0000          0.9737
      3324.5000          0.0200          0.0000          0.0010          0.0200          0.0000          1.0000          0.0120          1.0000
      3324.6000          0.0200          0.0000          0.0010          0.0200          0.0000          1.0000          0.0120          1.0000
      3324.7000          0.0200          0.0000          0.0010          0.0200          0.0000          1.0000          0.0120          1.0000
      3324.8000          0.0200          0.0000          0.0010          0.0200          0.0000          1.0000          0.0120          1.0000
      3324.9000          0.0200          0.0000          0.0010          0.0200          0.0000          1.0000          0.0120          1.0000
      3325.0000          0.0200          0.0000          0.0010          0.0200          0.0000          1.0000          0.0120          1.0000
      3325.1000          0.0200          0.0000          0.0010          0.0200          0.0000          1.0000          0.0000          0.9561
      3325.2000          0.0300          0.0000          0.0010          0.0300          0.0000          1.0000          0.0000          0.9133
      3325.3000          0.0366          0.0000          0.0010          0.0366          0.0000          1.0000          0.0000          0.8807
      3325.4000          0.0377          0.0000          0.0010          0.0377          0.0000          1.0000          0.0000          0.8439
      3325.5000          0.0343          0.0000          0.0010          0.0343          0.0000          1.0000          0.0000          0.8006
      3325.6000          0.0285          0.0000          0.0010          0.0285          0.0000          1.0000          0.0000          0.7648
      3325.7000          0.0218          0.0000          0.0010          0.0218          0.0000          1.0000          0.0000          0.6980
      3325.8000          0.0200          0.0000          0.0010          0.0200          0.0000          1.0000          0.0000          0.6323
      3325.9000          0.0200          0.0000          0.0010          0.0200          0.0000          1.0000          0.0080          0.5865
      3326.0000          0.0200          0.0000          0.0018          0.0200          0.0000          1.0000          0.0364          0.5444
      3326.1000          0.0207          0.0000          0.0037          0.0207          0.0000          1.0000          0.0607          0.5111
      3326.2000          0.0388          0.0000          0.0135          0.0388          0.0000          1.0000          0.0542          0.4646
      3326.3000          0.0590          0.0000          0.0387          0.0590          0.0000          1.0000          0.0295          0.4315
      3326.4000          0.0753          0.0000          0.1298          0.0753          0.0000          1.0000          0.0224          0.3877
      3326.5000          0.0860          0.0000          0.3651          0.0860          0.0000          1.0000          0.0279          0.3473
      3326.6000          0.0870          0.0000          0.6749          0.0924          0.0000          0.9416          0.0308          0.3234
      3326.7000          0.0826          0.0000          0.6299          0.0962          0.0000          0.8584          0.0136          0.3301
      3326.8000          0.0857          0.0000          0.4010          0.0989          0.0000          0.8667          0.0000          0.3542
      3326.9000          0.0964          0.0000          0.3598          0.1013          1.0000          0.9516          0.0000          0.3616
