~Version Information
VERS.                     2.0: CWLS log ASCII Standard Version 2.00
WRAP.                      NO: One line per depth step

~Well Information Block
#MNEM.UNIT                 Value                       Information
#------------              -----                       -----------
STRT.M                   3205.0000                    :START
STOP.M                   4093.8000                    :STOP
STEP.M                      0.1000                    :STEP
NULL.                     -999.25                     :NULL VALUE
COMP.         Statoil Petroleum                       :Company
WELL.         15/9-F-1 C                              :Well
FLD .         VOLVE                                   :Field
LOC .         Maersk Inspirer                         :Location
PROV.                                                 :Province
CNTY.                                                 :County
STATE.                                                 :State
CTRY.                                                 :Country
DATE.                                                 :Log Date
SRVC.                                                 :Service Company
UWI .                                                 :Unique Well Identifier
API .                                                 :API Number
LATI.         058 26' 29.907" N    DMS                :Latitude
LONG.         001 53' 14.708" E    DMS                :Longtitude
PD  .         MSL                                     :Permanent Datum
EDF .M                54.9000                         :Elevations D.F.
EGL .M               -91.0000                         :Elevations G.L.
ELZ .M                54.9000                         :Elev. Log Zero
LMF .         DF                                      :Log Measured From

~Curve Information
#MNEM   .UNIT             API CODE Curve Description
#------------             -------- -----------------
DEPTH   .M            00 001 00 00:   0  Depth
BADDATA_FLAG.unitless 00 000 00 00:   1  Bad Data Flag
BVW     .v/v          00 000 00 00:   2  Bulk Volume Water
COAL_FLAG.unitless    00 000 00 00:   3  Coal Flag
KLOGH   .mD           00 000 00 00:   4  Permeability
PHIF    .v/v          00 000 00 00:   5  Final Porosity
SAND_FLAG.unitless    00 000 00 00:   6  Sand Flag
SW      .v/v          00 000 00 00:   7  Water Saturation
VCARB   .v/v          00 000 00 00:   8  VCARB
VSH     .v/v          00 000 00 00:   9  Volume of Shale

~Parameter Information
#MNEM.UNIT       Value           Description
#------------    -----           -----------
RUN .         1                 :Run number

~Other Information
PETROPHYSICAL INTERPRETATION: OUTPUT

# --- LOG MNEMONICS AND UNITS ---
#Depth          BADDATA_FLAG    BVW             COAL_FLAG       KLOGH           PHIF            SAND_FLAG       SW              VCARB           VSH            
#M              unitless        v/v             unitless        mD              v/v             unitless        v/v             v/v             v/v            

~A
# ...
      3395.0000          0.0000          0.1694          0.0000         68.8708          0.2613          1.0000          0.6482          0.0000          0.2502
      3395.1000          0.0000          0.1692          0.0000         72.7695          0.2608          1.0000          0.6487          0.0000          0.2472
      3395.2000          0.0000          0.1694          0.0000         83.4582          0.2591          1.0000          0.6536          0.0000          0.2391
      3395.3000          0.0000          0.1692          0.0000         95.2378          0.2562          1.0000          0.6606          0.0000          0.2301
      3395.4000          0.0000          0.1693          0.0000         74.1793          0.2530          1.0000          0.6689          0.0000          0.2393
      3395.5000          0.0000          0.1701          0.0000         53.8388          0.2513          1.0000          0.6769          0.0000          0.2533
      3395.6000          0.0000          0.1709          0.0000         70.1709          0.2517          1.0000          0.6791          0.0000          0.2408
      3395.7000          0.0000          0.1720          0.0000         90.2543          0.2534          1.0000          0.6789          0.0000          0.2302
      3395.8000          0.0000          0.1733          0.0000         90.2197          0.2554          1.0000          0.6783          0.0000          0.2320
      3395.9000          0.0000          0.1745          0.0000         58.2320          0.2572          1.0000          0.6787          0.0000          0.2547
      3396.0000          0.0000          0.1756          0.0000         46.7648          0.2587          1.0000          0.6787          0.0000          0.2667
      3396.1000          0.0000          0.1758          0.0000         68.6288          0.2607          1.0000          0.6742          0.0000          0.2499
      3396.2000          0.0000          0.1750          0.0000         80.4494          0.2630          1.0000          0.6656          0.0000          0.2442
      3396.3000          0.0000          0.1753          0.0000         90.7714          0.2645          1.0000          0.6627          0.0000          0.2398
      3396.4000          0.0000          0.1766          0.0000        122.4027          0.2648          1.0000          0.6669          0.0000          0.2256
      3396.5000          0.0000          0.1780          0.0000        151.7326          0.2640          1.0000          0.6742          0.0000          0.2146
      3396.6000          0.0000          0.1794          0.0000        101.2686          0.2632          1.0000          0.6816          0.0000          0.2334
      3396.7000          0.0000          0.1798          0.0000        113.5835          0.2632          1.0000          0.6830          0.0000          0.2278
      3396.8000          0.0000          0.1802          0.0000        148.0807          0.2639          1.0000          0.6829          0.0000          0.2156
      3396.9000          0.0000          0.1801          0.0000        132.5772          0.2643          1.0000          0.6814          0.0000          0.2214
      3397.0000          0.0000          0.1800          0.0000         94.6486          0.2636          1.0000          0.6829          0.0000          0.2369
      3397.1000          0.0000          0.1796          0.0000         86.0377          0.2611          1.0000          0.6879          0.0000          0.2393
      3397.2000          0.0000          0.1793          0.0000         94.7795          0.2594          1.0000          0.6913          0.0000          0.2332
      3397.3000          0.0000          0.1800          0.0000        125.3675          0.2602          1.0000          0.6917          0.0000          0.2204
      3397.4000          0.0000          0.1805          0.0000        135.2155          0.2621          1.0000          0.6888          0.0000          0.2184
      3397.5000          0.0000          0.1804          0.0000        132.0660          0.2635          1.0000          0.6847          0.0000          0.2208
      3397.6000          0.0000          0.1800          0.0000        126.6215          0.2635          1.0000          0.6830          0.0000          0.2228
      3397.7000          0.0000          0.1793          0.0000        165.5105          0.2626          1.0000          0.6828          0.0000          0.2091
      3397.8000          0.0000          0.1791          0.0000        125.1879          0.2621          1.0000          0.6832          0.0000          0.2222
      3397.9000          0.0000          0.1788          0.0000        123.9541          0.2625          1.0000          0.6811          0.0000          0.2230
      3398.0000          0.0000          0.1786          0.0000        140.6501          0.2629          1.0000          0.6794          0.0000          0.2172
      3398.1000          0.0000          0.1789          0.0000        134.0412          0.2623          1.0000          0.6820          0.0000          0.2191
      3398.2000          0.0000          0.1789          0.0000        126.8276          0.2608          1.0000          0.6860          0.0000          0.2204
      3398.3000          0.0000          0.1791          0.0000        106.6458          0.2607          1.0000          0.6873          0.0000          0.2286
      3398.4000          0.0000          0.1793          0.0000         97.7878          0.2602          1.0000          0.6893          0.0000          0.2323
      3398.5000          0.0000          0.1785          0.0000        131.5168          0.2598          1.0000          0.6870          0.0000          0.2177
      3398.6000          0.0000          0.1781          0.0000        147.0480          0.2590          1.0000          0.6877          0.0000          0.2116
      3398.7000          0.0000          0.1779          0.0000        122.1917          0.2572          1.0000          0.6917          0.0000          0.2189
      3398.8000          0.0000          0.1775          0.0000        110.1709          0.2541          1.0000          0.6985          0.0000          0.2212
      3398.9000          0.0000          0.1766          0.0000        145.8685          0.2514          1.0000          0.7026          0.0000          0.2053
      3399.0000          0.0000          0.1768          0.0000        139.7272          0.2506          1.0000          0.7054          0.0000          0.2066
      3399.1000          0.0000          0.1770          0.0000        118.6869          0.2520          1.0000          0.7027          0.0000          0.2157
      3399.2000          0.0000          0.1773          0.0000        105.0628          0.2542          1.0000          0.6973          0.0000          0.2236
      3399.3000          0.0000          0.1769          0.0000        108.0315          0.2560          1.0000          0.6912          0.0000          0.2238
      3399.4000          0.0000          0.1768          0.0000         99.7605          0.2564          1.0000          0.6895          0.0000          0.2280
      3399.5000          0.0000          0.1756          0.0000         82.0351          0.2559          1.0000          0.6863          0.0000          0.2370
      3399.6000          0.0000          0.1752          0.0000         74.8336          0.2553          1.0000          0.6862          0.0000          0.2409
      3399.7000          0.0000          0.1749          0.0000         88.7965          0.2549          1.0000          0.6859          0.0000          0.2323
      3399.8000          0.0000          0.1749          0.0000         92.1821          0.2558          1.0000          0.6836          0.0000          0.2313
      3399.9000          0.0000          0.1741          0.0000        110.1090          0.2567          1.0000          0.6782          0.0000          0.2235
