~Version Information
VERS.                     2.0: CWLS log ASCII Standard Version 2.00
WRAP.                      NO: One line per depth step

~Well Information Block
#MNEM       .UNIT          Value                       Information
#-------------------------------------------------------------------------
STRT        .M             3102.102                    :START
STOP        .M             3505.8096                   :STOP
STEP        .M             0.1524                      :STEP
NULL        .              -999.25                     :NULL VALUE
COMP        .              STATOILHYDRO                :COMPANY
WELL        .              15/9-F-12                   :WELL
FLD         .              VOLVE                       :FIELD
LOC         .              UNKNOWN                     :LOCATION
CNTY        .              UNKNOWN                     :COUNTY
STAT        .              UNKNOWN                     :STATE
CTRY        .              Norway                      :COUNTRY
SRVC        .              UNKNOWN                     :SERVICE COMPANY
DATE        .              UNKNOWN                     :LOG DATE
UWI         .              NO 15/9-F-12                :UNIQUE WELL ID
XCOORD      .              435050.170000               :SURFACE X
YCOORD      .              6478574.700000              :SURFACE Y
LAT         .              58.441713                   :LATITUDE
LON         .              1.887480                    :LONGITUDE
ELEV        .M             54.9000                     :SURFACE ELEV
ELEV_TYPE   .              KB                          :ELEV TYPE

~Curve Information
#MNEM       .UNIT             API CODE : Curve Description
#-------------------------------------------------------------------------
DEPTH       .M                UNKNOWN  : Measured Dept
BVW         .v/v_decimal      UNKNOWN  : BVW:UNKNOWN:rC:NONE:v1
KLOGH       .mD               UNKNOWN  : KLOGH:UNKNOWN:rC:NONE:v1
PHIF        .v/v_decimal      UNKNOWN  : PHIF:UNKNOWN:rC:NONE:v1
SW          .v/v_decimal      UNKNOWN  : SW:UNKNOWN:rC:NONE:v1
VSH         .v/v_decimal      UNKNOWN  : VSH:UNKNOWN:rC:NONE:v1
# --- LOG MNEMONICS AND UNITS ---
#Depth     BVW        KLOGH      PHIF       SW         VSH       
#M         v/v_decima mD         v/v_decima v/v_decima v/v_decima
~A
# ...
 3362.4012 0.11140000 0.01569999 0.11140000          1 0.63069999
 3362.5536 0.11050000 0.01700000 0.11050000          1 0.61419999
  3362.706 0.11379999 0.02229999 0.11379999          1 0.59409999
 3362.8584 0.11710000 0.02930000 0.11710000          1 0.57389998
 3363.0108 0.11999999 0.03779999 0.11999999          1 0.55339998
 3363.1632 0.11670000 0.03920000 0.11670000          1 0.52869999
 3363.3156 0.11330000 0.04069999 0.11330000          1 0.50389999
  3363.468 0.13359999 0.14939999 0.14149999 0.94400000 0.47920000
 3363.6204 0.13210000 0.12720000 0.13729999 0.96240001 0.47830000
 3363.7728 0.09740000 0.02470000 0.09740000          1 0.48370000
 3363.9252 0.09070000 0.01820000 0.09070000          1 0.48919999
 3364.0776 0.08489999 0.01269999 0.08489999          1 0.50749999
   3364.23 0.07989999 0.00839999 0.07989999          1 0.53829997
 3364.3824 0.07490000 0.00559999 0.07490000          1 0.56910002
 3364.5348 0.07220000 0.00410000 0.07220000          1 0.59839999
 3364.6872 0.07720000 0.00419999 0.07720000          1 0.62300002
 3364.8396 0.08219999 0.00430000 0.08219999          1 0.64749997
  3364.992 0.08720000 0.00449999 0.08720000          1 0.67199999
 3365.1444 0.08739999 0.00499999 0.08739999          1 0.65740001
 3365.2968 0.08739999 0.00559999 0.08739999          1 0.64050000
 3365.4492 0.08739999 0.00630000 0.08739999          1 0.62360000
 3365.6016 0.08850000 0.00680000 0.08850000          1 0.61900001
  3365.754 0.09019999 0.00719999 0.09019999          1 0.62059998
 3365.9064 0.09189999 0.00760000 0.09189999          1 0.62209999
 3366.0588 0.09099999 0.00779999 0.09099999          1 0.61330002
 3366.2112 0.08600000 0.00760000 0.08600000          1 0.58789998
 3366.3636 0.08100000 0.00740000 0.08100000          1 0.56260001
  3366.516 0.07760000 0.00760000 0.07760000          1 0.54040002
 3366.6684 0.08749999 0.01090000 0.08749999          1 0.54519999
 3366.8208 0.09749999 0.01569999 0.09749999          1 0.55000001
 3366.9732 0.12669999 0.08789999 0.14129999 0.89649999 0.55489999
 3367.1256 0.12639999 0.09589999 0.14319999 0.88260000 0.55309998
  3367.278 0.10930000 0.02520000 0.10930000          1 0.55000001
 3367.4304 0.10930000 0.02580000 0.10930000          1 0.54680001
 3367.5828 0.10660000 0.02290000 0.10660000          1 0.54830002
 3367.7352 0.10159999 0.01799999 0.10159999          1 0.55390000
 3367.8876 0.09660000 0.01420000 0.09660000          1 0.55940002
   3368.04 0.09380000 0.01240000 0.09380000          1 0.56290000
 3368.1924 0.09709999 0.01439999 0.09709999          1 0.56050002
 3368.3448 0.12340000 0.06490000 0.13429999 0.91900002 0.55820000
 3368.4972 0.12330000 0.06920000 0.13549999 0.90990000 0.55589997
 3368.6496 0.12349999 0.07379999 0.13539999 0.91250002 0.54589998
  3368.802 0.10050000 0.01960000 0.10050000          1 0.53570002
 3368.9544 0.09889999 0.01970000 0.09889999          1 0.52560001
 3369.1068 0.09950000 0.01830000 0.09950000          1 0.54009997
 3369.2592 0.10119999 0.01640000 0.10119999          1 0.56510001
 3369.4116 0.10289999 0.01480000 0.10289999          1 0.59009999
  3369.564 0.10100000 0.01290000 0.10100000          1 0.59869998
 3369.7164 0.09440000 0.01090000 0.09440000          1 0.58439999
 3369.8688 0.08770000 0.00920000 0.08770000          1 0.57010000
 3370.0212 0.08150000 0.00779999 0.08150000          1 0.55919998
 3370.1736 0.07819999 0.00639999 0.07819999          1 0.56840002
  3370.326 0.07479999 0.00520000 0.07479999          1 0.57770001
 3370.4784 0.07150000 0.00430000 0.07150000          1 0.58700001
 3370.6308 0.07249999 0.00449999 0.07249999          1 0.58499997
 3370.7832 0.07410000 0.00499999 0.07410000          1 0.58120000
 3370.9356 0.07580000 0.00549999 0.07580000          1 0.57749998
  3371.088 0.07750000 0.00570000 0.07750000          1 0.58149999
 3371.2404 0.07909999 0.00570000 0.07909999          1 0.59140002
 3371.3928 0.08079999 0.00570000 0.08079999          1 0.60119998
 3371.5452 0.08299999 0.00540000 0.08299999          1 0.61979997
 3371.6976 0.08630000 0.00469999 0.08630000          1 0.65909999
   3371.85 0.08959999 0.00410000 0.08959999          1 0.69840002
 3372.0024 0.09300000 0.00359999 0.09300000          1 0.73680001
 3372.1548 0.09969999 0.00540000 0.09969999          1 0.71770000
 3372.3072 0.10629999 0.00800000 0.10629999          1 0.69859999
 3372.4596 0.13320000 0.04540000 0.14630000 0.91060000 0.67960000
  3372.612 0.10740000 0.01020000 0.10740000          1 0.67049998
 3372.7644 0.09740000 0.00710000 0.09740000          1 0.66509997
 3372.9168 0.08739999 0.00490000 0.08739999          1 0.65960001
 3373.0692 0.08349999 0.00430000 0.08349999          1 0.65770000
 3373.2216 0.08680000 0.00480000 0.08680000          1 0.66000002
  3373.374 0.09009999 0.00540000 0.09009999          1 0.66240000
 3373.5264 0.09229999 0.00600000 0.09229999          1 0.65909999
 3373.6788 0.08900000 0.00650000 0.08900000          1 0.62959998
 3373.8312 0.08569999 0.00689999 0.08569999          1 0.60009998
 3373.9836 0.08229999 0.00740000 0.08229999          1 0.57050001
  3374.136 0.07900000 0.00680000 0.07900000          1 0.56410002
 3374.2884 0.07569999 0.00609999 0.07569999          1 0.56050002
 3374.4408 0.07230000 0.00549999 0.07230000          1 0.55690002
 3374.5932 0.07609999 0.00609999 0.07609999          1 0.56319999
 3374.7456 0.08449999 0.00779999 0.08449999          1 0.57590001
  3374.898 0.09279999 0.00999999 0.09279999          1 0.58859997
 3375.0504 0.09839999 0.01099999 0.09839999          1 0.60619997
 3375.2028 0.09839999 0.00910000 0.09839999          1 0.63380002
 3375.3552 0.09839999 0.00749999 0.09839999          1 0.66140002
 3375.5076 0.09799999 0.00620000 0.09799999          1 0.68870002
   3375.66 0.09139999 0.00400000 0.09139999          1 0.71079999
 3375.8124 0.08470000 0.00270000 0.08470000          1 0.73290002
 3375.9648 0.07800000 0.00170000 0.07800000          1 0.75499999
 3376.1172 0.07270000 0.00109999 0.07270000          1 0.79490000
 3376.2696 0.06769999 0.00100000 0.06769999          1 0.84020000
  3376.422 0.06270000 0.00100000 0.06270000          1 0.88550001
 3376.5744 0.06089999 0.00100000 0.06089999          1 0.90839999
 3376.7268 0.06260000 0.00100000 0.06260000          1 0.90780001
 3376.8792 0.06430000 0.00100000 0.06430000          1 0.90729999
 3377.0316 0.06729999 0.00100000 0.06729999          1 0.89880001
  3377.184 0.07559999 0.00100000 0.07559999          1 0.86030000
 3377.3364 0.08399999 0.00139999 0.08399999          1 0.82179999
 3377.4888 0.09229999 0.00249999 0.09229999          1 0.78339999
 3377.6412 0.09139999 0.00230000 0.09139999          1 0.79390001
 3377.7936 0.08969999 0.00190000 0.08969999          1 0.80839997
  3377.946 0.08799999 0.00159999 0.08799999          1 0.82289999
 3378.0984 0.09170000 0.00219999 0.09170000          1 0.80320000
 3378.2508 0.09839999 0.00370000 0.09839999          1 0.76490002
 3378.4032 0.10509999 0.00630000 0.10509999          1 0.72649997
 3378.5556 0.10809999 0.00879999 0.10809999          1 0.69599997
  3378.708 0.10469999 0.00860000 0.10469999          1 0.67930001
 3378.8604 0.10140000 0.00850000 0.10140000          1 0.66250002
 3379.0128 0.09809999 0.00810000 0.09809999          1 0.64899998
 3379.1652 0.09470000 0.00609999 0.09470000          1 0.67019999
 3379.3176 0.09139999 0.00460000 0.09139999          1 0.69129997
   3379.47 0.08810000 0.00350000 0.08810000          1 0.71249997
 3379.6224 0.08739999 0.00359999 0.08739999          1 0.70569998
 3379.7748 0.08739999 0.00389999 0.08739999          1 0.69199997
 3379.9272 0.08739999 0.00430000 0.08739999          1 0.67830002
 3380.0796 0.08659999 0.00380000 0.08659999          1 0.69389998
  3380.232 0.08489999 0.00260000 0.08489999          1 0.73640000
 3380.3844 0.08320000 0.00179999 0.08320000          1 0.77890002
 3380.5368 0.08519999 0.00170000 0.08519999          1 0.80129998
 3380.6892 0.09849999 0.00380000 0.09849999          1 0.76069998
 3380.8416 0.11509999 0.03229999 0.14480000 0.79439997 0.72020000
