~Version Information
VERS.                     2.0: CWLS log ASCII Standard Version 2.00
WRAP.                      NO: One line per depth step

~Well Information Block
#MNEM.UNIT                 Value                       Information
#------------              -----                       -----------
STRT.M                   3358.0000                    :START
STOP.M                   3681.9000                    :STOP
STEP.M                      0.1000                    :STEP
NULL.                     -999.25                     :NULL VALUE
COMP.         Statoil Petroleum AS                    :Company
WELL.         15/9-F-1 A                              :Well
FLD .         VOLVE                                   :Field
LOC .         Maersk Inspirer                         :Location
PROV.                                                 :Province
CNTY.         Unused                                  :County
STATE.                                                 :State
CTRY.                                                 :Country
DATE.                                                 :Log Date
SRVC.                                                 :Service Company
UWI .                                                 :Unique Well Identifier
API .                                                 :API Number
LATI.         058 26' 29.907" N    DMS                :Latitude
LONG.         001 53' 14.708" E    DMS                :Longtitude
PD  .         MSL                                     :Permanent Datum
ELZ .M                 0.0000                         :Elev. Log Zero

~Curve Information
#MNEM   .UNIT             API CODE Curve Description
#------------             -------- -----------------
DEPTH   .M            00 001 00 00:   0  Depth
BVW     .V/V          00 000 00 00:   1  Bound Volume Water
COAL_FLAG.unitless    00 000 00 00:   2  Coal Flag
KLOGH   .mD           00 000 00 00:   3  Calculated Horizontal PERMEABILITY from logs
PHIF    .V/V          00 000 00 00:   4  Final porosity
SAND_FLAG.unitless    00 000 00 00:   5  Sand Flag
SW      .V/V          00 000 00 00:   6  Water Saturation (Archie)
VCARB   .V/V          00 000 00 00:   7  IFC(CARB_FLAG>0.5,1-VSH, VCARB)
VSH     .V/V          00 000 00 00:   8  Volume of Shale

~Parameter Information
#MNEM.UNIT       Value           Description
#------------    -----           -----------
HLD .         Terms and Conditions.:Header Legal Disclaimer
RUN .         1                 :Run number

~Other Information
PETROPHYSICAL INTERPRETATION: OUTPUT

# --- LOG MNEMONICS AND UNITS ---
#Depth          BVW             COAL_FLAG       KLOGH           PHIF            SAND_FLAG       SW              VCARB           VSH            
#M              V/V             unitless        mD              V/V             unitless        V/V             V/V             V/V            

~A
# ...
      3503.6000          0.0200          0.0000          0.0010          0.0200          0.0000          1.0000          0.2444          0.3439
      3503.7000          0.0200          0.0000          0.0010          0.0200          0.0000          1.0000          0.2501          0.3396
      3503.8000          0.0200          0.0000          0.0010          0.0200          0.0000          1.0000          0.2279          0.3563
      3503.9000          0.0200          0.0000          0.0010          0.0200          0.0000          1.0000          0.2401          0.3471
      3504.0000          0.0200          0.0000          0.0010          0.0200          0.0000          1.0000          0.2527          0.3377
      3504.1000          0.0200          0.0000          0.0010          0.0200          0.0000          1.0000          0.2445          0.3438
      3504.2000          0.0200          0.0000          0.0010          0.0200          0.0000          1.0000          0.2632          0.3301
      3504.3000          0.0200          0.0000          0.0010          0.0200          0.0000          1.0000          0.2690          0.3258
      3504.4000          0.0200          0.0000          0.0010          0.0200          0.0000          1.0000          0.2792          0.3186
      3504.5000          0.0200          0.0000          0.0011          0.0200          0.0000          1.0000          0.2991          0.3047
      3504.6000          0.0200          0.0000          0.0011          0.0200          0.0000          1.0000          0.3000          0.3041
      3504.7000          0.0200          0.0000          0.0011          0.0200          0.0000          1.0000          0.2991          0.3047
      3504.8000          0.0200          0.0000          0.0010          0.0200          0.0000          1.0000          0.2758          0.3210
      3504.9000          0.0200          0.0000          0.0010          0.0200          0.0000          1.0000          0.2692          0.3257
      3505.0000          0.0200          0.0000          0.0010          0.0200          0.0000          1.0000          0.2787          0.3189
      3505.1000          0.0200          0.0000          0.0011          0.0200          0.0000          1.0000          0.2939          0.3083
      3505.2000          0.0200          0.0000          0.0010          0.0200          0.0000          1.0000          0.2814          0.3170
      3505.3000          0.0200          0.0000          0.0010          0.0200          0.0000          1.0000          0.2753          0.3213
      3505.4000          0.0200          0.0000          0.0010          0.0200          0.0000          1.0000          0.2704          0.3248
      3505.5000          0.0200          0.0000          0.0010          0.0200          0.0000          1.0000          0.2769          0.3202
      3505.6000          0.0200          0.0000          0.0011          0.0200          0.0000          1.0000          0.2941          0.3081
      3505.7000          0.0200          0.0000          0.0011          0.0200          0.0000          1.0000          0.3149          0.2940
      3505.8000          0.0200          0.0000          0.0011          0.0200          0.0000          1.0000          0.3178          0.2920
      3505.9000          0.0200          0.0000          0.0011          0.0200          0.0000          1.0000          0.3194          0.2910
      3506.0000          0.0200          0.0000          0.0012          0.0200          0.0000          1.0000          0.3298          0.2841
      3506.1000          0.0200          0.0000          0.0012          0.0200          0.0000          1.0000          0.3444          0.2746
      3506.2000          0.0200          0.0000          0.0014          0.0200          0.0000          1.0000          0.3837          0.2497
      3506.3000          0.0200          0.0000          0.0013          0.0200          0.0000          1.0000          0.3738          0.2559
      3506.4000          0.0200          0.0000          0.0012          0.0200          0.0000          1.0000          0.3467          0.2730
      3506.5000          0.0200          0.0000          0.0012          0.0200          0.0000          1.0000          0.3282          0.2851
      3506.6000          0.0200          0.0000          0.0012          0.0200          0.0000          1.0000          0.3265          0.2863
      3506.7000          0.0200          0.0000          0.0011          0.0200          0.0000          1.0000          0.2947          0.3078
      3506.8000          0.0200          0.0000          0.0010          0.0200          0.0000          1.0000          0.2922          0.3095
      3506.9000          0.0200          0.0000          0.0011          0.0200          0.0000          1.0000          0.2972          0.3060
      3507.0000          0.0200          0.0000          0.0011          0.0200          0.0000          1.0000          0.2951          0.3075
      3507.1000          0.0200          0.0000          0.0011          0.0200          0.0000          1.0000          0.2940          0.3083
      3507.2000          0.0200          0.0000          0.0012          0.0200          0.0000          1.0000          0.3299          0.2840
      3507.3000          0.0200          0.0000          0.0012          0.0200          0.0000          1.0000          0.3309          0.2833
      3507.4000          0.0200          0.0000          0.0012          0.0200          0.0000          1.0000          0.3321          0.2826
      3507.5000          0.0200          0.0000          0.0012          0.0200          0.0000          1.0000          0.3401          0.2773
      3507.6000          0.0200          0.0000          0.0012          0.0200          0.0000          1.0000          0.3235          0.2883
      3507.7000          0.0200          0.0000          0.0012          0.0200          0.0000          1.0000          0.3439          0.2749
      3507.8000          0.0200          0.0000          0.0011          0.0200          0.0000          1.0000          0.3205          0.2903
      3507.9000          0.0200          0.0000          0.0010          0.0200          0.0000          1.0000          0.2480          0.3412
      3508.0000          0.0200          0.0000          0.0010          0.0200          0.0000          1.0000          0.1863          0.3896
      3508.1000          0.0200          0.0000          0.0010          0.0200          0.0000          1.0000          0.1542          0.4173
      3508.2000          0.0200          0.0000          0.0010          0.0200          0.0000          1.0000          0.1513          0.4199
      3508.3000          0.0200          0.0000          0.0010          0.0200          0.0000          1.0000          0.1775          0.3971
      3508.4000          0.0200          0.0000          0.0010          0.0200          0.0000          1.0000          0.2073          0.3725
      3508.5000          0.0200          0.0000          0.0010          0.0200          0.0000          1.0000          0.2453          0.3432
      3508.6000          0.0200          0.0000          0.0010          0.0200          0.0000          1.0000          0.2401          0.3471
      3508.7000          0.0200          0.0000          0.0010          0.0200          0.0000          1.0000          0.2036          0.3755
      3508.8000          0.0200          0.0000          0.0010          0.0200          0.0000          1.0000          0.1361          0.4339
      3508.9000          0.0200          0.0000          0.0010          0.0200          0.0000          1.0000          0.1165          0.4527
      3509.0000          0.0213          0.0000          0.0010          0.0213          0.0000          1.0000          0.1521          0.4157
      3509.1000          0.0258          0.0000          0.0011          0.0258          0.0000          1.0000          0.1660          0.3908
