~Version Information
VERS.                     2.0: CWLS log ASCII Standard Version 2.00
WRAP.                      NO: One line per depth step

~Well Information Block
#MNEM.UNIT                 Value                       Information
#------------              -----                       -----------
STRT.M                   3271.0000                    :START
STOP.M                   3631.9000                    :STOP
STEP.M                      0.1000                    :STEP
NULL.                     -999.25                     :NULL VALUE
COMP.         Statoil Petroleum                       :Company
WELL.         15/9-F-1                                :Well
FLD .         VOLVE                                   :Field
LOC .         Maersk Inspirer                         :Location
PROV.                                                 :Province
CNTY.                                                 :County
STATE.                                                 :State
CTRY.                                                 :Country
DATE.                                                 :Log Date
SRVC.                                                 :Service Company
UWI .                                                 :Unique Well Identifier
API .                                                 :API Number
LATI.         058 26' 29.907" N    DMS                :Latitude
LONG.         001 53' 14.708" E    DMS                :Longtitude
PD  .         MSL                                     :Permanent Datum
ELZ .M                 0.0000                         :Elev. Log Zero

~Curve Information
#MNEM   .UNIT             API CODE Curve Description
#------------             -------- -----------------
DEPTH   .M            00 001 00 00:   0  Depth
BVW     .V/V          00 000 00 00:   1  Bound Volume Water
COAL_FLAG.unitless    00 000 00 00:   2  Coal Flag
KLOGH   .MD           00 000 00 00:   3  Calculated Horizontal PERMEABILITY from logs
PHIF    .V/V          00 000 00 00:   4  Final porosity
SAND_FLAG.unitless    00 000 00 00:   5  Sand Flag
SW      .V/V          00 000 00 00:   6  Water Saturation (Archie)
VCARB   .V/V          00 000 00 00:   7  Volume of calcite; dolomite and siderite from log analysis; repo
VSH     .V/V          00 000 00 00:   8  (GR-15)/(250-15)

~Parameter Information
#MNEM.UNIT       Value           Description
#------------    -----           -----------
HLD .         Terms and Conditions.:Header Legal Disclaimer
RUN .         1                 :Run number

~Other Information
PETROPHYSICAL INTERPRETATION: OUTPUT

# --- LOG MNEMONICS AND UNITS ---
#Depth          BVW             COAL_FLAG       KLOGH           PHIF            SAND_FLAG       SW              VCARB           VSH            
#M              V/V             unitless        MD              V/V             unitless        V/V             V/V             V/V            

~A
# ...
      3545.4000          0.0271          0.0000          0.0010          0.0271          0.0000          1.0000          0.0000          0.7674
      3545.5000          0.0270          0.0000          0.0010          0.0270          0.0000          1.0000          0.0000          0.7514
      3545.6000          0.0271          0.0000          0.0010          0.0271          0.0000          1.0000          0.0000          0.7575
      3545.7000          0.0272          0.0000          0.0010          0.0272          0.0000          1.0000          0.0000          0.7924
      3545.8000          0.0261          0.0000          0.0010          0.0261          0.0000          1.0000          0.0000          0.8171
      3545.9000          0.0237          0.0000          0.0010          0.0237          0.0000          1.0000          0.0000          0.8203
      3546.0000          0.0206          0.0000          0.0010          0.0206          0.0000          1.0000          0.0000          0.7890
      3546.1000          0.0200          0.0000          0.0010          0.0200          0.0000          1.0000          0.0000          0.6960
      3546.2000          0.0200          0.0000          0.0010          0.0200          0.0000          1.0000          0.0000          0.6081
      3546.3000          0.0200          0.0000          0.0010          0.0200          0.0000          1.0000          0.0522          0.5237
      3546.4000          0.0200          0.0000          0.0011          0.0200          0.0000          1.0000          0.0892          0.4809
      3546.5000          0.0222          0.0000          0.0010          0.0222          0.0000          1.0000          0.0544          0.5145
      3546.6000          0.0278          0.0000          0.0010          0.0278          0.0000          1.0000          0.0068          0.5629
      3546.7000          0.0334          0.0000          0.0010          0.0334          0.0000          1.0000          0.0000          0.5708
      3546.8000          0.0369          0.0000          0.0010          0.0369          0.0000          1.0000          0.0000          0.5962
      3546.9000          0.0380          0.0000          0.0010          0.0380          0.0000          1.0000          0.0000          0.6249
      3547.0000          0.0371          0.0000          0.0010          0.0371          0.0000          1.0000          0.0000          0.6261
      3547.1000          0.0357          0.0000          0.0010          0.0357          0.0000          1.0000          0.0000          0.6380
      3547.2000          0.0341          0.0000          0.0010          0.0341          0.0000          1.0000          0.0000          0.6582
      3547.3000          0.0323          0.0000          0.0010          0.0323          0.0000          1.0000          0.0000          0.6895
      3547.4000          0.0307          0.0000          0.0010          0.0307          0.0000          1.0000          0.0000          0.7441
      3547.5000          0.0295          0.0000          0.0010          0.0295          0.0000          1.0000          0.0000          0.7940
      3547.6000          0.0294          0.0000          0.0010          0.0294          0.0000          1.0000          0.0000          0.8197
      3547.7000          0.0294          0.0000          0.0010          0.0294          0.0000          1.0000          0.0000          0.8535
      3547.8000          0.0287          0.0000          0.0010          0.0287          0.0000          1.0000          0.0000          0.8771
      3547.9000          0.0273          0.0000          0.0010          0.0273          0.0000          1.0000          0.0000          0.9151
      3548.0000          0.0256          0.0000          0.0010          0.0256          0.0000          1.0000          0.0000          0.8993
      3548.1000          0.0245          0.0000          0.0010          0.0245          0.0000          1.0000          0.0000          0.8782
      3548.2000          0.0241          0.0000          0.0010          0.0241          0.0000          1.0000          0.0000          0.8583
      3548.3000          0.0246          0.0000          0.0010          0.0246          0.0000          1.0000          0.0000          0.8220
      3548.4000          0.0253          0.0000          0.0010          0.0253          0.0000          1.0000          0.0000          0.7919
      3548.5000          0.0258          0.0000          0.0010          0.0258          0.0000          1.0000          0.0000          0.7654
      3548.6000          0.0258          0.0000          0.0010          0.0258          0.0000          1.0000          0.0000          0.7521
      3548.7000          0.0255          0.0000          0.0010          0.0255          0.0000          1.0000          0.0000          0.7572
      3548.8000          0.0254          0.0000          0.0010          0.0254          0.0000          1.0000          0.0000          0.7515
      3548.9000          0.0256          0.0000          0.0010          0.0256          0.0000          1.0000          0.0000          0.7188
      3549.0000          0.0257          0.0000          0.0010          0.0257          0.0000          1.0000          0.0000          0.7185
      3549.1000          0.0261          0.0000          0.0010          0.0261          0.0000          1.0000          0.0000          0.7022
      3549.2000          0.0268          0.0000          0.0010          0.0268          0.0000          1.0000          0.0000          0.6906
      3549.3000          0.0277          0.0000          0.0010          0.0277          0.0000          1.0000          0.0000          0.7122
      3549.4000          0.0282          0.0000          0.0010          0.0282          0.0000          1.0000          0.0000          0.7084
      3549.5000          0.0281          0.0000          0.0010          0.0281          0.0000          1.0000          0.0000          0.6696
      3549.6000          0.0279          0.0000          0.0010          0.0279          0.0000          1.0000          0.0000          0.7009
      3549.7000          0.0285          0.0000          0.0010          0.0285          0.0000          1.0000          0.0000          0.7204
      3549.8000          0.0299          0.0000          0.0010          0.0299          0.0000          1.0000          0.0000          0.7151
      3549.9000          0.0314          0.0000          0.0010          0.0314          0.0000          1.0000          0.0000          0.7302
      3550.0000          0.0321          0.0000          0.0010          0.0321          0.0000          1.0000          0.0000          0.7618
      3550.1000          0.0320          0.0000          0.0010          0.0320          0.0000          1.0000          0.0000          0.7812
      3550.2000          0.0313          0.0000          0.0010          0.0313          0.0000          1.0000          0.0000          0.7927
      3550.3000          0.0303          0.0000          0.0010          0.0303          0.0000          1.0000          0.0000          0.8190
      3550.4000          0.0287          0.0000          0.0010          0.0287          0.0000          1.0000          0.0000          0.8319
      3550.5000          0.0266          0.0000          0.0010          0.0266          0.0000          1.0000          0.0000          0.8154
      3550.6000          0.0245          0.0000          0.0010          0.0245          0.0000          1.0000          0.0000          0.7961
      3550.7000          0.0233          0.0000          0.0010          0.0233          0.0000          1.0000          0.0000          0.7451
      3550.8000          0.0235          0.0000          0.0010          0.0235          0.0000          1.0000          0.0000          0.7316
      3550.9000          0.0248          0.0000          0.0010          0.0248          0.0000          1.0000          0.0000          0.7384
