~Version Information
VERS.                     2.0: CWLS log ASCII Standard Version 2.00
WRAP.                      NO: One line per depth step

~Well Information Block
#MNEM.UNIT                 Value                       Information
#------------              -----                       -----------
STRT.M                    3351.600                    :START
STOP.M                    4759.200                    :STOP
STEP.M                       0.100                    :STEP
NULL.                     -999.25                     :NULL VALUE
COMP.         Statoil Petroleum AS                    :Company
WELL.         15/9-F-11 B                             :Well
FLD .         VOLVE                                   :Field
LOC .         Maersk Inspirer                         :Location
PROV.                                                 :Province
CNTY.                                                 :County
STATE.                                                 :State
CTRY.                                                 :Country
DATE.                                                 :Log Date
SRVC.                                                 :Service Company
UWI .                                                 :Unique Well Identifier
API .                                                 :API Number
LATI.         058 26' 29.960" N    DMS                :Latitude
LONG.         001 53' 14.870" E    DMS                :Longtitude
PD  .         MSL                                     :Permanent Datum
EDF .M            54.900                              :Elevations D.F.
EGL .M           -91.000                              :Elevations G.L.
ELZ .M            54.900                              :Elev. Log Zero
LMF .         DF                                      :Log Measured From

~Curve Information
#MNEM   .UNIT             API CODE Curve Description
#------------             -------- -----------------
DEPTH   .M            00 001 00 00:   0  Depth
BVW     .v/v          00 000 00 00:   1  BVW:CPI:rC:NONE:v1
CARB_FLAG.unitless    00 000 00 00:   2  CARB_FLAG:CPI:rC:NONE:v1
COAL_FLAG.unitless    00 000 00 00:   3  COAL_FLAG:CPI:rC:NONE:v1
KLOGH   .mD           00 000 00 00:   4  KLOGH:CPI:rC:NONE:v1
PHIF    .v/v          00 000 00 00:   5  PHIF:CPI:rC:NONE:v1
SAND_FLAG.UNKNOWN     00 000 00 00:   6  SAND_FLAG:CPI:rC:NONE:v1
SW      .v/v          00 000 00 00:   7  SW:CPI:rC:NONE:v1
VSH     .v/v          00 000 00 00:   8  VSH:CPI:rC:NONE:v1

~Parameter Information
#MNEM.UNIT       Value           Description
#------------    -----           -----------
RUN .         1                 :Run number

~Other Information
PETROPHYSICAL_INTERPRETATION: OUTPUT

# --- LOG MNEMONICS AND UNITS ---
#Depth     BVW        CARB_FLAG  COAL_FLAG  KLOGH      PHIF       SAND_FLAG  SW         VSH       
#M         v/v        unitless   unitless   mD         v/v        UNKNOWN    v/v        v/v       

~A
# ...
  3537.900      0.126      0.000      0.000    205.941      0.253      1.000      0.501      0.190
  3538.000      0.127      0.000      0.000    194.306      0.254      1.000      0.499      0.194
  3538.100      0.127      0.000      0.000    293.710      0.254      1.000      0.500      0.174
  3538.200      0.125      0.000      0.000    390.735      0.254      1.000      0.493      0.160
  3538.300      0.128      0.000      0.000    260.910      0.253      1.000      0.507      0.179
  3538.400      0.126      0.000      0.000    225.119      0.253      1.000      0.497      0.185
  3538.500      0.124      0.000      0.000    154.629      0.252      1.000      0.492      0.203
  3538.600      0.113      0.000      0.000    110.756      0.250      1.000      0.450      0.217
  3538.700      0.106      0.000      0.000     60.435      0.246      1.000      0.430      0.243
  3538.800      0.097      0.000      0.000     41.489      0.240      1.000      0.407      0.255
  3538.900      0.092      0.000      0.000     34.115      0.234      1.000      0.392      0.260
  3539.000      0.087      0.000      0.000     25.352      0.231      1.000      0.379      0.271
  3539.100      0.084      0.000      0.000     16.877      0.229      1.000      0.366      0.290
  3539.200      0.082      0.000      0.000     16.575      0.228      1.000      0.361      0.289
  3539.300      0.079      0.000      0.000     16.762      0.227      1.000      0.349      0.288
  3539.400      0.076      0.000      0.000     16.506      0.227      1.000      0.336      0.288
  3539.500      0.072      0.000      0.000     15.546      0.225      1.000      0.318      0.290
  3539.600      0.067      0.000      0.000     15.064      0.223      1.000      0.302      0.289
  3539.700      0.067      0.000      0.000     14.509      0.220      1.000      0.304      0.289
  3539.800      0.069      0.000      0.000     10.126      0.218      1.000      0.314      0.304
  3539.900      0.067      0.000      0.000      8.073      0.216      1.000      0.310      0.313
  3540.000      0.070      0.000      0.000      6.915      0.211      1.000      0.332      0.316
  3540.100      0.073      0.000      0.000      6.789      0.203      1.000      0.360      0.311
  3540.200      0.074      0.000      0.000      6.119      0.195      1.000      0.379      0.308
  3540.300      0.073      0.000      0.000      4.809      0.190      1.000      0.384      0.315
  3540.400      0.070      0.000      0.000      2.619      0.185      1.000      0.376      0.341
  3540.500      0.069      0.000      0.000      1.272      0.183      1.000      0.376      0.373
  3540.600      0.070      0.000      0.000      0.833      0.181      1.000      0.385      0.392
  3540.700      0.069      0.000      0.000      0.863      0.177      1.000      0.391      0.387
  3540.800      0.071      0.000      0.000      0.587      0.174      1.000      0.405      0.403
  3540.900      0.070      0.000      0.000      0.810      0.173      1.000      0.404      0.387
  3541.000      0.070      0.000      0.000      1.246      0.175      1.000      0.400      0.367
  3541.100      0.069      0.000      0.000      1.153      0.177      1.000      0.388      0.372
  3541.200      0.068      0.000      0.000      1.706      0.177      1.000      0.382      0.354
  3541.300      0.067      0.000      0.000      1.501      0.178      1.000      0.375      0.361
  3541.400      0.066      0.000      0.000      1.619      0.176      1.000      0.375      0.356
  3541.500      0.065      0.000      0.000      1.558      0.175      1.000      0.374      0.356
  3541.600      0.064      0.000      0.000      1.308      0.174      1.000      0.371      0.364
  3541.700      0.064      0.000      0.000      1.650      0.173      1.000      0.368      0.352
  3541.800      0.062      0.000      0.000      2.144      0.172      1.000      0.359      0.338
  3541.900      0.061      0.000      0.000      2.509      0.170      1.000      0.361      0.329
  3542.000      0.059      0.000      0.000      2.589      0.169      1.000      0.353      0.326
  3542.100      0.058      0.000      0.000      2.947      0.166      1.000      0.350      0.318
  3542.200      0.057      0.000      0.000      2.765      0.166      1.000      0.343      0.321
  3542.300      0.057      0.000      0.000      2.464      0.166      1.000      0.342      0.327
  3542.400      0.057      0.000      0.000      2.012      0.166      1.000      0.342      0.336
  3542.500      0.056      0.000      0.000      2.199      0.164      1.000      0.339      0.330
  3542.600      0.055      0.000      0.000      2.308      0.163      1.000      0.340      0.326
  3542.700      0.055      0.000      0.000      2.324      0.163      1.000      0.338      0.327
  3542.800      0.055      0.000      0.000      1.906      0.162      1.000      0.340      0.336
  3542.900      0.056      0.000      0.000      1.369      0.163      1.000      0.341      0.352
  3543.000      0.055      0.000      0.000      1.433      0.164      1.000      0.339      0.350
  3543.100      0.055      0.000      0.000      1.849      0.164      1.000      0.337      0.338
  3543.200      0.056      0.000      0.000      1.650      0.164      1.000      0.340      0.344
  3543.300      0.057      0.000      0.000      1.572      0.165      1.000      0.343      0.347
  3543.400      0.057      0.000      0.000      1.779      0.164      1.000      0.344      0.341
  3543.500      0.057      0.000      0.000      1.468      0.164      1.000      0.349      0.349
  3543.600      0.058      0.000      0.000      1.332      0.163      1.000      0.354      0.353
  3543.700      0.058      0.000      0.000      1.442      0.162      1.000      0.356      0.349
  3543.800      0.058      0.000      0.000      1.515      0.163      1.000      0.354      0.347
  3543.900      0.058      0.000      0.000      1.583      0.166      1.000      0.349      0.347
  3544.000      0.058      0.000      0.000      1.421      0.169      1.000      0.346      0.355
  3544.100      0.058      0.000      0.000      1.678      0.169      1.000      0.344      0.348
  3544.200      0.059      0.000      0.000      1.193      0.170      1.000      0.347      0.365
  3544.300      0.058      0.000      0.000      0.456      0.136      1.000      0.426      0.381
  3544.400      0.058      0.000      0.000      0.439      0.131      1.000      0.440      0.379
  3544.500      0.058      0.000      0.000      0.358      0.127      1.000      0.456      0.384
  3544.600      0.057      0.000      0.000      0.366      0.121      1.000      0.469      0.379
  3544.700      0.056      0.000      0.000      0.337      0.116      1.000      0.484      0.378
  3544.800      0.056      0.000      0.000      0.179      0.112      1.000      0.505      0.405
  3544.900      0.056      0.000      0.000      0.115      0.108      1.000      0.522      0.423
  3545.000      0.056      0.000      0.000      0.139      0.105      1.000      0.535      0.410
  3545.100      0.056      0.000      0.000      0.094      0.101      1.000      0.553      0.426
  3545.200      0.058      0.000      0.000      0.070      0.098      0.000      0.590      0.437
  3545.300      0.059      0.000      0.000      0.061      0.094      0.000      0.629      0.441
  3545.400      0.060      0.000      0.000      0.048      0.091      0.000      0.656      0.450
  3545.500      0.059      0.000      0.000      0.044      0.088      0.000      0.667      0.451
  3545.600      0.058      0.000      0.000      0.044      0.086      0.000      0.680      0.449
  3545.700      0.059      0.000      0.000      0.033      0.083      0.000      0.707      0.461
  3545.800      0.058      0.000      0.000      0.030      0.079      0.000      0.728      0.462
  3545.900      0.059      0.000      0.000      0.018      0.075      0.000      0.779      0.483
