~Version Information
VERS.                     2.0: CWLS log ASCII Standard Version 2.00
WRAP.                      NO: One line per depth step

~Well Information Block
#MNEM.UNIT                 Value                       Information
#------------              -----                       -----------
STRT.M                    3351.600                    :START
STOP.M                    4759.200                    :STOP
STEP.M                       0.100                    :STEP
NULL.                     -999.25                     :NULL VALUE
COMP.         Statoil Petroleum AS                    :Company
WELL.         15/9-F-11 B                             :Well
FLD .         VOLVE                                   :Field
LOC .         Maersk Inspirer                         :Location
PROV.                                                 :Province
CNTY.                                                 :County
STATE.                                                 :State
CTRY.                                                 :Country
DATE.                                                 :Log Date
SRVC.                                                 :Service Company
UWI .                                                 :Unique Well Identifier
API .                                                 :API Number
LATI.         058 26' 29.960" N    DMS                :Latitude
LONG.         001 53' 14.870" E    DMS                :Longtitude
PD  .         MSL                                     :Permanent Datum
EDF .M            54.900                              :Elevations D.F.
EGL .M           -91.000                              :Elevations G.L.
ELZ .M            54.900                              :Elev. Log Zero
LMF .         DF                                      :Log Measured From

~Curve Information
#MNEM   .UNIT             API CODE Curve Description
#------------             -------- -----------------
DEPTH   .M            00 001 00 00:   0  Depth
BVW     .v/v          00 000 00 00:   1  BVW:CPI:rC:NONE:v1
CARB_FLAG.unitless    00 000 00 00:   2  CARB_FLAG:CPI:rC:NONE:v1
COAL_FLAG.unitless    00 000 00 00:   3  COAL_FLAG:CPI:rC:NONE:v1
KLOGH   .mD           00 000 00 00:   4  KLOGH:CPI:rC:NONE:v1
PHIF    .v/v          00 000 00 00:   5  PHIF:CPI:rC:NONE:v1
SAND_FLAG.UNKNOWN     00 000 00 00:   6  SAND_FLAG:CPI:rC:NONE:v1
SW      .v/v          00 000 00 00:   7  SW:CPI:rC:NONE:v1
VSH     .v/v          00 000 00 00:   8  VSH:CPI:rC:NONE:v1

~Parameter Information
#MNEM.UNIT       Value           Description
#------------    -----           -----------
RUN .         1                 :Run number

~Other Information
PETROPHYSICAL_INTERPRETATION: OUTPUT

# --- LOG MNEMONICS AND UNITS ---
#Depth     BVW        CARB_FLAG  COAL_FLAG  KLOGH      PHIF       SAND_FLAG  SW         VSH       
#M         v/v        unitless   unitless   mD         v/v        UNKNOWN    v/v        v/v       

~A
# ...
  4275.000      0.025      0.000      0.000    357.951      0.251      1.000      0.101      0.162
  4275.100      0.025      0.000      0.000    430.395      0.248      1.000      0.100      0.150
  4275.200      0.025      0.000      0.000    435.279      0.245      1.000      0.101      0.147
  4275.300      0.025      0.000      0.000    367.779      0.242      1.000      0.104      0.153
  4275.400      0.025      0.000      0.000    236.321      0.240      1.000      0.106      0.172
  4275.500      0.025      0.000      0.000    224.159      0.239      1.000      0.107      0.174
  4275.600      0.026      0.000      0.000    284.149      0.239      1.000      0.107      0.162
  4275.700      0.026      0.000      0.000    401.911      0.241      1.000      0.107      0.147
  4275.800      0.026      0.000      0.000    464.069      0.241      1.000      0.106      0.140
  4275.900      0.026      0.000      0.000    338.668      0.238      1.000      0.108      0.153
  4276.000      0.026      0.000      0.000    340.546      0.233      1.000      0.113      0.148
  4276.100      0.026      0.000      0.000    383.805      0.230      1.000      0.114      0.140
  4276.200      0.026      0.000      0.000    275.112      0.231      1.000      0.113      0.157
  4276.300      0.026      0.000      0.000    258.471      0.235      1.000      0.113      0.163
  4276.400      0.027      0.000      0.000    306.624      0.237      1.000      0.115      0.157
  4276.500      0.027      0.000      0.000    376.159      0.240      1.000      0.114      0.150
  4276.600      0.028      0.000      0.000    368.725      0.241      1.000      0.117      0.151
  4276.700      0.028      0.000      0.000    359.624      0.243      1.000      0.117      0.154
  4276.800      0.028      0.000      0.000    350.669      0.246      1.000      0.116      0.158
  4276.900      0.029      0.000      0.000    338.865      0.248      1.000      0.117      0.162
  4277.000      0.029      0.000      0.000    364.610      0.248      1.000      0.117      0.158
  4277.100      0.029      0.000      0.000    436.063      0.247      1.000      0.116      0.148
  4277.200      0.029      0.000      0.000    435.146      0.245      1.000      0.117      0.147
  4277.300      0.029      0.000      0.000    519.164      0.244      1.000      0.118      0.137
  4277.400      0.029      0.000      0.000    424.917      0.244      1.000      0.119      0.147
  4277.500      0.029      0.000      0.000    279.583      0.245      1.000      0.119      0.168
  4277.600      0.029      0.000      0.000    286.519      0.245      1.000      0.119      0.167
  4277.700      0.029      0.000      0.000    314.246      0.242      1.000      0.119      0.160
  4277.800      0.028      0.000      0.000    254.775      0.239      1.000      0.117      0.167
  4277.900      0.028      0.000      0.000    266.863      0.235      1.000      0.117      0.162
  4278.000      0.027      0.000      0.000    386.359      0.234      1.000      0.114      0.143
  4278.100      0.026      0.000      0.000    408.781      0.231      1.000      0.114      0.138
  4278.200      0.027      0.000      0.000    403.073      0.227      1.000      0.117      0.131
  4278.300      0.027      0.000      0.000    396.895      0.223      1.000      0.119      0.132
  4278.400      0.026      0.000      0.000    317.171      0.219      1.000      0.119      0.139
  4278.500      0.026      0.000      0.000    307.314      0.215      1.000      0.119      0.137
  4278.600      0.025      0.000      0.000    366.465      0.211      1.000      0.116      0.125
  4278.700      0.024      0.000      0.000    285.250      0.207      1.000      0.117      0.133
  4278.800      0.024      0.000      0.000    234.281      0.204      1.000      0.119      0.141
  4278.900      0.024      0.000      0.000    209.993      0.203      1.000      0.118      0.145
  4279.000      0.024      0.000      0.000    195.383      0.204      1.000      0.116      0.149
  4279.100      0.023      0.000      0.000    191.134      0.205      1.000      0.114      0.151
  4279.200      0.022      0.000      0.000    223.071      0.206      1.000      0.108      0.144
  4279.300      0.021      0.000      0.000    251.135      0.205      1.000      0.104      0.138
  4279.400      0.021      0.000      0.000    229.642      0.203      1.000      0.102      0.140
  4279.500      0.018      0.000      0.000    188.352      0.200      1.000      0.091      0.147
  4279.600      0.013      0.000      0.000    171.901      0.196      1.000      0.068      0.148
  4279.700      0.012      0.000      0.000    155.394      0.191      1.000      0.061      0.148
  4279.800      0.014      0.000      0.000    132.454      0.184      1.000      0.076      0.150
  4279.900      0.014      0.000      0.000    115.425      0.176      1.000      0.078      0.150
  4280.000      0.017      0.000      0.000    110.992      0.168      1.000      0.099      0.145
  4280.100      0.018      0.000      0.000     94.161      0.159      1.000      0.111      0.144
  4280.200      0.017      0.000      0.000     41.489      0.147      1.000      0.118      0.173
  4280.300      0.017      0.000      0.000     25.536      0.136      1.000      0.125      0.187
  4280.400      0.016      0.000      0.000     10.994      0.126      1.000      0.130      0.218
  4280.500      0.016      0.000      0.000      4.722      0.116      1.000      0.142      0.250
  4280.600      0.016      0.000      0.000      3.391      0.105      1.000      0.158      0.256
  4280.700      0.015      1.000      0.000      1.701      0.057      0.000      0.259      0.247
  4280.800      0.014      1.000      0.000      1.412      0.042      0.000      0.333      0.243
  4280.900      0.013      1.000      0.000      1.195      0.031      0.000      0.437      0.241
  4281.000      0.013      1.000      0.000      0.893      0.023      0.000      0.569      0.248
  4281.100      0.013      1.000      0.000      0.594      0.020      0.000      0.640      0.265
  4281.200      0.013      1.000      0.000      0.653      0.020      0.000      0.649      0.261
  4281.300      0.013      1.000      0.000      0.715      0.020      0.000      0.660      0.256
  4281.400      0.013      1.000      0.000      0.771      0.020      0.000      0.671      0.252
  4281.500      0.014      1.000      0.000      1.003      0.020      0.000      0.680      0.240
  4281.600      0.014      1.000      0.000      0.970      0.020      0.000      0.695      0.242
  4281.700      0.018      1.000      0.000      1.652      0.053      0.000      0.334      0.245
  4281.800      0.018      1.000      0.000      2.499      0.050      0.000      0.351      0.223
  4281.900      0.018      1.000      0.000      2.990      0.050      0.000      0.361      0.213
  4282.000      0.018      1.000      0.000      2.383      0.049      0.000      0.371      0.224
  4282.100      0.019      1.000      0.000      1.595      0.050      0.000      0.378      0.244
  4282.200      0.019      1.000      0.000      0.971      0.050      0.000      0.389      0.268
  4282.300      0.020      1.000      0.000      0.614      0.049      0.000      0.405      0.290
  4282.400      0.021      1.000      0.000      0.491      0.051      0.000      0.406      0.302
  4282.500      0.021      1.000      0.000      0.493      0.053      0.000      0.401      0.304
  4282.600      0.018      1.000      0.000      0.201      0.020      0.000      0.894      0.317
  4282.700      0.019      0.000      0.000      0.087      0.020      0.000      0.951      0.358
  4282.800      0.020      0.000      0.000      0.040      0.020      0.000      1.000      0.395
  4282.900      0.022      0.000      0.000      0.046      0.023      0.000      0.946      0.392
  4283.000      0.030      0.000      0.000      0.046      0.034      0.000      0.903      0.400
