~Version Information
VERS.                     2.0: CWLS log ASCII Standard Version 2.00
WRAP.                      NO: One line per depth step

~Well Information Block
#MNEM.UNIT                 Value                       Information
#------------              -----                       -----------
STRT.M                   3205.0000                    :START
STOP.M                   4093.8000                    :STOP
STEP.M                      0.1000                    :STEP
NULL.                     -999.25                     :NULL VALUE
COMP.         Statoil Petroleum                       :Company
WELL.         15/9-F-1 C                              :Well
FLD .         VOLVE                                   :Field
LOC .         Maersk Inspirer                         :Location
PROV.                                                 :Province
CNTY.                                                 :County
STATE.                                                 :State
CTRY.                                                 :Country
DATE.                                                 :Log Date
SRVC.                                                 :Service Company
UWI .                                                 :Unique Well Identifier
API .                                                 :API Number
LATI.         058 26' 29.907" N    DMS                :Latitude
LONG.         001 53' 14.708" E    DMS                :Longtitude
PD  .         MSL                                     :Permanent Datum
EDF .M                54.9000                         :Elevations D.F.
EGL .M               -91.0000                         :Elevations G.L.
ELZ .M                54.9000                         :Elev. Log Zero
LMF .         DF                                      :Log Measured From

~Curve Information
#MNEM   .UNIT             API CODE Curve Description
#------------             -------- -----------------
DEPTH   .M            00 001 00 00:   0  Depth
BADDATA_FLAG.unitless 00 000 00 00:   1  Bad Data Flag
BVW     .v/v          00 000 00 00:   2  Bulk Volume Water
COAL_FLAG.unitless    00 000 00 00:   3  Coal Flag
KLOGH   .mD           00 000 00 00:   4  Permeability
PHIF    .v/v          00 000 00 00:   5  Final Porosity
SAND_FLAG.unitless    00 000 00 00:   6  Sand Flag
SW      .v/v          00 000 00 00:   7  Water Saturation
VCARB   .v/v          00 000 00 00:   8  VCARB
VSH     .v/v          00 000 00 00:   9  Volume of Shale

~Parameter Information
#MNEM.UNIT       Value           Description
#------------    -----           -----------
RUN .         1                 :Run number

~Other Information
PETROPHYSICAL INTERPRETATION: OUTPUT

# --- LOG MNEMONICS AND UNITS ---
#Depth          BADDATA_FLAG    BVW             COAL_FLAG       KLOGH           PHIF            SAND_FLAG       SW              VCARB           VSH            
#M              unitless        v/v             unitless        mD              v/v             unitless        v/v             v/v             v/v            

~A
# ...
      4010.0000          0.0000          0.0422          0.0000          0.0010          0.0422          0.0000          1.0000          0.0000          0.6033
      4010.1000          0.0000          0.0490          0.0000          0.0011          0.0490          0.0000          1.0000          0.0000          0.5957
      4010.2000          0.0000          0.0555          0.0000          0.0013          0.0555          0.0000          1.0000          0.0000          0.5921
      4010.3000          0.0000          0.0589          0.0000          0.0018          0.0589          0.0000          1.0000          0.0000          0.5794
      4010.4000          0.0000          0.0587          0.0000          0.0037          0.0587          0.0000          1.0000          0.0000          0.5441
      4010.5000          0.0000          0.0564          0.0000          0.0017          0.0564          0.0000          1.0000          0.0000          0.5788
      4010.6000          0.0000          0.0531          0.0000          0.0014          0.0531          0.0000          1.0000          0.0000          0.5864
      4010.7000          0.0000          0.0483          0.0000          0.0020          0.0483          0.0000          1.0000          0.0000          0.5662
      4010.8000          0.0000          0.0413          0.0000          0.0026          0.0413          0.0000          1.0000          0.0000          0.5457
      4010.9000          0.0000          0.0340          0.0000          0.0017          0.0340          0.0000          1.0000          0.0000          0.5604
      4011.0000          0.0000          0.0279          0.0000          0.0013          0.0279          0.0000          1.0000          0.0027          0.5692
      4011.1000          0.0000          0.0234          0.0000          0.0011          0.0234          0.0000          1.0000          0.0112          0.5703
      4011.2000          0.0000          0.0200          0.0000          0.0010          0.0200          0.0000          1.0000          0.0176          0.5713
      4011.3000          0.0000          0.0200          0.0000          0.0012          0.0200          0.0000          1.0000          0.0209          0.5664
      4011.4000          0.0000          0.0200          0.0000          0.0010          0.0200          0.0000          1.0000          0.0129          0.5785
      4011.5000          0.0000          0.0200          0.0000          0.0010          0.0200          0.0000          1.0000          0.0111          0.5814
      4011.6000          0.0000          0.0212          0.0000          0.0010          0.0212          0.0000          1.0000          0.0088          0.5812
      4011.7000          0.0000          0.0243          0.0000          0.0010          0.0243          0.0000          1.0000          0.0000          0.5927
      4011.8000          0.0000          0.0268          0.0000          0.0010          0.0268          0.0000          1.0000          0.0000          0.5838
      4011.9000          0.0000          0.0290          0.0000          0.0012          0.0290          0.0000          1.0000          0.0000          0.5738
      4012.0000          0.0000          0.0319          0.0000          0.0013          0.0319          0.0000          1.0000          0.0000          0.5709
      4012.1000          0.0000          0.0372          0.0000          0.0016          0.0372          0.0000          1.0000          0.0000          0.5663
      4012.2000          0.0000          0.0449          0.0000          0.0017          0.0449          0.0000          1.0000          0.0000          0.5703
      4012.3000          0.0000          0.0543          0.0000          0.0014          0.0543          0.0000          1.0000          0.0000          0.5869
      4012.4000          0.0000          0.0639          0.0000          0.0010          0.0639          0.0000          1.0000          0.0000          0.6153
      4012.5000          0.0000          0.0731          0.0000          0.0016          0.0731          0.0000          1.0000          0.0000          0.5974
      4012.6000          0.0000          0.0823          0.0000          0.0017          0.0823          0.0000          1.0000          0.0000          0.6042
      4012.7000          0.0000          0.0887          0.0000          0.0019          0.0908          0.0000          0.9775          0.0000          0.6059
      4012.8000          0.0000          0.0897          0.0000          0.0022          0.0967          0.0000          0.9276          0.0000          0.6028
      4012.9000          0.0000          0.0899          0.0000          0.0018          0.0984          0.0000          0.9135          0.0000          0.6137
      4013.0000          0.0000          0.0903          0.0000          0.0021          0.0987          0.0000          0.9143          0.0000          0.6083
      4013.1000          0.0000          0.0903          0.0000          0.0015          0.1014          0.0000          0.8909          0.0000          0.6246
      4013.2000          0.0000          0.0902          0.0000          0.0010          0.1074          0.0000          0.8394          0.0000          0.6548
      4013.3000          0.0000          0.0899          0.0000          0.0010          0.1146          0.0000          0.7845          0.0000          0.6560
      4013.4000          0.0000          0.0897          0.0000          0.0017          0.1195          0.0000          0.7503          0.0000          0.6364
      4013.5000          0.0000          0.0906          0.0000          0.0014          0.1208          0.0000          0.7496          0.0000          0.6475
      4013.6000          0.0000          0.0911          0.0000          0.0028          0.1202          0.0000          0.7578          0.0000          0.6121
      4013.7000          0.0000          0.0916          0.0000          0.0026          0.1193          0.0000          0.7676          0.0000          0.6150
      4013.8000          0.0000          0.0914          0.0000          0.0014          0.1187          0.0000          0.7699          0.0000          0.6449
      4013.9000          0.0000          0.0913          0.0000          0.0012          0.1178          0.0000          0.7754          0.0000          0.6529
      4014.0000          0.0000          0.0912          0.0000          0.0010          0.1167          0.0000          0.7812          0.0000          0.6609
      4014.1000          0.0000          0.0907          0.0000          0.0013          0.1167          0.0000          0.7769          0.0000          0.6468
      4014.2000          0.0000          0.0904          0.0000          0.0018          0.1182          0.0000          0.7646          0.0000          0.6319
      4014.3000          0.0000          0.0902          0.0000          0.0022          0.1195          0.0000          0.7551          0.0000          0.6238
      4014.4000          0.0000          0.0902          0.0000          0.0028          0.1186          0.0000          0.7605          0.0000          0.6109
      4014.5000          0.0000          0.0895          0.0000          0.0028          0.1152          0.0000          0.7772          0.0000          0.6082
      4014.6000          0.0000          0.0882          0.0000          0.0027          0.1104          0.0000          0.7984          0.0000          0.6063
      4014.7000          0.0000          0.0876          0.0000          0.0025          0.1060          0.0000          0.8269          0.0000          0.6062
      4014.8000          0.0000          0.0867          0.0000          0.0023          0.1026          0.0000          0.8453          0.0000          0.6060
      4014.9000          0.0000          0.0864          0.0000          0.0030          0.0999          0.0000          0.8653          0.0000          0.5912
