~Version Information
VERS.                     2.0: CWLS log ASCII Standard Version 2.00
WRAP.                      NO: One line per depth step

~Well Information Block
#MNEM.UNIT                 Value                       Information
#------------              -----                       -----------
STRT.M                   3205.0000                    :START
STOP.M                   4093.8000                    :STOP
STEP.M                      0.1000                    :STEP
NULL.                     -999.25                     :NULL VALUE
COMP.         Statoil Petroleum                       :Company
WELL.         15/9-F-1 C                              :Well
FLD .         VOLVE                                   :Field
LOC .         Maersk Inspirer                         :Location
PROV.                                                 :Province
CNTY.                                                 :County
STATE.                                                 :State
CTRY.                                                 :Country
DATE.                                                 :Log Date
SRVC.                                                 :Service Company
UWI .                                                 :Unique Well Identifier
API .                                                 :API Number
LATI.         058 26' 29.907" N    DMS                :Latitude
LONG.         001 53' 14.708" E    DMS                :Longtitude
PD  .         MSL                                     :Permanent Datum
EDF .M                54.9000                         :Elevations D.F.
EGL .M               -91.0000                         :Elevations G.L.
ELZ .M                54.9000                         :Elev. Log Zero
LMF .         DF                                      :Log Measured From

~Curve Information
#MNEM   .UNIT             API CODE Curve Description
#------------             -------- -----------------
DEPTH   .M            00 001 00 00:   0  Depth
BADDATA_FLAG.unitless 00 000 00 00:   1  Bad Data Flag
BVW     .v/v          00 000 00 00:   2  Bulk Volume Water
COAL_FLAG.unitless    00 000 00 00:   3  Coal Flag
KLOGH   .mD           00 000 00 00:   4  Permeability
PHIF    .v/v          00 000 00 00:   5  Final Porosity
SAND_FLAG.unitless    00 000 00 00:   6  Sand Flag
SW      .v/v          00 000 00 00:   7  Water Saturation
VCARB   .v/v          00 000 00 00:   8  VCARB
VSH     .v/v          00 000 00 00:   9  Volume of Shale

~Parameter Information
#MNEM.UNIT       Value           Description
#------------    -----           -----------
RUN .         1                 :Run number

~Other Information
PETROPHYSICAL INTERPRETATION: OUTPUT

# --- LOG MNEMONICS AND UNITS ---
#Depth          BADDATA_FLAG    BVW             COAL_FLAG       KLOGH           PHIF            SAND_FLAG       SW              VCARB           VSH            
#M              unitless        v/v             unitless        mD              v/v             unitless        v/v             v/v             v/v            

~A
# ...
      3450.0000          0.0000          0.0592          0.0000          0.0436          0.1349          1.0000          0.4390          0.0000          0.4932
      3450.1000          0.0000          0.0576          0.0000          0.0606          0.1322          1.0000          0.4357          0.0000          0.4703
      3450.2000          0.0000          0.0527          0.0000          0.1269          0.1239          1.0000          0.4257          0.0000          0.4566
      3450.3000          0.0000          0.0459          0.0000          0.1526          0.1157          1.0000          0.3968          0.0000          0.4396
      3450.4000          0.0000          0.0430          0.0000          0.2121          0.1074          1.0000          0.4003          0.0000          0.4160
      3450.5000          0.0000          0.0423          0.0000          0.1228          0.0991          1.0000          0.4269          0.0000          0.4343
      3450.6000          0.0000          0.0417          0.0000          0.0690          0.0784          0.0000          0.5313          0.0000          0.4209
      3450.7000          0.0000          0.0407          0.0000          0.0729          0.0617          0.0000          0.6595          0.0464          0.4034
      3450.8000          0.0000          0.0377          0.0000          0.1417          0.0422          0.0000          0.8948          0.1559          0.3540
      3450.9000          0.0000          0.0200          0.0000          0.2024          0.0200          0.0000          1.0000          0.2813          0.3171
      3451.0000          0.0000          0.0200          0.0000          0.2856          0.0200          0.0000          1.0000          0.3053          0.3005
      3451.1000          0.0000          0.0200          0.0000          0.4029          0.0200          0.0000          1.0000          0.3301          0.2839
      3451.2000          0.0000          0.0200          0.0000          0.5911          0.0200          0.0000          1.0000          0.3587          0.2654
      3451.3000          0.0000          0.0200          0.0000          0.7401          0.0200          0.0000          1.0000          0.3760          0.2545
      3451.4000          0.0000          0.0200          0.0000          1.2243          0.0200          0.0000          1.0000          0.4159          0.2302
      3451.5000          0.0000          0.0200          0.0000          1.1683          0.0200          0.0000          1.0000          0.4121          0.2325
      3451.6000          0.0000          0.0200          0.0000          1.1138          0.0200          0.0000          1.0000          0.4082          0.2348
      3451.7000          0.0000          0.0200          0.0000          1.3963          0.0200          0.0000          1.0000          0.4266          0.2239
      3451.8000          0.0000          0.0200          0.0000          1.6861          0.0200          0.0000          1.0000          0.4421          0.2148
      3451.9000          0.0000          0.0200          0.0000          1.6407          0.0200          0.0000          1.0000          0.4399          0.2161
      3452.0000          0.0000          0.0200          0.0000          1.3481          0.0200          0.0000          1.0000          0.4237          0.2256
      3452.1000          0.0000          0.0200          0.0000          0.9680          0.0200          0.0000          1.0000          0.3970          0.2416
      3452.2000          0.0000          0.0200          0.0000          0.7213          0.0200          0.0000          1.0000          0.3740          0.2558
      3452.3000          0.0000          0.0200          0.0000          0.5707          0.0200          0.0000          1.0000          0.3560          0.2671
      3452.4000          0.0000          0.0200          0.0000          0.4605          0.0200          0.0000          1.0000          0.3400          0.2774
      3452.5000          0.0000          0.0200          0.0000          0.3180          0.0200          0.0000          1.0000          0.3130          0.2953
      3452.6000          0.0000          0.0200          0.0000          0.2668          0.0200          0.0000          1.0000          0.3005          0.3038
      3452.7000          0.0000          0.0200          0.0000          0.3196          0.0200          0.0000          1.0000          0.3133          0.2950
      3452.8000          0.0000          0.0200          0.0000          0.2816          0.0200          0.0000          1.0000          0.3043          0.3011
      3452.9000          0.0000          0.0200          0.0000          0.2956          0.0200          0.0000          1.0000          0.3078          0.2988
      3453.0000          0.0000          0.0200          0.0000          0.1843          0.0200          0.0000          1.0000          0.2749          0.3216
      3453.1000          0.0000          0.0200          0.0000          0.2492          0.0200          0.0000          1.0000          0.2957          0.3070
      3453.2000          0.0000          0.0200          0.0000          0.1335          0.0200          0.0000          1.0000          0.2534          0.3372
      3453.3000          0.0000          0.0200          0.0000          0.0802          0.0200          0.0000          1.0000          0.2209          0.3618
      3453.4000          0.0000          0.0200          0.0000          0.0759          0.0200          0.0000          1.0000          0.2176          0.3644
      3453.5000          0.0000          0.0200          0.0000          0.0464          0.0200          0.0000          1.0000          0.1881          0.3881
      3453.6000          0.0000          0.0200          0.0000          0.0316          0.0200          0.0000          1.0000          0.1661          0.4068
      3453.7000          0.0000          0.0200          0.0000          0.0232          0.0200          0.0000          1.0000          0.1493          0.4217
      3453.8000          0.0000          0.0200          0.0000          0.0226          0.0200          0.0000          1.0000          0.1479          0.4230
      3453.9000          0.0000          0.0200          0.0000          0.0162          0.0200          0.0000          1.0000          0.1309          0.4388
      3454.0000          0.0000          0.0200          0.0000          0.0129          0.0200          0.0000          1.0000          0.1192          0.4500
      3454.1000          0.0000          0.0201          0.0000          0.0069          0.0201          0.0000          1.0000          0.0896          0.4801
      3454.2000          0.0000          0.0302          0.0000          0.0072          0.0302          0.0000          1.0000          0.0573          0.4870
      3454.3000          0.0000          0.0416          0.0000          0.0127          0.0416          0.0000          1.0000          0.0425          0.4700
      3454.4000          0.0000          0.0470          0.0000          0.0143          0.0546          0.0000          0.8601          0.0062          0.4758
      3454.5000          0.0000          0.0499          0.0000          0.0157          0.0681          0.0000          0.7339          0.0000          0.4833
      3454.6000          0.0000          0.0522          0.0000          0.0110          0.0799          0.0000          0.6534          0.0000          0.5111
      3454.7000          0.0000          0.0543          0.0000          0.0091          0.0901          0.0000          0.6022          0.0000          0.5293
      3454.8000          0.0000          0.0612          0.0000          0.0059          0.0993          0.0000          0.6169          0.0000          0.5581
      3454.9000          0.0000          0.0653          0.0000          0.0068          0.1077          0.0000          0.6070          0.0000          0.5584
